$GPGGA,034000.000,5410.8956,N,08326.6999,E,1,07,1.8,436.9,M,-37.9,M,,0000*7F
$GPGSA,A,3,06,19,12,02,57,17,25,,,,,,3.0,1.8,2.4*32
$GPRMC,034000.000,A,5410.8956,N,08326.6999,E,42.42,15.89,041016,,,A*6C
$GPGGA,034001.000,5410.9069,N,08326.7063,E,1,07,1.8,441.3,M,-37.9,M,,0000*7D
$GPGSA,A,3,06,19,12,02,57,17,25,,,,,,3.0,1.8,2.4*32
$GPRMC,034001.000,A,5410.9069,N,08326.7063,E,41.87,17.06,041016,,,A*6B
$GPGGA,034002.000,5410.9180,N,08326.7134,E,1,08,1.5,446.5,M,-37.9,M,,0000*78
$GPGSA,A,3,06,19,12,02,57,17,25,03,,,,,2.9,1.5,2.4*34
$GPRMC,034002.000,A,5410.9180,N,08326.7134,E,42.75,17.48,041016,,,A*69
$GPGGA,034003.000,5410.9292,N,08326.7203,E,1,08,1.5,450.7,M,-37.9,M,,0000*7B
$GPGSA,A,3,06,19,12,02,57,17,25,03,,,,,2.9,1.5,2.4*34
$GPRMC,034003.000,A,5410.9292,N,08326.7203,E,43.57,17.22,041016,,,A*62
$GPGGA,034004.000,5410.9406,N,08326.7271,E,1,08,1.5,454.8,M,-37.9,M,,0000*79
$GPGSA,A,3,06,19,12,02,57,17,25,03,,,,,2.9,1.5,2.4*34
$GPGSV,3,1,12,06,78,123,33,19,55,091,36,12,55,291,17,02,52,218,24*73
$GPGSV,3,2,12,57,39,104,35,17,35,095,38,25,19,313,19,03,16,035,11*73
$GPGSV,3,3,12,14,02,340,07,22,02,025,17,23,02,067,33,24,17,240,*7A
$GPRMC,034004.000,A,5410.9406,N,08326.7271,E,43.83,17.44,041016,,,A*62
$GPGGA,034005.000,5410.9519,N,08326.7343,E,1,08,1.5,459.2,M,-37.9,M,,0000*70
$GPGSA,A,3,06,19,12,02,57,17,25,03,,,,,2.9,1.5,2.4*34
$GPRMC,034005.000,A,5410.9519,N,08326.7343,E,43.27,18.23,041016,,,A*6C
$GPGGA,034006.000,5410.9640,N,08326.7435,E,1,08,1.5,466.1,M,-37.9,M,,0000*75
$GPGSA,A,3,06,19,12,02,57,17,25,03,,,,,2.9,1.5,2.4*34
$GPRMC,034006.000,A,5410.9640,N,08326.7435,E,42.49,19.26,041016,,,A*6B
$GPGGA,034007.000,5410.9750,N,08326.7517,E,1,08,1.5,471.1,M,-37.9,M,,0000*73
$GPGSA,A,3,06,19,12,02,57,17,25,03,,,,,2.9,1.5,2.4*34
$GPRMC,034007.000,A,5410.9750,N,08326.7517,E,41.90,20.58,041016,,,A*6F
$GPGGA,034008.000,5410.9855,N,08326.7601,E,1,08,1.5,475.9,M,-37.9,M,,0000*7E
$GPGSA,A,3,06,19,12,02,57,17,25,03,,,,,2.9,1.5,2.4*34
$GPRMC,034008.000,A,5410.9855,N,08326.7601,E,41.07,22.50,041016,,,A*6A
$GPGGA,034009.000,5410.9957,N,08326.7700,E,1,09,1.0,482.2,M,-37.9,M,,0000*7B
$GPGSA,A,3,06,19,12,02,57,17,25,24,03,,,,1.9,1.0,1.5*36
$GPGSV,3,1,12,06,78,123,33,19,55,091,35,12,55,291,17,02,52,218,24*70
$GPGSV,3,2,12,57,39,104,34,17,35,095,37,25,19,313,20,24,17,240,22*73
$GPGSV,3,3,12,03,16,035,13,14,02,340,13,22,02,025,15,23,02,067,32*7A
$GPRMC,034009.000,A,5410.9957,N,08326.7700,E,40.55,24.33,041016,,,A*6D
$GPGGA,034010.000,5411.0060,N,08326.7802,E,1,09,1.0,488.1,M,-37.9,M,,0000*72
$GPGSA,A,3,06,19,12,02,57,17,25,24,03,,,,1.9,1.0,1.5*36
$GPRMC,034010.000,A,5411.0060,N,08326.7802,E,40.45,26.24,041016,,,A*68
$GPGGA,034011.000,5411.0153,N,08326.7898,E,1,08,1.5,492.1,M,-37.9,M,,0000*7E
$GPGSA,A,3,06,19,12,02,57,17,25,03,,,,,2.9,1.5,2.4*34
$GPRMC,034011.000,A,5411.0153,N,08326.7898,E,39.94,28.55,041016,,,A*61
$GPGGA,034012.000,5411.0248,N,08326.8012,E,1,09,1.0,498.0,M,-37.9,M,,0000*7E
$GPGSA,A,3,06,19,12,02,57,17,25,24,03,,,,1.9,1.0,1.5*36
$GPRMC,034012.000,A,5411.0248,N,08326.8012,E,39.24,31.36,041016,,,A*68
$GPGGA,034013.000,5411.0338,N,08326.8128,E,1,09,1.0,503.1,M,-37.9,M,,0000*73
$GPGSA,A,3,06,19,12,02,57,17,25,24,03,,,,1.9,1.0,1.5*36
$GPRMC,034013.000,A,5411.0338,N,08326.8128,E,38.76,34.22,041016,,,A*61
$GPGGA,034014.000,5411.0422,N,08326.8245,E,1,09,1.0,507.6,M,-37.9,M,,0000*73
$GPGSA,A,3,06,19,12,02,57,17,25,24,03,,,,1.9,1.0,1.5*36
$GPGSV,3,1,12,06,78,123,33,19,55,091,29,12,55,291,20,02,52,218,24*79
$GPGSV,3,2,12,57,39,104,34,17,35,095,35,25,19,313,21,24,17,240,17*76
$GPGSV,3,3,12,03,16,035,16,14,02,340,18,22,02,025,15,23,02,067,27*70
$GPRMC,034014.000,A,5411.0422,N,08326.8245,E,38.46,36.85,041016,,,A*6E
$GPGGA,034015.000,5411.0502,N,08326.8374,E,1,08,1.5,512.7,M,-37.9,M,,0000*73
$GPGSA,A,3,06,19,12,02,57,17,25,03,,,,,2.9,1.5,2.4*34
$GPRMC,034015.000,A,5411.0502,N,08326.8374,E,38.47,39.59,041016,,,A*60
$GPGGA,034016.000,5411.0580,N,08326.8506,E,1,09,1.0,517.3,M,-37.9,M,,0000*7C
$GPGSA,A,3,06,19,12,02,57,17,25,24,03,,,,1.9,1.0,1.5*36
$GPRMC,034016.000,A,5411.0580,N,08326.8506,E,38.00,42.22,041016,,,A*69
$GPGGA,034017.000,5411.0660,N,08326.8635,E,1,08,1.2,520.4,M,-37.9,M,,0000*73
$GPGSA,A,3,06,19,12,02,57,17,24,03,,,,,2.0,1.2,1.6*3A
$GPRMC,034017.000,A,5411.0660,N,08326.8635,E,37.74,43.94,041016,,,A*66
$GPGGA,034018.000,5411.0735,N,08326.8766,E,1,09,1.0,523.3,M,-37.9,M,,0000*7D
$GPGSA,A,3,06,19,12,02,57,17,25,24,03,,,,1.9,1.0,1.5*36
$GPRMC,034018.000,A,5411.0735,N,08326.8766,E,37.59,46.01,041016,,,A*69
$GPGGA,034019.000,5411.0804,N,08326.8901,E,1,08,1.2,525.9,M,-37.9,M,,0000*71
$GPGSA,A,3,06,19,12,02,57,17,25,24,,,,,2.1,1.2,1.7*3E
$GPGSV,3,1,12,06,78,123,33,19,55,091,29,12,55,291,16,02,52,218,26*7E
$GPGSV,3,2,12,57,39,104,33,17,35,095,26,25,19,313,10,24,17,240,16*70
$GPGSV,3,3,12,03,16,035,12,14,02,340,17,22,02,025,15,23,02,067,15*7A
$GPRMC,034019.000,A,5411.0804,N,08326.8901,E,36.90,48.90,041016,,,A*68
$GPGGA,034020.000,5411.0868,N,08326.9036,E,1,09,1.0,527.9,M,-37.9,M,,0000*7C
$GPGSA,A,3,06,19,12,02,57,17,25,24,03,,,,1.9,1.0,1.5*36
$GPRMC,034020.000,A,5411.0868,N,08326.9036,E,36.76,50.81,041016,,,A*65
$GPGGA,034021.000,5411.0927,N,08326.9172,E,1,09,1.0,530.1,M,-37.9,M,,0000*78
$GPGSA,A,3,06,19,12,02,57,17,25,24,03,,,,1.9,1.0,1.5*36
$GPRMC,034021.000,A,5411.0927,N,08326.9172,E,36.46,52.87,041016,,,A*68
$GPGGA,034022.000,5411.0983,N,08326.9312,E,1,09,1.0,531.9,M,-37.9,M,,0000*78
$GPGSA,A,3,06,19,12,02,57,17,25,24,03,,,,1.9,1.0,1.5*36
$GPRMC,034022.000,A,5411.0983,N,08326.9312,E,35.99,56.13,041016,,,A*69
$GPGGA,034023.000,5411.1034,N,08326.9457,E,1,07,1.8,533.5,M,-37.9,M,,0000*73
$GPGSA,A,3,06,19,12,02,57,17,25,,,,,,3.0,1.8,2.4*32
$GPRMC,034023.000,A,5411.1034,N,08326.9457,E,35.73,58.84,041016,,,A*6E
$GPGGA,034024.000,5411.1079,N,08326.9604,E,1,06,1.9,534.9,M,-37.9,M,,0000*72
$GPGSA,A,3,06,19,02,57,17,25,,,,,,,3.4,1.9,2.8*38
$GPGSV,3,1,12,06,78,123,32,19,55,091,21,02,52,218,27,57,39,104,28*7F
$GPGSV,3,2,12,17,35,095,20,25,19,313,19,03,16,035,06,12,55,291,05*7B
$GPGSV,3,3,12,14,02,340,16,22,02,025,16,23,02,067,17,24,17,240,16*7A
$GPRMC,034024.000,A,5411.1079,N,08326.9604,E,35.19,62.35,041016,,,A*6B
$GPGGA,034025.000,5411.1120,N,08326.9754,E,1,07,1.7,536.2,M,-37.9,M,,0000*7C
$GPGSA,A,3,06,19,02,57,17,25,03,,,,,,3.2,1.7,2.8*33
$GPRMC,034025.000,A,5411.1120,N,08326.9754,E,35.45,64.12,041016,,,A*69
$GPGGA,034026.000,5411.1154,N,08326.9910,E,1,07,1.7,537.8,M,-37.9,M,,0000*79
$GPGSA,A,3,06,19,02,57,17,25,03,,,,,,3.2,1.7,2.8*33
$GPRMC,034026.000,A,5411.1154,N,08326.9910,E,35.40,68.54,041016,,,A*6C
$GPGGA,034027.000,5411.1186,N,08327.0070,E,1,07,1.8,539.4,M,-37.9,M,,0000*7D
$GPGSA,A,3,06,19,12,02,57,17,25,,,,,,3.0,1.8,2.4*32
$GPRMC,034027.000,A,5411.1186,N,08327.0070,E,35.50,70.82,041016,,,A*66
$GPGGA,034028.000,5411.1215,N,08327.0234,E,1,06,3.0,541.1,M,-37.9,M,,0000*78
$GPGSA,A,3,06,19,12,17,25,03,,,,,,,4.7,3.0,3.7*39
$GPRMC,034028.000,A,5411.1215,N,08327.0234,E,36.50,73.21,041016,,,A*6B
$GPGGA,034029.000,5411.1242,N,08327.0405,E,1,07,1.7,543.1,M,-37.9,M,,0000*79
$GPGSA,A,3,06,19,12,02,17,25,03,,,,,,3.1,1.7,2.6*3F
$GPGSV,3,1,12,06,78,123,31,19,55,091,18,12,55,291,12,02,52,218,30*7D
$GPGSV,3,2,12,17,35,095,22,25,19,313,19,03,16,035,11,14,02,340,14*76
$GPGSV,3,3,12,22,02,025,15,23,02,067,15,57,39,104,22,24,17,240,*76
$GPRMC,034029.000,A,5411.1242,N,08327.0405,E,36.28,75.88,041016,,,A*66
$GPGGA,034030.000,5411.1268,N,08327.0580,E,1,08,1.5,545.4,M,-37.9,M,,0000*7B
$GPGSA,A,3,06,19,12,02,57,17,25,03,,,,,2.9,1.5,2.4*34
$GPRMC,034030.000,A,5411.1268,N,08327.0580,E,36.78,77.67,041016,,,A*6C
$GPGGA,034031.000,5411.1287,N,08327.0749,E,1,06,3.0,547.0,M,-37.9,M,,0000*73
$GPGSA,A,3,06,19,12,17,25,03,,,,,,,4.7,3.0,3.7*39
$GPRMC,034031.000,A,5411.1287,N,08327.0749,E,36.01,79.69,041016,,,A*65
$GPGGA,034032.000,5411.1301,N,08327.0918,E,1,06,3.0,548.5,M,-37.9,M,,0000*7F
$GPGSA,A,3,06,19,12,17,25,03,,,,,,,4.7,3.0,3.7*39
$GPRMC,034032.000,A,5411.1301,N,08327.0918,E,35.77,81.77,041016,,,A*69
$GPGGA,034033.000,5411.1311,N,08327.1082,E,1,07,1.7,549.6,M,-37.9,M,,0000*72
$GPGSA,A,3,06,19,12,02,17,25,03,,,,,,3.1,1.7,2.6*3F
$GPRMC,034033.000,A,5411.1311,N,08327.1082,E,35.36,83.25,041016,,,A*62
$GPGGA,034034.000,5411.1314,N,08327.1250,E,1,08,1.5,550.4,M,-37.9,M,,0000*7A
$GPGSA,A,3,06,19,12,02,57,17,25,03,,,,,2.9,1.5,2.4*34
$GPGSV,3,1,12,06,78,123,31,19,55,091,19,12,55,291,14,02,52,218,30*7A
$GPGSV,3,2,12,57,39,104,24,17,35,095,21,25,19,313,20,03,16,035,16*76
$GPGSV,3,3,12,14,02,340,16,22,02,025,17,23,02,067,15,24,17,240,18*77
$GPRMC,034034.000,A,5411.1314,N,08327.1250,E,35.61,86.06,041016,,,A*6B
$GPGGA,034035.000,5411.1310,N,08327.1418,E,1,07,1.7,550.7,M,-37.9,M,,0000*7B
$GPGSA,A,3,06,19,12,02,17,25,03,,,,,,3.1,1.7,2.6*3F
$GPRMC,034035.000,A,5411.1310,N,08327.1418,E,36.37,89.26,041016,,,A*69
$GPGGA,034036.000,5411.1301,N,08327.1587,E,1,08,1.5,551.3,M,-37.9,M,,0000*77
$GPGSA,A,3,06,19,12,02,57,17,25,03,,,,,2.9,1.5,2.4*34
$GPRMC,034036.000,A,5411.1301,N,08327.1587,E,36.10,90.16,041016,,,A*63
$GPGGA,034037.000,5411.1296,N,08327.1759,E,1,07,1.7,552.2,M,-37.9,M,,0000*77
$GPGSA,A,3,06,19,12,02,17,25,03,,,,,,3.1,1.7,2.6*3F
$GPRMC,034037.000,A,5411.1296,N,08327.1759,E,35.94,90.61,041016,,,A*63
$GPGGA,034038.000,5411.1290,N,08327.1931,E,1,07,1.7,553.3,M,-37.9,M,,0000*7E
$GPGSA,A,3,06,19,12,02,17,25,03,,,,,,3.1,1.7,2.6*3F
$GPRMC,034038.000,A,5411.1290,N,08327.1931,E,35.87,92.97,041016,,,A*63
$GPGGA,034039.000,5411.1277,N,08327.2101,E,1,07,1.7,553.9,M,-37.9,M,,0000*74
$GPGSA,A,3,06,19,12,02,17,25,03,,,,,,3.1,1.7,2.6*3F
$GPGSV,3,1,12,06,78,123,30,19,55,091,19,12,55,291,21,02,52,218,31*7C
$GPGSV,3,2,12,17,35,095,22,25,19,313,19,03,16,035,19,22,02,025,17*78
$GPGSV,3,3,12,23,02,067,04,24,17,240,22,57,39,104,,04,09,300,*79
$GPRMC,034039.000,A,5411.1277,N,08327.2101,E,36.02,95.59,041016,,,A*68
$GPGGA,034040.000,5411.1257,N,08327.2277,E,1,09,1.0,554.8,M,-37.9,M,,0000*75
$GPGSA,A,3,06,19,12,02,57,17,25,24,03,,,,1.9,1.0,1.5*36
$GPRMC,034040.000,A,5411.1257,N,08327.2277,E,36.85,99.59,041016,,,A*65
$GPGGA,034041.000,5411.1236,N,08327.2453,E,1,08,1.1,555.8,M,-37.9,M,,0000*72
$GPGSA,A,3,06,19,12,02,17,25,24,03,,,,,1.9,1.1,1.6*36
$GPRMC,034041.000,A,5411.1236,N,08327.2453,E,37.05,102.19,041016,,,A*5D
$GPGGA,034042.000,5411.1210,N,08327.2627,E,1,08,1.1,557.0,M,-37.9,M,,0000*7E
$GPGSA,A,3,06,19,12,02,17,25,24,03,,,,,1.9,1.1,1.6*36
$GPRMC,034042.000,A,5411.1210,N,08327.2627,E,37.36,104.61,041016,,,A*52
$GPGGA,034043.000,5411.1176,N,08327.2804,E,1,08,1.1,557.3,M,-37.9,M,,0000*70
$GPGSA,A,3,06,19,12,02,17,25,24,03,,,,,1.9,1.1,1.6*36
$GPRMC,034043.000,A,5411.1176,N,08327.2804,E,38.37,108.02,041016,,,A*58
$GPGGA,034044.000,5411.1132,N,08327.2986,E,1,08,1.1,557.9,M,-37.9,M,,0000*76
$GPGSA,A,3,06,19,12,02,17,25,24,03,,,,,1.9,1.1,1.6*36
$GPGSV,3,1,12,06,78,123,30,19,55,091,19,12,55,291,22,02,52,218,33*7D
$GPGSV,3,2,12,17,35,095,23,25,19,313,13,24,17,240,24,03,16,035,18*71
$GPGSV,3,3,12,23,02,067,25,57,39,104,,04,09,300,,14,02,340,*7C
$GPRMC,034044.000,A,5411.1132,N,08327.2986,E,40.53,112.57,041016,,,A*52
$GPGGA,034045.000,5411.1086,N,08327.3164,E,1,08,1.1,558.8,M,-37.9,M,,0000*72
$GPGSA,A,3,06,19,12,02,17,25,24,03,,,,,1.9,1.1,1.6*36
$GPRMC,034045.000,A,5411.1086,N,08327.3164,E,40.07,114.26,041016,,,A*59
$GPGGA,034046.000,5411.1035,N,08327.3341,E,1,08,1.1,559.4,M,-37.9,M,,0000*71
$GPGSA,A,3,06,19,12,02,17,25,24,03,,,,,1.9,1.1,1.6*36
$GPRMC,034046.000,A,5411.1035,N,08327.3341,E,40.51,117.14,041016,,,A*56
$GPGGA,034047.000,5411.0974,N,08327.3521,E,1,08,1.1,559.4,M,-37.9,M,,0000*7D
$GPGSA,A,3,06,19,12,02,17,25,24,03,,,,,1.9,1.1,1.6*36
$GPRMC,034047.000,A,5411.0974,N,08327.3521,E,42.27,120.90,041016,,,A*51
$GPGGA,034048.000,5411.0911,N,08327.3690,E,1,08,1.1,559.6,M,-37.9,M,,0000*7A
$GPGSA,A,3,06,19,12,02,17,25,24,03,,,,,1.9,1.1,1.6*36
$GPRMC,034048.000,A,5411.0911,N,08327.3690,E,42.50,123.02,041016,,,A*5C
$GPGGA,034049.000,5411.0844,N,08327.3853,E,1,08,1.1,559.9,M,-37.9,M,,0000*74
$GPGSA,A,3,06,19,12,02,17,25,24,03,,,,,1.9,1.1,1.6*36
$GPGSV,3,1,12,06,78,123,29,19,55,091,19,12,55,291,22,02,52,218,34*72
$GPGSV,3,2,12,17,35,095,23,25,19,313,16,24,17,240,23,03,16,035,19*72
$GPGSV,3,3,12,14,02,340,12,22,02,025,20,23,02,067,19,57,39,104,13*7B
$GPRMC,034049.000,A,5411.0844,N,08327.3853,E,42.43,125.34,041016,,,A*5C
$GPGGA,034050.000,5411.0773,N,08327.4009,E,1,06,1.7,559.8,M,-37.9,M,,0000*7E
$GPGSA,A,3,06,19,12,02,24,03,,,,,,,2.4,1.7,1.7*3E
$GPRMC,034050.000,A,5411.0773,N,08327.4009,E,41.80,128.01,041016,,,A*58
$GPGGA,034051.000,5411.0699,N,08327.4159,E,1,06,1.7,560.5,M,-37.9,M,,0000*79
$GPGSA,A,3,06,19,12,02,24,03,,,,,,,2.4,1.7,1.7*3E
$GPRMC,034051.000,A,5411.0699,N,08327.4159,E,41.63,129.85,041016,,,A*58
$GPGGA,034052.000,5411.0622,N,08327.4308,E,1,08,1.1,561.3,M,-37.9,M,,0000*73
$GPGSA,A,3,06,19,12,02,17,25,24,03,,,,,1.9,1.1,1.6*36
$GPRMC,034052.000,A,5411.0622,N,08327.4308,E,42.36,131.73,041016,,,A*5E
$GPGGA,034053.000,5411.0540,N,08327.4451,E,1,08,1.1,561.6,M,-37.9,M,,0000*7B
$GPGSA,A,3,06,19,12,02,17,25,24,03,,,,,1.9,1.1,1.6*36
$GPRMC,034053.000,A,5411.0540,N,08327.4451,E,42.35,133.53,041016,,,A*50
$GPGGA,034054.000,5411.0453,N,08327.4594,E,1,08,1.1,562.1,M,-37.9,M,,0000*73
$GPGSA,A,3,06,19,12,02,17,25,24,03,,,,,1.9,1.1,1.6*36
$GPGSV,3,1,12,06,78,123,25,19,55,091,18,12,55,291,23,02,52,218,35*7F
$GPGSV,3,2,12,17,35,095,19,25,19,313,12,24,17,240,24,03,16,035,18*79
$GPGSV,3,3,12,14,02,340,23,22,02,025,16,23,02,067,24,57,39,104,17*76
$GPRMC,034054.000,A,5411.0453,N,08327.4594,E,42.08,135.81,041016,,,A*5B
$GPGGA,034055.000,5411.0359,N,08327.4739,E,1,07,1.3,562.6,M,-37.9,M,,0000*70
$GPGSA,A,3,06,19,12,02,17,25,24,,,,,,2.2,1.3,1.8*31
$GPRMC,034055.000,A,5411.0359,N,08327.4739,E,44.37,137.65,041016,,,A*50
$GPGGA,034056.000,5411.0263,N,08327.4881,E,1,07,1.3,562.6,M,-37.9,M,,0000*77
$GPGSA,A,3,06,19,12,02,17,25,24,,,,,,2.2,1.3,1.8*31
$GPRMC,034056.000,A,5411.0263,N,08327.4881,E,45.04,139.18,041016,,,A*52
$GPGGA,034057.000,5411.0161,N,08327.5015,E,1,08,1.1,562.8,M,-37.9,M,,0000*70
$GPGSA,A,3,06,19,12,02,17,25,24,03,,,,,1.9,1.1,1.6*36
$GPRMC,034057.000,A,5411.0161,N,08327.5015,E,44.77,141.91,041016,,,A*5D
$GPGGA,034058.000,5411.0059,N,08327.5143,E,1,08,1.1,562.8,M,-37.9,M,,0000*77
$GPGSA,A,3,06,19,12,02,17,25,24,03,,,,,1.9,1.1,1.6*36
$GPRMC,034058.000,A,5411.0059,N,08327.5143,E,45.31,143.50,041016,,,A*56
$GPGGA,034059.000,5410.9955,N,08327.5269,E,1,07,1.3,562.7,M,-37.9,M,,0000*72
$GPGSA,A,3,06,19,12,02,17,25,24,,,,,,2.2,1.3,1.8*31
$GPGSV,3,1,12,06,78,123,25,19,55,091,18,12,55,291,29,02,52,218,35*75
$GPGSV,3,2,12,17,35,095,18,25,19,313,15,24,17,240,25,03,16,035,09*7E
$GPGSV,3,3,12,14,02,340,04,22,02,025,14,23,02,067,10,57,39,104,*70
$GPRMC,034059.000,A,5410.9955,N,08327.5269,E,45.77,144.86,041016,,,A*5F
$GPGGA,034100.000,5410.9846,N,08327.5387,E,1,08,1.1,563.0,M,-37.9,M,,0000*76
$GPGSA,A,3,06,19,12,02,17,25,24,03,,,,,1.9,1.1,1.6*36
$GPRMC,034100.000,A,5410.9846,N,08327.5387,E,46.08,146.98,041016,,,A*56
$GPGGA,034101.000,5410.9735,N,08327.5496,E,1,08,1.1,563.5,M,-37.9,M,,0000*7E
$GPGSA,A,3,06,19,12,02,17,25,24,03,,,,,1.9,1.1,1.6*36
$GPRMC,034101.000,A,5410.9735,N,08327.5496,E,46.78,148.84,041016,,,A*5F
$GPGGA,034102.000,5410.9620,N,08327.5604,E,1,08,1.1,564.7,M,-37.9,M,,0000*74
$GPGSA,A,3,06,19,12,02,17,25,24,03,,,,,1.9,1.1,1.6*36
$GPRMC,034102.000,A,5410.9620,N,08327.5604,E,47.28,150.64,041016,,,A*53
$GPGGA,034103.000,5410.9500,N,08327.5709,E,1,08,1.1,565.8,M,-37.9,M,,0000*76
$GPGSA,A,3,06,19,12,02,17,25,24,03,,,,,1.9,1.1,1.6*36
$GPRMC,034103.000,A,5410.9500,N,08327.5709,E,48.02,152.01,041016,,,A*59
$GPGGA,034104.000,5410.9375,N,08327.5805,E,1,06,1.8,566.9,M,-37.9,M,,0000*73
$GPGSA,A,3,19,12,02,17,25,03,,,,,,,3.6,1.8,3.2*34
$GPGSV,3,1,12,19,55,091,24,12,55,291,29,02,52,218,35,17,35,095,17*7E
$GPGSV,3,2,12,25,19,313,15,03,16,035,16,14,02,340,04,22,02,025,16*72
$GPGSV,3,3,12,23,02,067,18,06,78,123,,57,39,104,,24,17,240,*73
$GPRMC,034104.000,A,5410.9375,N,08327.5805,E,48.52,153.88,041016,,,A*5C
$GPGGA,034105.000,5410.9248,N,08327.5903,E,1,06,1.8,567.6,M,-37.9,M,,0000*74
$GPGSA,A,3,19,12,02,17,25,03,,,,,,,3.7,1.8,3.2*35
$GPRMC,034105.000,A,5410.9248,N,08327.5903,E,49.08,155.91,041016,,,A*55
$GPGGA,034106.000,5410.9119,N,08327.5995,E,1,08,1.1,568.4,M,-37.9,M,,0000*75
$GPGSA,A,3,06,19,12,02,17,25,24,03,,,,,1.9,1.1,1.6*36
$GPRMC,034106.000,A,5410.9119,N,08327.5995,E,49.84,157.49,041016,,,A*5D
$GPGGA,034107.000,5410.8987,N,08327.6083,E,1,07,1.1,569.6,M,-37.9,M,,0000*7B
$GPGSA,A,3,19,12,02,17,25,24,03,,,,,,2.1,1.1,1.8*35
$GPRMC,034107.000,A,5410.8987,N,08327.6083,E,50.80,158.86,041016,,,A*5F
$GPGGA,034108.000,5410.8851,N,08327.6160,E,1,08,1.1,568.9,M,-37.9,M,,0000*73
$GPGSA,A,3,06,19,12,02,17,25,24,03,,,,,1.9,1.1,1.6*36
$GPRMC,034108.000,A,5410.8851,N,08327.6160,E,51.01,160.97,041016,,,A*55
$GPGGA,034109.000,5410.8713,N,08327.6235,E,1,07,1.1,569.4,M,-37.9,M,,0000*7B
$GPGSA,A,3,19,12,02,17,25,24,03,,,,,,2.1,1.1,1.8*35
$GPGSV,3,1,12,19,55,091,16,12,55,291,30,02,52,218,35,17,35,095,17*77
$GPGSV,3,2,12,25,19,313,16,24,17,240,29,03,16,035,18,14,02,340,04*70
$GPGSV,3,3,12,22,02,025,11,23,02,067,19,06,78,123,,57,39,104,*71
$GPRMC,034109.000,A,5410.8713,N,08327.6235,E,52.50,161.69,041016,,,A*59
$GPGGA,034110.000,5410.8570,N,08327.6305,E,1,07,1.1,570.4,M,-37.9,M,,0000*7E
$GPGSA,A,3,19,12,02,17,25,24,03,,,,,,2.1,1.1,1.8*35
$GPRMC,034110.000,A,5410.8570,N,08327.6305,E,53.86,164.07,041016,,,A*53
$GPGGA,034111.000,5410.8421,N,08327.6372,E,1,07,1.1,570.8,M,-37.9,M,,0000*76
$GPGSA,A,3,19,12,02,17,25,24,03,,,,,,2.1,1.1,1.8*35
$GPRMC,034111.000,A,5410.8421,N,08327.6372,E,54.82,165.12,041016,,,A*51
$GPGGA,034112.000,5410.8269,N,08327.6429,E,1,07,1.1,571.5,M,-37.9,M,,0000*7A
$GPGSA,A,3,19,12,02,17,25,24,03,,,,,,2.1,1.1,1.8*35
$GPRMC,034112.000,A,5410.8269,N,08327.6429,E,55.38,167.24,041016,,,A*56
$GPGGA,034113.000,5410.8113,N,08327.6477,E,1,07,1.1,572.7,M,-37.9,M,,0000*7F
$GPGSA,A,3,19,12,02,17,25,24,03,,,,,,2.1,1.1,1.8*35
$GPRMC,034113.000,A,5410.8113,N,08327.6477,E,56.37,169.26,041016,,,A*52
$GPGGA,034114.000,5410.7955,N,08327.6523,E,1,08,1.1,574.0,M,-37.9,M,,0000*73
$GPGSA,A,3,06,19,12,02,17,25,24,03,,,,,1.9,1.1,1.6*36
$GPGSV,3,1,12,06,78,123,23,19,55,091,16,12,55,291,30,02,52,218,34*74
$GPGSV,3,2,12,17,35,095,19,25,19,313,17,24,17,240,29,03,16,035,18*71
$GPGSV,3,3,12,14,02,340,04,22,02,025,16,23,02,067,18,57,39,104,16*7D
$GPRMC,034114.000,A,5410.7955,N,08327.6523,E,57.71,170.08,041016,,,A*57
$GPGGA,034115.000,5410.7794,N,08327.6565,E,1,08,1.1,575.3,M,-37.9,M,,0000*71
$GPGSA,A,3,06,19,12,02,17,25,24,03,,,,,1.9,1.1,1.5*35
$GPRMC,034115.000,A,5410.7794,N,08327.6565,E,58.56,171.25,041016,,,A*53
$GPGGA,034116.000,5410.7630,N,08327.6598,E,1,08,1.1,577.3,M,-37.9,M,,0000*7D
$GPGSA,A,3,06,19,12,02,17,25,24,03,,,,,1.9,1.1,1.5*35
$GPRMC,034116.000,A,5410.7630,N,08327.6598,E,59.24,173.50,041016,,,A*59
$GPGGA,034117.000,5410.7465,N,08327.6633,E,1,07,1.1,579.0,M,-37.9,M,,0000*7E
$GPGSA,A,3,06,12,02,17,25,24,03,,,,,,2.0,1.1,1.6*34
$GPRMC,034117.000,A,5410.7465,N,08327.6633,E,59.98,174.02,041016,,,A*5F
$GPGGA,034118.000,5410.7297,N,08327.6659,E,1,08,1.1,579.8,M,-37.9,M,,0000*71
$GPGSA,A,3,06,19,12,02,17,25,24,03,,,,,1.9,1.1,1.5*35
$GPRMC,034118.000,A,5410.7297,N,08327.6659,E,60.81,174.86,041016,,,A*59
$GPGGA,034119.000,5410.7127,N,08327.6679,E,1,08,1.1,580.9,M,-37.9,M,,0000*7D
$GPGSA,A,3,06,19,12,02,17,25,24,03,,,,,1.9,1.1,1.5*35
$GPGSV,3,1,12,06,78,123,25,19,55,091,17,12,55,291,31,02,52,218,34*72
$GPGSV,3,2,12,17,35,095,18,25,19,313,19,24,17,240,30,03,16,035,17*79
$GPGSV,3,3,12,22,02,025,06,23,02,067,18,57,39,104,17,04,09,300,*77
$GPRMC,034119.000,A,5410.7127,N,08327.6679,E,61.41,176.16,041016,,,A*54
$GPGGA,034120.000,5410.6954,N,08327.6689,E,1,07,1.3,581.6,M,-37.9,M,,0000*76
$GPGSA,A,3,06,19,12,02,17,25,24,,,,,,2.2,1.3,1.8*31
$GPRMC,034120.000,A,5410.6954,N,08327.6689,E,61.99,177.95,041016,,,A*53
$GPGGA,034121.000,5410.6780,N,08327.6694,E,1,07,1.3,582.2,M,-37.9,M,,0000*7B
$GPGSA,A,3,06,19,12,02,25,24,03,,,,,,2.1,1.3,1.7*38
$GPRMC,034121.000,A,5410.6780,N,08327.6694,E,62.51,179.07,041016,,,A*5B
$GPGGA,034122.000,5410.6604,N,08327.6693,E,1,09,1.0,583.3,M,-37.9,M,,0000*7F
$GPGSA,A,3,06,19,12,02,57,17,25,24,03,,,,1.8,1.0,1.5*37
$GPRMC,034122.000,A,5410.6604,N,08327.6693,E,63.32,180.73,041016,,,A*53
$GPGGA,034123.000,5410.6425,N,08327.6688,E,1,09,1.0,584.5,M,-37.9,M,,0000*74
$GPGSA,A,3,06,19,12,02,57,17,25,24,03,,,,1.8,1.0,1.5*37
$GPRMC,034123.000,A,5410.6425,N,08327.6688,E,64.39,181.87,041016,,,A*5F
$GPGGA,034124.000,5410.6245,N,08327.6675,E,1,09,1.0,585.0,M,-37.9,M,,0000*75
$GPGSA,A,3,06,19,12,02,57,17,25,24,03,,,,1.8,1.0,1.5*37
$GPGSV,3,1,12,06,78,123,25,19,55,091,17,12,55,291,32,02,52,218,33*76
$GPGSV,3,2,12,57,39,104,16,17,35,095,16,25,19,313,19,24,17,240,29*71
$GPGSV,3,3,12,03,16,035,15,14,02,340,15,22,02,025,17,23,02,067,20*7B
$GPRMC,034124.000,A,5410.6245,N,08327.6675,E,65.03,183.03,041016,,,A*5C
$GPGGA,034125.000,5410.6063,N,08327.6657,E,1,09,1.0,585.3,M,-37.9,M,,0000*71
$GPGSA,A,3,06,19,12,02,57,17,25,24,03,,,,1.8,1.0,1.5*37
$GPRMC,034125.000,A,5410.6063,N,08327.6657,E,65.74,184.12,041016,,,A*5C
$GPGGA,034126.000,5410.5877,N,08327.6629,E,1,09,1.0,586.1,M,-37.9,M,,0000*74
$GPGSA,A,3,06,19,12,02,57,17,25,24,03,,,,1.8,1.0,1.5*37
$GPRMC,034126.000,A,5410.5877,N,08327.6629,E,66.32,185.50,041016,,,A*5E
$GPGGA,034127.000,5410.5692,N,08327.6597,E,1,08,1.1,586.8,M,-37.9,M,,0000*7F
$GPGSA,A,3,06,12,02,57,17,25,24,03,,,,,1.9,1.1,1.6*3C
$GPRMC,034127.000,A,5410.5692,N,08327.6597,E,66.41,186.92,041016,,,A*55
$GPGGA,034128.000,5410.5508,N,08327.6558,E,1,07,1.3,587.4,M,-37.9,M,,0000*73
$GPGSA,A,3,06,12,02,57,17,24,03,,,,,,2.0,1.3,1.6*33
$GPRMC,034128.000,A,5410.5508,N,08327.6558,E,67.08,186.79,041016,,,A*50
$GPGGA,034129.000,5410.5322,N,08327.6513,E,1,08,1.1,587.8,M,-37.9,M,,0000*72
$GPGSA,A,3,06,12,02,57,17,25,24,03,,,,,1.9,1.1,1.6*3C
$GPGSV,3,1,12,06,78,119,25,12,55,290,32,02,53,218,32,57,39,104,15*71
$GPGSV,3,2,12,17,35,095,17,25,20,313,13,24,16,239,29,03,16,035,16*70
$GPGSV,3,3,12,14,02,340,13,19,54,092,19,22,01,025,16,23,02,066,20*72
$GPRMC,034129.000,A,5410.5322,N,08327.6513,E,66.88,188.75,041016,,,A*5B
$GPGGA,034130.000,5410.5137,N,08327.6463,E,1,08,1.1,588.6,M,-37.9,M,,0000*7B
$GPGSA,A,3,06,12,02,57,17,25,24,03,,,,,1.9,1.1,1.6*3C
$GPRMC,034130.000,A,5410.5137,N,08327.6463,E,67.82,189.72,041016,,,A*5E
$GPGGA,034131.000,5410.4950,N,08327.6400,E,1,08,1.1,589.4,M,-37.9,M,,0000*74
$GPGSA,A,3,06,12,02,57,17,25,24,03,,,,,1.9,1.1,1.6*3C
$GPRMC,034131.000,A,5410.4950,N,08327.6400,E,68.68,191.29,041016,,,A*5E
$GPGGA,034132.000,5410.4762,N,08327.6328,E,1,07,1.3,590.4,M,-37.9,M,,0000*70
$GPGSA,A,3,06,12,02,57,17,24,03,,,,,,2.0,1.3,1.6*33
$GPRMC,034132.000,A,5410.4762,N,08327.6328,E,69.00,192.62,041016,,,A*5C
$GPGGA,034133.000,5410.4574,N,08327.6249,E,1,08,1.1,591.5,M,-37.9,M,,0000*7F
$GPGSA,A,3,06,12,02,57,17,25,24,03,,,,,1.9,1.1,1.6*3C
$GPRMC,034133.000,A,5410.4574,N,08327.6249,E,69.18,193.49,041016,,,A*5F
$GPGGA,034134.000,5410.4387,N,08327.6165,E,1,09,1.0,592.8,M,-37.9,M,,0000*71
$GPGSA,A,3,06,12,19,02,57,17,25,24,03,,,,1.8,1.0,1.5*37
$GPGSV,3,1,12,06,78,119,25,12,55,290,33,19,54,092,19,02,53,218,31*70
$GPGSV,3,2,12,57,39,104,15,17,35,095,17,25,20,313,18,24,16,239,28*76
$GPGSV,3,3,12,03,16,035,15,14,02,340,15,22,01,025,15,23,02,066,20*7B
$GPRMC,034134.000,A,5410.4387,N,08327.6165,E,69.32,194.27,041016,,,A*58
$GPGGA,034135.000,5410.4199,N,08327.6082,E,1,08,1.1,594.0,M,-37.9,M,,0000*7B
$GPGSA,A,3,06,12,02,57,17,25,24,03,,,,,1.9,1.1,1.6*3C
$GPRMC,034135.000,A,5410.4199,N,08327.6082,E,69.58,194.17,041016,,,A*53
$GPGGA,034136.000,5410.4011,N,08327.5996,E,1,08,1.1,595.5,M,-37.9,M,,0000*72
$GPGSA,A,3,06,12,02,57,17,25,24,03,,,,,1.9,1.1,1.6*3C
$GPRMC,034136.000,A,5410.4011,N,08327.5996,E,69.88,194.84,041016,,,A*59
$GPGGA,034137.000,5410.3823,N,08327.5905,E,1,09,1.0,596.2,M,-37.9,M,,0000*73
$GPGSA,A,3,06,12,19,02,57,17,25,24,03,,,,1.8,1.0,1.5*37
$GPRMC,034137.000,A,5410.3823,N,08327.5905,E,70.77,196.25,041016,,,A*5D
$GPGGA,034138.000,5410.3635,N,08327.5809,E,1,08,1.1,597.1,M,-37.9,M,,0000*7A
$GPGSA,A,3,06,12,02,57,17,25,24,03,,,,,1.9,1.1,1.6*3C
$GPRMC,034138.000,A,5410.3635,N,08327.5809,E,70.33,197.14,041016,,,A*55
$GPGGA,034139.000,5410.3450,N,08327.5712,E,1,06,1.4,597.9,M,-37.9,M,,0000*7C
$GPGSA,A,3,06,12,02,17,24,03,,,,,,,2.1,1.4,1.6*37
$GPGSV,3,1,12,06,78,119,23,12,55,290,34,02,53,218,31,17,35,095,17*71
$GPGSV,3,2,12,24,16,239,24,03,16,035,15,14,02,340,14,19,54,092,11*75
$GPGSV,3,3,12,22,01,025,12,23,02,066,20,57,39,104,,25,20,313,*77
$GPRMC,034139.000,A,5410.3450,N,08327.5712,E,69.38,196.73,041016,,,A*53
$GPGGA,034140.000,5410.3266,N,08327.5615,E,1,07,1.4,599.5,M,-37.9,M,,0000*74
$GPGSA,A,3,06,12,19,02,17,24,03,,,,,,2.1,1.4,1.5*3C
$GPRMC,034140.000,A,5410.3266,N,08327.5615,E,69.40,197.38,041016,,,A*59
$GPGGA,034141.000,5410.3082,N,08327.5510,E,1,06,1.4,600.9,M,-37.9,M,,0000*75
$GPGSA,A,3,06,12,02,17,24,03,,,,,,,2.1,1.4,1.6*37
$GPRMC,034141.000,A,5410.3082,N,08327.5510,E,70.03,198.25,041016,,,A*5A
$GPGGA,034142.000,5410.2898,N,08327.5404,E,1,07,1.1,601.4,M,-37.9,M,,0000*78
$GPGSA,A,3,06,12,02,17,25,24,03,,,,,,1.9,1.1,1.6*3E
$GPRMC,034142.000,A,5410.2898,N,08327.5404,E,70.20,198.45,041016,,,A*58
$GPGGA,034143.000,5410.2713,N,08327.5290,E,1,07,1.1,601.9,M,-37.9,M,,0000*73
$GPGSA,A,3,06,12,02,17,25,24,03,,,,,,1.9,1.1,1.6*3E
$GPRMC,034143.000,A,5410.2713,N,08327.5290,E,70.80,199.29,041016,,,A*5F
$GPGGA,034144.000,5410.2527,N,08327.5181,E,1,07,1.1,602.9,M,-37.9,M,,0000*71
$GPGSA,A,3,06,12,02,17,25,24,03,,,,,,1.9,1.1,1.6*3E
$GPGSV,3,1,12,06,78,119,25,12,55,290,35,02,53,218,31,17,35,095,17*76
$GPGSV,3,2,12,25,20,313,23,24,16,239,25,03,16,035,15,14,02,340,21*75
$GPGSV,3,3,12,19,54,092,19,22,01,025,12,23,02,066,14,57,39,104,*7E
$GPRMC,034144.000,A,5410.2527,N,08327.5181,E,70.79,198.73,041016,,,A*56
$GPGGA,034145.000,5410.2340,N,08327.5072,E,1,06,1.1,604.6,M,-37.9,M,,0000*72
$GPGSA,A,3,12,02,17,25,24,03,,,,,,,2.3,1.1,1.9*3E
$GPRMC,034145.000,A,5410.2340,N,08327.5072,E,70.90,198.55,041016,,,A*5E
$GPGGA,034146.000,5410.2152,N,08327.4966,E,1,06,1.1,605.6,M,-37.9,M,,0000*7C
$GPGSA,A,3,12,02,17,25,24,03,,,,,,,2.3,1.1,1.9*3E
$GPRMC,034146.000,A,5410.2152,N,08327.4966,E,71.30,198.93,041016,,,A*50
$GPGGA,034147.000,5410.1963,N,08327.4858,E,1,07,1.1,606.5,M,-37.9,M,,0000*79
$GPGSA,A,3,06,12,02,17,25,24,03,,,,,,1.9,1.1,1.6*3E
$GPRMC,034147.000,A,5410.1963,N,08327.4858,E,71.79,199.01,041016,,,A*53
$GPGGA,034148.000,5410.1774,N,08327.4754,E,1,07,1.1,607.4,M,-37.9,M,,0000*7D
$GPGSA,A,3,06,12,02,17,25,24,03,,,,,,1.9,1.1,1.6*3E
$GPRMC,034148.000,A,5410.1774,N,08327.4754,E,71.52,198.36,041016,,,A*5B
$GPGGA,034149.000,5410.1585,N,08327.4655,E,1,07,1.1,608.4,M,-37.9,M,,0000*7F
$GPGSA,A,3,06,12,02,17,25,24,03,,,,,,1.9,1.1,1.6*3E
$GPGSV,3,1,12,06,78,119,24,12,55,290,35,02,53,218,31,17,35,095,16*76
$GPGSV,3,2,12,25,20,313,25,24,16,239,25,03,16,035,16,14,02,340,22*73
$GPGSV,3,3,12,19,54,092,15,22,01,025,12,23,02,066,13,57,39,104,14*70
$GPRMC,034149.000,A,5410.1585,N,08327.4655,E,71.52,198.06,041016,,,A*55
$GPGGA,034150.000,5410.1395,N,08327.4555,E,1,07,1.1,609.2,M,-37.9,M,,0000*74
$GPGSA,A,3,06,12,02,17,25,24,03,,,,,,1.9,1.1,1.6*3E
$GPRMC,034150.000,A,5410.1395,N,08327.4555,E,71.57,197.59,041016,,,A*59
$GPGGA,034151.000,5410.1204,N,08327.4453,E,1,07,1.1,609.7,M,-37.9,M,,0000*7E
$GPGSA,A,3,06,12,02,17,25,24,03,,,,,,1.9,1.1,1.6*3E
$GPRMC,034151.000,A,5410.1204,N,08327.4453,E,72.58,198.00,041016,,,A*59
$GPGGA,034152.000,5410.1011,N,08327.4352,E,1,08,1.1,610.4,M,-37.9,M,,0000*79
$GPGSA,A,3,06,12,19,02,17,25,24,03,,,,,1.9,1.1,1.5*35
$GPRMC,034152.000,A,5410.1011,N,08327.4352,E,72.82,197.57,041016,,,A*50
$GPGGA,034153.000,5410.0819,N,08327.4253,E,1,08,1.1,611.5,M,-37.9,M,,0000*79
$GPGSA,A,3,06,12,19,02,17,25,24,03,,,,,1.9,1.1,1.5*35
$GPRMC,034153.000,A,5410.0819,N,08327.4253,E,72.48,196.89,041016,,,A*54
$GPGGA,034154.000,5410.0627,N,08327.4159,E,1,07,1.1,612.9,M,-37.9,M,,0000*74
$GPGSA,A,3,06,12,02,17,25,24,03,,,,,,1.9,1.1,1.6*3E
$GPGSV,3,1,12,06,78,119,26,12,55,290,36,02,53,218,32,17,35,095,15*77
$GPGSV,3,2,12,25,20,313,26,24,16,239,26,03,16,035,18,14,02,340,24*7B
$GPGSV,3,3,12,22,01,025,13,23,02,066,16,19,54,092,,57,39,104,*75
$GPRMC,034154.000,A,5410.0627,N,08327.4159,E,71.71,195.81,041016,,,A*5B
$GPGGA,034155.000,5410.0435,N,08327.4066,E,1,07,1.1,613.8,M,-37.9,M,,0000*79
$GPGSA,A,3,06,12,02,17,25,24,03,,,,,,1.9,1.1,1.6*3E
$GPRMC,034155.000,A,5410.0435,N,08327.4066,E,71.11,195.24,041016,,,A*5F
$GPGGA,034156.000,5410.0245,N,08327.3979,E,1,07,1.1,615.7,M,-37.9,M,,0000*72
$GPGSA,A,3,06,12,02,17,25,24,03,,,,,,1.9,1.1,1.6*3E
$GPRMC,034156.000,A,5410.0245,N,08327.3979,E,70.41,194.55,041016,,,A*5E
$GPGGA,034157.000,5410.0056,N,08327.3893,E,1,07,1.1,617.0,M,-37.9,M,,0000*73
$GPGSA,A,3,06,12,02,17,25,24,03,,,,,,1.9,1.1,1.6*3E
$GPRMC,034157.000,A,5410.0056,N,08327.3893,E,69.86,194.71,041016,,,A*5F
$GPGGA,034158.000,5409.9869,N,08327.3815,E,1,07,1.1,619.0,M,-37.9,M,,0000*79
$GPGSA,A,3,06,12,02,17,25,24,03,,,,,,1.9,1.1,1.6*3E
$GPRMC,034158.000,A,5409.9869,N,08327.3815,E,68.68,193.47,041016,,,A*58
$GPGGA,034159.000,5409.9683,N,08327.3738,E,1,07,1.1,620.9,M,-37.9,M,,0000*71
$GPGSA,A,3,06,12,02,17,25,24,03,,,,,,1.9,1.1,1.6*3E
$GPGSV,3,1,12,06,78,119,26,12,55,290,36,02,53,218,32,17,35,095,15*77
$GPGSV,3,2,12,25,20,313,21,24,16,239,27,03,16,035,18,14,02,340,23*7A
$GPGSV,3,3,12,22,01,025,12,23,02,066,23,57,39,104,15,19,54,092,*76
$GPRMC,034159.000,A,5409.9683,N,08327.3738,E,68.55,194.14,041016,,,A*5C
$GPGGA,034200.000,5409.9498,N,08327.3659,E,1,07,1.1,623.0,M,-37.9,M,,0000*7A
$GPGSA,A,3,06,12,02,17,25,24,03,,,,,,1.9,1.1,1.6*3E
$GPRMC,034200.000,A,5409.9498,N,08327.3659,E,68.52,194.71,041016,,,A*59
$GPGGA,034201.000,5409.9315,N,08327.3575,E,1,07,1.1,624.6,M,-37.9,M,,0000*75
$GPGSA,A,3,06,12,02,17,25,24,03,,,,,,1.9,1.1,1.6*3E
$GPRMC,034201.000,A,5409.9315,N,08327.3575,E,68.36,195.39,041016,,,A*58
$GPGGA,034202.000,5409.9133,N,08327.3492,E,1,07,1.1,626.9,M,-37.9,M,,0000*75
$GPGSA,A,3,06,12,02,17,25,24,03,,,,,,1.9,1.1,1.6*3E
$GPRMC,034202.000,A,5409.9133,N,08327.3492,E,67.86,195.52,041016,,,A*5C
$GPGGA,034203.000,5409.8952,N,08327.3406,E,1,07,1.1,629.8,M,-37.9,M,,0000*79
$GPGSA,A,3,06,12,02,17,25,24,03,,,,,,1.9,1.1,1.6*3E
$GPRMC,034203.000,A,5409.8952,N,08327.3406,E,67.81,196.62,041016,,,A*59
$GPGGA,034204.000,5409.8772,N,08327.3310,E,1,07,1.1,632.2,M,-37.9,M,,0000*72
$GPGSA,A,3,06,12,02,17,25,24,03,,,,,,1.9,1.1,1.6*3E
$GPGSV,3,1,12,06,78,119,22,12,55,290,35,02,53,218,32,17,35,095,12*77
$GPGSV,3,2,12,25,20,313,20,24,16,239,27,03,16,035,17,14,02,340,18*7C
$GPGSV,3,3,12,19,54,092,15,22,01,025,09,23,02,066,22,57,39,104,18*74
$GPRMC,034204.000,A,5409.8772,N,08327.3310,E,67.93,197.26,041016,,,A*50
$GPGGA,034205.000,5409.8593,N,08327.3212,E,1,07,1.1,634.7,M,-37.9,M,,0000*7E
$GPGSA,A,3,06,12,02,17,25,24,03,,,,,,1.9,1.1,1.6*3E
$GPRMC,034205.000,A,5409.8593,N,08327.3212,E,67.36,197.67,041016,,,A*55
$GPGGA,034206.000,5409.8417,N,08327.3110,E,1,07,1.1,637.4,M,-37.9,M,,0000*71
$GPGSA,A,3,06,12,02,17,25,24,03,,,,,,1.9,1.1,1.6*3E
$GPRMC,034206.000,A,5409.8417,N,08327.3110,E,66.77,198.23,041016,,,A*51
$GPGGA,034207.000,5409.8243,N,08327.3003,E,1,07,1.1,639.4,M,-37.9,M,,0000*7A
$GPGSA,A,3,06,12,02,17,25,24,03,,,,,,1.9,1.1,1.6*3E
$GPRMC,034207.000,A,5409.8243,N,08327.3003,E,66.25,198.75,041016,,,A*50
$GPGGA,034208.000,5409.8069,N,08327.2896,E,1,07,1.1,641.9,M,-37.9,M,,0000*78
$GPGSA,A,3,06,12,02,17,25,24,03,,,,,,1.9,1.1,1.6*3E
$GPRMC,034208.000,A,5409.8069,N,08327.2896,E,66.37,199.58,041016,,,A*5D
$GPGGA,034209.000,5409.7899,N,08327.2790,E,1,07,1.1,644.4,M,-37.9,M,,0000*70
$GPGSA,A,3,06,12,02,17,25,24,03,,,,,,1.9,1.1,1.6*3E
$GPGSV,3,1,12,06,78,119,23,12,55,290,36,02,53,218,32,17,35,095,13*74
$GPGSV,3,2,12,25,20,313,25,24,16,239,27,03,16,035,17,14,02,340,19*78
$GPGSV,3,3,12,19,54,092,16,22,01,025,10,23,02,066,07,57,39,104,18*78
$GPRMC,034209.000,A,5409.7899,N,08327.2790,E,65.37,199.77,041016,,,A*53
$GPGGA,034210.000,5409.7729,N,08327.2682,E,1,08,1.1,647.1,M,-37.9,M,,0000*77
$GPGSA,A,3,06,12,02,57,17,25,24,03,,,,,1.9,1.1,1.6*3C
$GPRMC,034210.000,A,5409.7729,N,08327.2682,E,65.07,200.38,041016,,,A*56
$GPGGA,034211.000,5409.7561,N,08327.2574,E,1,07,1.1,649.8,M,-37.9,M,,0000*7A
$GPGSA,A,3,06,12,02,17,25,24,03,,,,,,1.9,1.1,1.6*3E
$GPRMC,034211.000,A,5409.7561,N,08327.2574,E,64.95,200.78,041016,,,A*5D
$GPGGA,034212.000,5409.7394,N,08327.2465,E,1,06,1.1,652.5,M,-37.9,M,,0000*72
$GPGSA,A,3,12,02,17,25,24,03,,,,,,,2.2,1.1,1.9*3F
$GPRMC,034212.000,A,5409.7394,N,08327.2465,E,64.37,200.53,041016,,,A*52
$GPGGA,034213.000,5409.7227,N,08327.2354,E,1,06,1.1,654.8,M,-37.9,M,,0000*74
$GPGSA,A,3,12,02,17,25,24,03,,,,,,,2.2,1.1,1.9*3F
$GPRMC,034213.000,A,5409.7227,N,08327.2354,E,64.58,201.08,041016,,,A*59
$GPGGA,034214.000,5409.7059,N,08327.2244,E,1,06,1.1,657.0,M,-37.9,M,,0000*73
$GPGSA,A,3,12,02,17,25,24,03,,,,,,,2.2,1.1,1.9*3F
$GPGSV,3,1,12,12,55,290,37,02,53,218,32,17,35,095,12,25,20,313,25*76
$GPGSV,3,2,12,24,16,239,27,03,16,035,17,06,78,119,25,14,02,340,20*76
$GPGSV,3,3,12,19,54,092,16,23,02,066,13,57,39,104,18,04,09,299,*75
$GPRMC,034214.000,A,5409.7059,N,08327.2244,E,64.89,200.85,041016,,,A*5D
$GPGGA,034215.000,5409.6891,N,08327.2135,E,1,07,1.1,659.4,M,-37.9,M,,0000*71
$GPGSA,A,3,06,12,02,17,25,24,03,,,,,,1.9,1.1,1.6*3E
$GPRMC,034215.000,A,5409.6891,N,08327.2135,E,64.85,200.31,041016,,,A*57
$GPGGA,034216.000,5409.6722,N,08327.2034,E,1,07,1.1,662.1,M,-37.9,M,,0000*78
$GPGSA,A,3,06,12,02,17,25,24,03,,,,,,1.9,1.1,1.6*3E
$GPRMC,034216.000,A,5409.6722,N,08327.2034,E,64.88,199.37,041016,,,A*5B
$GPGGA,034217.000,5409.6551,N,08327.1935,E,1,07,1.1,664.9,M,-37.9,M,,0000*7A
$GPGSA,A,3,06,12,02,17,25,24,03,,,,,,1.9,1.1,1.6*3E
$GPRMC,034217.000,A,5409.6551,N,08327.1935,E,65.85,199.67,041016,,,A*5E
$GPGGA,034218.000,5409.6379,N,08327.1830,E,1,07,1.1,667.1,M,-37.9,M,,0000*76
$GPGSA,A,3,06,12,02,17,25,24,03,,,,,,1.9,1.1,1.6*3E
$GPRMC,034218.000,A,5409.6379,N,08327.1830,E,66.51,199.82,041016,,,A*58
$GPGGA,034219.000,5409.6206,N,08327.1724,E,1,07,1.1,669.2,M,-37.9,M,,0000*79
$GPGSA,A,3,06,12,02,17,25,24,03,,,,,,1.9,1.1,1.6*3E
$GPGSV,3,1,12,06,78,119,23,12,55,290,37,02,53,218,32,17,35,095,10*76
$GPGSV,3,2,12,25,20,313,26,24,16,239,27,03,16,035,17,14,02,340,21*70
$GPGSV,3,3,12,19,54,092,17,23,02,066,22,57,39,104,17,04,09,299,*79
$GPRMC,034219.000,A,5409.6206,N,08327.1724,E,66.94,200.00,041016,,,A*5A
$GPGGA,034220.000,5409.6031,N,08327.1617,E,1,07,1.1,671.0,M,-37.9,M,,0000*7F
$GPGSA,A,3,06,12,02,17,25,24,03,,,,,,1.9,1.1,1.6*3E
$GPRMC,034220.000,A,5409.6031,N,08327.1617,E,67.01,199.82,041016,,,A*53
$GPGGA,034221.000,5409.5856,N,08327.1510,E,1,07,1.1,672.6,M,-37.9,M,,0000*75
$GPGSA,A,3,06,12,02,17,25,24,03,,,,,,1.9,1.1,1.6*3E
$GPRMC,034221.000,A,5409.5856,N,08327.1510,E,67.17,199.65,041016,,,A*52
$GPGGA,034222.000,5409.5680,N,08327.1402,E,1,07,1.1,674.5,M,-37.9,M,,0000*74
$GPGSA,A,3,06,12,02,17,25,24,03,,,,,,1.9,1.1,1.6*3E
$GPRMC,034222.000,A,5409.5680,N,08327.1402,E,67.50,199.77,041016,,,A*56
$GPGGA,034223.000,5409.5503,N,08327.1293,E,1,07,1.1,676.8,M,-37.9,M,,0000*7C
$GPGSA,A,3,06,12,02,17,25,24,03,,,,,,1.9,1.1,1.6*3E
$GPRMC,034223.000,A,5409.5503,N,08327.1293,E,67.59,199.89,041016,,,A*59
$GPGGA,034224.000,5409.5326,N,08327.1188,E,1,07,1.1,679.2,M,-37.9,M,,0000*76
$GPGSA,A,3,06,12,02,17,25,24,03,,,,,,1.9,1.1,1.6*3E
$GPGSV,3,1,12,06,78,119,25,12,55,290,36,02,53,218,32,17,35,095,17*76
$GPGSV,3,2,12,25,20,313,25,24,16,239,27,03,16,035,17,14,02,340,21*73
$GPGSV,3,3,12,19,54,092,16,23,02,066,18,57,39,104,20,04,09,299,*75
$GPRMC,034224.000,A,5409.5326,N,08327.1188,E,67.78,199.77,041016,,,A*54
$GPGGA,034225.000,5409.5150,N,08327.1085,E,1,07,1.1,681.5,M,-37.9,M,,0000*78
$GPGSA,A,3,06,12,02,17,25,24,03,,,,,,1.9,1.1,1.6*3E
$GPRMC,034225.000,A,5409.5150,N,08327.1085,E,67.42,199.30,041016,,,A*50
$GPGGA,034226.000,5409.4973,N,08327.0980,E,1,07,1.1,683.8,M,-37.9,M,,0000*71
$GPGSA,A,3,06,12,02,17,25,24,03,,,,,,1.9,1.1,1.6*3E
$GPRMC,034226.000,A,5409.4973,N,08327.0980,E,67.79,199.61,041016,,,A*5A
$GPGGA,034227.000,5409.4795,N,08327.0876,E,1,07,1.1,686.3,M,-37.9,M,,0000*70
$GPGSA,A,3,06,12,02,17,25,24,03,,,,,,1.9,1.1,1.6*3E
$GPRMC,034227.000,A,5409.4795,N,08327.0876,E,67.96,199.62,041016,,,A*57
$GPGGA,034228.000,5409.4617,N,08327.0769,E,1,06,1.1,688.6,M,-37.9,M,,0000*7F
$GPGSA,A,3,12,02,17,25,24,03,,,,,,,2.2,1.1,1.9*3F
$GPRMC,034228.000,A,5409.4617,N,08327.0769,E,68.11,199.36,041016,,,A*53
$GPGGA,034229.000,5409.4438,N,08327.0668,E,1,07,1.1,691.1,M,-37.9,M,,0000*7F
$GPGSA,A,3,06,12,02,17,25,24,03,,,,,,1.9,1.1,1.6*3E
$GPGSV,3,1,12,06,78,119,22,12,55,290,37,02,53,218,32,17,35,095,17*70
$GPGSV,3,2,12,25,20,313,24,24,16,239,27,03,16,035,17,14,02,340,21*72
$GPGSV,3,3,12,22,01,025,15,23,02,066,18,57,39,104,17,19,54,092,*7B
$GPRMC,034229.000,A,5409.4438,N,08327.0668,E,68.10,199.01,041016,,,A*58
$GPGGA,034230.000,5409.4259,N,08327.0566,E,1,07,1.1,693.8,M,-37.9,M,,0000*70
$GPGSA,A,3,06,12,02,17,25,24,03,,,,,,1.9,1.1,1.6*3E
$GPRMC,034230.000,A,5409.4259,N,08327.0566,E,68.32,199.18,041016,,,A*54
$GPGGA,034231.000,5409.4080,N,08327.0462,E,1,07,1.1,696.2,M,-37.9,M,,0000*7D
$GPGSA,A,3,06,12,02,17,25,24,03,,,,,,1.9,1.1,1.6*3E
$GPRMC,034231.000,A,5409.4080,N,08327.0462,E,68.40,198.87,041016,,,A*54
$GPGGA,034232.000,5409.3900,N,08327.0355,E,1,07,1.1,698.4,M,-37.9,M,,0000*73
$GPGSA,A,3,06,12,02,17,25,24,03,,,,,,1.9,1.1,1.6*3E
$GPRMC,034232.000,A,5409.3900,N,08327.0355,E,69.16,199.55,041016,,,A*5E
$GPGGA,034233.000,5409.3719,N,08327.0246,E,1,07,1.1,700.3,M,-37.9,M,,0000*70
$GPGSA,A,3,06,12,02,17,25,24,03,,,,,,1.9,1.1,1.6*3E
$GPRMC,034233.000,A,5409.3719,N,08327.0246,E,69.43,199.63,041016,,,A*5F
$GPGGA,034234.000,5409.3537,N,08327.0137,E,1,07,1.1,703.0,M,-37.9,M,,0000*7C
$GPGSA,A,3,06,12,02,17,25,24,03,,,,,,1.9,1.1,1.6*3E
$GPGSV,3,1,12,06,78,119,23,12,55,290,36,02,53,218,31,17,35,095,19*7D
$GPGSV,3,2,12,25,20,313,24,24,16,239,26,03,16,035,18,14,02,340,21*7C
$GPGSV,3,3,12,19,54,092,19,22,01,025,16,23,02,066,18,57,39,104,16*71
$GPRMC,034234.000,A,5409.3537,N,08327.0137,E,69.50,199.51,041016,,,A*50
$GPGGA,034235.000,5409.3355,N,08327.0028,E,1,07,1.1,705.6,M,-37.9,M,,0000*70
$GPGSA,A,3,06,12,02,17,25,24,03,,,,,,1.9,1.1,1.6*3E
$GPRMC,034235.000,A,5409.3355,N,08327.0028,E,69.69,199.35,041016,,,A*54
$GPGGA,034236.000,5409.3172,N,08326.9917,E,1,07,1.1,708.3,M,-37.9,M,,0000*71
$GPGSA,A,3,06,12,02,17,25,24,03,,,,,,1.9,1.1,1.6*3E
$GPRMC,034236.000,A,5409.3172,N,08326.9917,E,70.22,199.53,041016,,,A*5A
$GPGGA,034237.000,5409.2988,N,08326.9800,E,1,07,1.1,710.2,M,-37.9,M,,0000*73
$GPGSA,A,3,06,12,02,17,25,24,03,,,,,,1.9,1.1,1.6*3E
$GPRMC,034237.000,A,5409.2988,N,08326.9800,E,70.37,199.74,041016,,,A*51
$GPGGA,034238.000,5409.2804,N,08326.9684,E,1,06,1.1,712.3,M,-37.9,M,,0000*79
$GPGSA,A,3,12,02,17,25,24,03,,,,,,,2.2,1.1,1.9*3F
$GPRMC,034238.000,A,5409.2804,N,08326.9684,E,70.92,200.05,041016,,,A*53
$GPGGA,034239.000,5409.2619,N,08326.9569,E,1,06,1.1,714.0,M,-37.9,M,,0000*7F
$GPGSA,A,3,12,02,17,25,24,03,,,,,,,2.2,1.1,1.9*3F
$GPGSV,3,1,12,12,55,290,36,02,53,218,31,17,35,095,18,25,20,313,24*7F
$GPGSV,3,2,12,24,16,239,25,03,16,035,17,06,78,119,24,14,02,340,20*75
$GPGSV,3,3,12,19,54,092,18,22,01,025,09,23,02,066,16,57,39,104,18*7E
$GPRMC,034239.000,A,5409.2619,N,08326.9569,E,70.83,199.86,041016,,,A*58
$GPGGA,034240.000,5409.2434,N,08326.9453,E,1,07,1.1,715.6,M,-37.9,M,,0000*72
$GPGSA,A,3,06,12,02,17,25,24,03,,,,,,1.9,1.1,1.6*3E
$GPRMC,034240.000,A,5409.2434,N,08326.9453,E,70.94,199.13,041016,,,A*59
$GPGGA,034241.000,5409.2247,N,08326.9338,E,1,07,1.1,717.1,M,-37.9,M,,0000*7E
$GPGSA,A,3,06,12,02,17,25,24,03,,,,,,1.9,1.1,1.6*3E
$GPRMC,034241.000,A,5409.2247,N,08326.9338,E,71.45,199.68,041016,,,A*51
$GPGGA,034242.000,5409.2059,N,08326.9217,E,1,07,1.1,718.6,M,-37.9,M,,0000*74
$GPGSA,A,3,06,12,02,17,25,24,03,,,,,,1.9,1.1,1.6*3E
$GPRMC,034242.000,A,5409.2059,N,08326.9217,E,72.51,200.46,041016,,,A*5A
$GPGGA,034243.000,5409.1869,N,08326.9097,E,1,07,1.1,720.5,M,-37.9,M,,0000*7F
$GPGSA,A,3,06,12,02,17,25,24,03,,,,,,1.9,1.1,1.6*3E
$GPRMC,034243.000,A,5409.1869,N,08326.9097,E,72.77,200.39,041016,,,A*55
$GPGGA,034244.000,5409.1680,N,08326.8980,E,1,07,1.1,722.7,M,-37.9,M,,0000*7F
$GPGSA,A,3,06,12,02,17,25,24,03,,,,,,1.9,1.1,1.6*3E
$GPGSV,3,1,12,06,78,119,24,12,55,290,36,02,53,218,31,17,35,095,19*7A
$GPGSV,3,2,12,25,20,313,24,24,16,239,25,03,16,035,15,14,02,340,21*72
$GPGSV,3,3,12,22,01,025,12,23,02,066,14,57,39,104,18,19,54,092,*7F
$GPRMC,034244.000,A,5409.1680,N,08326.8980,E,72.16,199.53,041016,,,A*5D
$GPGGA,034245.000,5409.1490,N,08326.8864,E,1,07,1.1,724.5,M,-37.9,M,,0000*72
$GPGSA,A,3,06,12,02,17,25,24,03,,,,,,1.9,1.1,1.6*3E
$GPRMC,034245.000,A,5409.1490,N,08326.8864,E,71.96,199.32,041016,,,A*58
$GPGGA,034246.000,5409.1302,N,08326.8749,E,1,06,1.1,726.7,M,-37.9,M,,0000*7C
$GPGSA,A,3,12,02,17,25,24,03,,,,,,,2.2,1.1,1.9*3F
$GPRMC,034246.000,A,5409.1302,N,08326.8749,E,71.88,199.33,041016,,,A*59
$GPGGA,034247.000,5409.1113,N,08326.8634,E,1,06,1.1,729.2,M,-37.9,M,,0000*7E
$GPGSA,A,3,12,02,17,25,24,03,,,,,,,2.2,1.1,1.9*3F
$GPRMC,034247.000,A,5409.1113,N,08326.8634,E,71.94,199.81,041016,,,A*55
$GPGGA,034248.000,5409.0925,N,08326.8511,E,1,06,1.1,731.4,M,-37.9,M,,0000*76
$GPGSA,A,3,12,02,17,25,24,03,,,,,,,2.2,1.1,1.9*3F
$GPRMC,034248.000,A,5409.0925,N,08326.8511,E,72.70,200.72,041016,,,A*54
$GPGGA,034249.000,5409.0737,N,08326.8390,E,1,06,1.1,733.3,M,-37.9,M,,0000*70
$GPGSA,A,3,12,02,17,25,24,03,,,,,,,2.2,1.1,1.9*3F
$GPGSV,3,1,12,12,55,290,36,02,53,218,31,17,35,095,19,25,20,313,24*7E
$GPGSV,3,2,12,24,16,239,26,03,16,035,15,06,78,119,24,14,02,340,21*75
$GPGSV,3,3,12,22,01,025,15,23,02,066,15,57,39,104,22,19,54,092,*70
$GPRMC,034249.000,A,5409.0737,N,08326.8390,E,72.43,200.49,041016,,,A*5F
$GPGGA,034250.000,5409.0550,N,08326.8275,E,1,06,1.1,734.9,M,-37.9,M,,0000*7C
$GPGSA,A,3,12,02,17,25,24,03,,,,,,,2.2,1.1,1.9*3F
$GPRMC,034250.000,A,5409.0550,N,08326.8275,E,71.47,199.46,041016,,,A*55
$GPGGA,034251.000,5409.0363,N,08326.8162,E,1,08,1.1,736.6,M,-37.9,M,,0000*7D
$GPGSA,A,3,06,12,02,57,17,25,24,03,,,,,1.9,1.1,1.5*3F
$GPRMC,034251.000,A,5409.0363,N,08326.8162,E,71.49,199.36,041016,,,A*5E
$GPGGA,034252.000,5409.0176,N,08326.8051,E,1,08,1.1,738.9,M,-37.9,M,,0000*78
$GPGSA,A,3,06,12,02,57,17,25,24,03,,,,,1.9,1.1,1.5*3F
$GPRMC,034252.000,A,5409.0176,N,08326.8051,E,71.65,199.80,041016,,,A*59
$GPGGA,034253.000,5408.9989,N,08326.7945,E,1,07,1.2,741.6,M,-37.9,M,,0000*77
$GPGSA,A,3,06,12,02,57,17,25,24,,,,,,2.1,1.2,1.7*36
$GPRMC,034253.000,A,5408.9989,N,08326.7945,E,71.70,199.90,041016,,,A*5E
$GPGGA,034254.000,5408.9803,N,08326.7839,E,1,07,1.2,743.1,M,-37.9,M,,0000*7C
$GPGSA,A,3,06,12,02,57,17,25,24,,,,,,2.1,1.2,1.7*36
$GPGSV,3,1,12,06,78,119,23,12,55,290,36,02,53,218,31,57,39,104,19*7C
$GPGSV,3,2,12,17,35,095,18,25,20,313,23,24,16,239,27,03,16,035,07*72
$GPGSV,3,3,12,14,02,340,21,19,54,092,17,22,01,025,06,23,02,066,17*78
$GPRMC,034254.000,A,5408.9803,N,08326.7839,E,71.45,199.56,041016,,,A*5C
$GPGGA,034255.000,5408.9616,N,08326.7729,E,1,07,1.2,744.8,M,-37.9,M,,0000*77
$GPGSA,A,3,06,12,02,57,17,25,24,,,,,,2.1,1.2,1.7*36
$GPRMC,034255.000,A,5408.9616,N,08326.7729,E,71.48,199.86,041016,,,A*59
$GPGGA,034256.000,5408.9430,N,08326.7616,E,1,07,1.2,746.2,M,-37.9,M,,0000*77
$GPGSA,A,3,06,12,02,57,17,25,24,,,,,,2.1,1.2,1.7*36
$GPRMC,034256.000,A,5408.9430,N,08326.7616,E,71.42,199.91,041016,,,A*5D
$GPGGA,034257.000,5408.9244,N,08326.7501,E,1,06,1.2,748.0,M,-37.9,M,,0000*7B
$GPGSA,A,3,12,02,57,17,25,24,,,,,,,2.4,1.2,2.1*30
$GPRMC,034257.000,A,5408.9244,N,08326.7501,E,71.54,200.34,041016,,,A*57
$GPGGA,034258.000,5408.9057,N,08326.7380,E,1,08,1.1,750.7,M,-37.9,M,,0000*78
$GPGSA,A,3,06,12,02,57,17,25,24,03,,,,,1.9,1.1,1.5*3F
$GPRMC,034258.000,A,5408.9057,N,08326.7380,E,71.77,200.49,041016,,,A*5C
$GPGGA,034259.000,5408.8870,N,08326.7250,E,1,08,1.1,752.8,M,-37.9,M,,0000*74
$GPGSA,A,3,06,12,02,57,17,25,24,03,,,,,1.9,1.1,1.5*3F
$GPGSV,3,1,12,06,78,119,28,12,55,290,36,02,53,218,31,57,39,104,17*79
$GPGSV,3,2,12,17,35,095,25,25,20,313,28,24,16,239,28,03,16,035,23*7E
$GPGSV,3,3,12,14,02,340,28,22,01,025,14,23,02,066,18,19,54,092,*7B
$GPRMC,034259.000,A,5408.8870,N,08326.7250,E,71.98,200.59,041016,,,A*5D
$GPGGA,034300.000,5408.8684,N,08326.7127,E,1,07,1.1,754.4,M,-37.9,M,,0000*7A
$GPGSA,A,3,06,12,02,57,25,24,03,,,,,,1.9,1.1,1.6*3A
$GPRMC,034300.000,A,5408.8684,N,08326.7127,E,72.29,200.87,041016,,,A*5C
$GPGGA,034301.000,5408.8496,N,08326.7001,E,1,06,1.4,756.3,M,-37.9,M,,0000*7E
$GPGSA,A,3,06,12,02,57,25,24,,,,,,,2.3,1.4,1.8*3B
$GPRMC,034301.000,A,5408.8496,N,08326.7001,E,72.45,200.99,041016,,,A*5C
$GPGGA,034302.000,5408.8309,N,08326.6875,E,1,07,1.1,757.7,M,-37.9,M,,0000*77
$GPGSA,A,3,06,12,02,57,25,24,03,,,,,,1.9,1.1,1.6*3A
$GPRMC,034302.000,A,5408.8309,N,08326.6875,E,72.39,200.87,041016,,,A*50
$GPGGA,034303.000,5408.8121,N,08326.6749,E,1,07,1.1,759.2,M,-37.9,M,,0000*75
$GPGSA,A,3,06,12,02,57,25,24,03,,,,,,1.9,1.1,1.6*3A
$GPRMC,034303.000,A,5408.8121,N,08326.6749,E,72.51,200.99,041016,,,A*58
$GPGGA,034304.000,5408.7933,N,08326.6623,E,1,06,1.1,761.2,M,-37.9,M,,0000*71
$GPGSA,A,3,12,02,57,25,24,03,,,,,,,2.2,1.1,1.9*3B
$GPGSV,3,1,12,12,55,290,36,02,53,218,31,57,39,104,17,25,20,313,28*7D
$GPGSV,3,2,12,24,16,239,28,03,16,035,09,14,02,340,21,17,35,095,07*7B
$GPGSV,3,3,12,19,54,092,09,22,01,025,04,23,02,066,17,06,78,119,*76
$GPRMC,034304.000,A,5408.7933,N,08326.6623,E,72.54,201.02,041016,,,A*50
$GPGGA,034305.000,5408.7746,N,08326.6498,E,1,07,1.1,763.2,M,-37.9,M,,0000*7D
$GPGSA,A,3,06,12,02,57,25,24,03,,,,,,1.9,1.1,1.6*3A
$GPRMC,034305.000,A,5408.7746,N,08326.6498,E,72.51,201.16,041016,,,A*5F
$GPGGA,034306.000,5408.7558,N,08326.6368,E,1,07,1.1,765.3,M,-37.9,M,,0000*7C
$GPGSA,A,3,06,12,02,57,25,24,03,,,,,,1.9,1.1,1.6*3A
$GPRMC,034306.000,A,5408.7558,N,08326.6368,E,72.52,201.37,041016,,,A*59
$GPGGA,034307.000,5408.7371,N,08326.6237,E,1,08,1.1,767.2,M,-37.9,M,,0000*77
$GPGSA,A,3,06,12,02,57,17,25,24,03,,,,,1.9,1.1,1.5*3F
$GPRMC,034307.000,A,5408.7371,N,08326.6237,E,72.41,201.40,041016,,,A*5C
$GPGGA,034308.000,5408.7184,N,08326.6108,E,1,08,1.1,769.2,M,-37.9,M,,0000*71
$GPGSA,A,3,06,12,02,57,17,25,24,03,,,,,1.9,1.1,1.5*3F
$GPRMC,034308.000,A,5408.7184,N,08326.6108,E,72.29,201.47,041016,,,A*5D
$PSRF156,23,1,0*09
$GPGGA,034309.000,5408.6998,N,08326.5983,E,1,08,1.1,771.5,M,-37.9,M,,0000*72
$GPGSA,A,3,06,12,02,57,17,25,24,03,,,,,1.9,1.1,1.5*3F
$GPGSV,3,1,12,06,78,119,27,12,55,290,36,02,53,218,32,57,39,104,16*74
$GPGSV,3,2,12,17,35,095,16,25,20,313,27,24,16,239,29,03,16,035,14*74
$GPGSV,3,3,12,14,02,340,23,19,54,092,11,22,01,025,04,23,02,066,16*7F
$GPRMC,034309.000,A,5408.6998,N,08326.5983,E,72.06,201.27,041016,,,A*5B
$GPGGA,034310.000,5408.6812,N,08326.5858,E,1,08,1.1,774.0,M,-37.9,M,,0000*7E
$GPGSA,A,3,06,12,02,57,17,25,24,03,,,,,1.9,1.1,1.5*3F
$GPRMC,034310.000,A,5408.6812,N,08326.5858,E,72.02,201.51,041016,,,A*52
$GPGGA,034311.000,5408.6626,N,08326.5722,E,1,08,1.1,777.3,M,-37.9,M,,0000*74
$GPGSA,A,3,06,12,02,57,17,25,24,03,,,,,1.9,1.1,1.5*3F
$GPRMC,034311.000,A,5408.6626,N,08326.5722,E,71.83,201.45,041016,,,A*57
$GPGGA,034312.000,5408.6441,N,08326.5597,E,1,08,1.1,779.6,M,-37.9,M,,0000*73
$GPGSA,A,3,06,12,02,57,17,25,24,03,,,,,1.9,1.1,1.5*3F
$GPRMC,034312.000,A,5408.6441,N,08326.5597,E,71.68,201.15,041016,,,A*5B
$GPGGA,034313.000,5408.6255,N,08326.5473,E,1,06,1.3,781.7,M,-37.9,M,,0000*70
$GPGSA,A,3,06,12,02,17,25,24,,,,,,,2.2,1.3,1.7*36
$GPRMC,034313.000,A,5408.6255,N,08326.5473,E,71.96,200.97,041016,,,A*58
$GPGGA,034314.000,5408.6068,N,08326.5349,E,1,07,1.1,783.6,M,-37.9,M,,0000*75
$GPGSA,A,3,06,12,02,17,25,24,03,,,,,,1.9,1.1,1.5*3D
$GPGSV,3,1,12,06,78,119,23,12,55,290,36,02,53,218,31,17,35,095,20*77
$GPGSV,3,2,12,25,20,313,27,24,16,239,29,03,16,035,10,14,02,340,20*79
$GPGSV,3,3,12,19,54,092,08,23,02,066,16,57,39,104,15,04,09,299,*72
$GPRMC,034314.000,A,5408.6068,N,08326.5349,E,72.02,200.89,041016,,,A*5C
$GPGGA,034315.000,5408.5880,N,08326.5226,E,1,06,1.1,785.4,M,-37.9,M,,0000*74
$GPGSA,A,3,12,02,17,25,24,03,,,,,,,2.2,1.1,1.9*3F
$GPRMC,034315.000,A,5408.5880,N,08326.5226,E,72.69,200.96,041016,,,A*5B
$GPGGA,034316.000,5408.5692,N,08326.5108,E,1,07,1.1,786.8,M,-37.9,M,,0000*7B
$GPGSA,A,3,06,12,02,17,25,24,03,,,,,,1.9,1.1,1.5*3D
$GPRMC,034316.000,A,5408.5692,N,08326.5108,E,72.83,200.72,041016,,,A*54
$GPGGA,034317.000,5408.5503,N,08326.4989,E,1,07,1.1,788.2,M,-37.9,M,,0000*75
$GPGSA,A,3,06,12,02,17,25,24,03,,,,,,1.9,1.1,1.5*3D
$GPRMC,034317.000,A,5408.5503,N,08326.4989,E,72.76,200.88,041016,,,A*51
$GPGGA,034318.000,5408.5315,N,08326.4876,E,1,06,1.3,789.3,M,-37.9,M,,0000*79
$GPGSA,A,3,06,12,02,17,25,24,,,,,,,2.2,1.3,1.7*36
$GPRMC,034318.000,A,5408.5315,N,08326.4876,E,72.52,200.51,041016,,,A*5C
$GPGGA,034319.000,5408.5126,N,08326.4763,E,1,07,1.1,790.5,M,-37.9,M,,0000*7C
$GPGSA,A,3,06,12,02,17,25,24,03,,,,,,1.9,1.1,1.5*3D
$GPGSV,3,1,12,06,78,115,24,12,56,289,37,02,53,218,32,17,34,096,20*77
$GPGSV,3,2,12,25,21,313,26,24,15,239,29,03,15,034,13,14,02,339,21*74
$GPGSV,3,3,12,19,54,092,08,23,02,066,17,57,39,104,15,04,09,299,*73
$GPRMC,034319.000,A,5408.5126,N,08326.4763,E,72.42,200.24,041016,,,A*57
$GPGGA,034320.000,5408.4936,N,08326.4641,E,1,07,1.1,792.3,M,-37.9,M,,0000*7B
$GPGSA,A,3,06,12,02,17,25,24,03,,,,,,1.9,1.1,1.5*3D
$GPRMC,034320.000,A,5408.4936,N,08326.4641,E,72.56,200.54,041016,,,A*56
$GPGGA,034321.000,5408.4748,N,08326.4521,E,1,07,1.1,793.9,M,-37.9,M,,0000*73
$GPGSA,A,3,06,12,02,17,25,24,03,,,,,,1.9,1.1,1.5*3D
$GPRMC,034321.000,A,5408.4748,N,08326.4521,E,72.24,200.24,041016,,,A*57
$GPGGA,034322.000,5408.4561,N,08326.4402,E,1,07,1.1,795.4,M,-37.9,M,,0000*72
$GPGSA,A,3,06,12,02,17,25,24,03,,,,,,1.9,1.1,1.5*3D
$GPRMC,034322.000,A,5408.4561,N,08326.4402,E,71.79,199.75,041016,,,A*51
$GPGGA,034323.000,5408.4373,N,08326.4280,E,1,06,1.1,797.3,M,-37.9,M,,0000*7E
$GPGSA,A,3,12,02,17,25,24,03,,,,,,,2.2,1.1,1.9*3F
$GPRMC,034323.000,A,5408.4373,N,08326.4280,E,72.06,200.26,041016,,,A*57
$GPGGA,034324.000,5408.4186,N,08326.4161,E,1,07,1.1,799.1,M,-37.9,M,,0000*70
$GPGSA,A,3,06,12,02,17,25,24,03,,,,,,1.9,1.1,1.5*3D
$GPGSV,3,1,12,06,78,115,25,12,56,289,36,02,53,218,32,17,34,096,19*7D
$GPGSV,3,2,12,25,21,313,26,24,15,239,29,03,15,034,17,14,02,339,21*70
$GPGSV,3,3,12,19,54,092,05,22,00,024,11,23,02,066,20,57,39,104,13*75
$GPRMC,034324.000,A,5408.4186,N,08326.4161,E,72.17,200.38,041016,,,A*5B
$GPGGA,034325.000,5408.3999,N,08326.4048,E,1,06,1.4,800.2,M,-37.9,M,,0000*72
$GPGSA,A,3,06,12,02,25,24,03,,,,,,,2.2,1.4,1.6*35
$GPRMC,034325.000,A,5408.3999,N,08326.4048,E,71.93,199.95,041016,,,A*5A
$GPGGA,034326.000,5408.3812,N,08326.3936,E,1,07,1.1,801.3,M,-37.9,M,,0000*70
$GPGSA,A,3,06,12,02,17,25,24,03,,,,,,1.9,1.1,1.5*3D
$GPRMC,034326.000,A,5408.3812,N,08326.3936,E,71.99,199.74,041016,,,A*59
$GPGGA,034327.000,5408.3624,N,08326.3823,E,1,07,1.1,802.6,M,-37.9,M,,0000*79
$GPGSA,A,3,06,12,02,17,25,24,03,,,,,,1.9,1.1,1.5*3D
$GPRMC,034327.000,A,5408.3624,N,08326.3823,E,72.20,199.97,041016,,,A*5A
$GPGGA,034328.000,5408.3436,N,08326.3712,E,1,07,1.1,803.5,M,-37.9,M,,0000*78
$GPGSA,A,3,06,12,02,17,25,24,03,,,,,,1.9,1.1,1.5*3D
$GPRMC,034328.000,A,5408.3436,N,08326.3712,E,72.07,199.78,041016,,,A*5D
$GPGGA,034329.000,5408.3248,N,08326.3604,E,1,07,1.1,804.4,M,-37.9,M,,0000*76
$GPGSA,A,3,06,12,02,17,25,24,03,,,,,,1.9,1.1,1.5*3D
$GPGSV,3,1,12,06,78,115,26,12,56,289,36,02,53,218,32,17,34,096,17*70
$GPGSV,3,2,12,25,21,313,26,24,15,239,29,03,15,034,17,14,02,339,21*70
$GPGSV,3,3,12,19,54,092,13,22,00,024,10,23,02,066,20,57,39,104,19*79
$GPRMC,034329.000,A,5408.3248,N,08326.3604,E,71.81,199.48,041016,,,A*5B
$GPGGA,034330.000,5408.3061,N,08326.3498,E,1,07,1.1,805.1,M,-37.9,M,,0000*74
$GPGSA,A,3,06,12,02,17,25,24,03,,,,,,1.9,1.1,1.5*3D
$GPRMC,034330.000,A,5408.3061,N,08326.3498,E,71.66,199.37,041016,,,A*5C
$GPGGA,034331.000,5408.2874,N,08326.3395,E,1,07,1.1,805.3,M,-37.9,M,,0000*70
$GPGSA,A,3,06,12,02,17,25,24,03,,,,,,1.9,1.1,1.5*3D
$GPRMC,034331.000,A,5408.2874,N,08326.3395,E,71.52,199.15,041016,,,A*5D
$GPGGA,034332.000,5408.2688,N,08326.3298,E,1,07,1.1,805.2,M,-37.9,M,,0000*73
$GPGSA,A,3,06,12,02,17,25,24,03,,,,,,1.9,1.1,1.5*3D
$GPRMC,034332.000,A,5408.2688,N,08326.3298,E,71.58,199.10,041016,,,A*50
$GPGGA,034333.000,5408.2502,N,08326.3203,E,1,08,1.0,804.7,M,-37.9,M,,0000*7B
$GPGSA,A,3,06,12,02,57,17,25,24,03,,,,,1.9,1.0,1.5*3E
$GPRMC,034333.000,A,5408.2502,N,08326.3203,E,71.68,199.02,041016,,,A*52
$GPGGA,034334.000,5408.2315,N,08326.3108,E,1,08,1.0,804.0,M,-37.9,M,,0000*73
$GPGSA,A,3,06,12,02,57,17,25,24,03,,,,,1.9,1.0,1.5*3E
$GPGSV,3,1,12,06,78,115,26,12,56,289,36,02,53,218,32,57,39,104,17*73
$GPGSV,3,2,12,17,34,096,17,25,21,313,26,24,15,239,30,03,15,034,18*72
$GPGSV,3,3,12,14,02,339,22,19,54,092,08,22,00,024,09,23,02,066,25*75
$GPRMC,034334.000,A,5408.2315,N,08326.3108,E,71.67,198.72,041016,,,A*54
$GPGGA,034335.000,5408.2127,N,08326.3008,E,1,08,1.0,803.6,M,-37.9,M,,0000*71
$GPGSA,A,3,06,12,02,57,17,25,24,03,,,,,1.9,1.0,1.5*3E
$GPRMC,034335.000,A,5408.2127,N,08326.3008,E,71.64,198.56,041016,,,A*52
$GPGGA,034336.000,5408.1940,N,08326.2907,E,1,08,1.0,803.2,M,-37.9,M,,0000*7B
$GPGSA,A,3,06,12,02,57,17,25,24,03,,,,,1.9,1.0,1.5*3E
$GPRMC,034336.000,A,5408.1940,N,08326.2907,E,71.50,198.71,041016,,,A*5E
$GPGGA,034337.000,5408.1753,N,08326.2809,E,1,08,1.0,802.4,M,-37.9,M,,0000*7E
$GPGSA,A,3,06,12,02,57,17,25,24,03,,,,,1.9,1.0,1.5*3E
$GPRMC,034337.000,A,5408.1753,N,08326.2809,E,71.55,198.42,041016,,,A*59
$GPGGA,034338.000,5408.1566,N,08326.2712,E,1,08,1.0,801.6,M,-37.9,M,,0000*71
$GPGSA,A,3,06,12,02,57,17,25,24,03,,,,,1.9,1.0,1.5*3E
$GPRMC,034338.000,A,5408.1566,N,08326.2712,E,71.45,198.22,041016,,,A*50
$GPGGA,034339.000,5408.1377,N,08326.2613,E,1,08,1.0,801.2,M,-37.9,M,,0000*72
$GPGSA,A,3,06,12,02,57,17,25,24,03,,,,,1.9,1.0,1.5*3E
$GPGSV,3,1,12,06,78,115,27,12,56,289,36,02,53,218,31,57,39,104,17*71
$GPGSV,3,2,12,17,34,096,21,25,21,313,26,24,15,239,30,03,15,034,18*77
$GPGSV,3,3,12,14,02,339,22,19,54,092,10,22,00,024,07,23,02,066,25*72
$GPRMC,034339.000,A,5408.1377,N,08326.2613,E,71.46,198.12,041016,,,A*57
$GPGGA,034340.000,5408.1190,N,08326.2513,E,1,06,1.1,800.8,M,-37.9,M,,0000*70
$GPGSA,A,3,12,02,17,25,24,03,,,,,,,2.2,1.1,1.9*3F
$GPRMC,034340.000,A,5408.1190,N,08326.2513,E,71.44,198.06,041016,,,A*56
$GPGGA,034341.000,5408.1002,N,08326.2414,E,1,07,1.1,800.1,M,-37.9,M,,0000*75
$GPGSA,A,3,06,12,02,17,25,24,03,,,,,,1.9,1.1,1.5*3D
$GPRMC,034341.000,A,5408.1002,N,08326.2414,E,71.34,197.97,041016,,,A*5B
$GPGGA,034342.000,5408.0814,N,08326.2314,E,1,07,1.1,799.8,M,-37.9,M,,0000*79
$GPGSA,A,3,06,12,02,17,25,24,03,,,,,,1.9,1.1,1.5*3D
$GPRMC,034342.000,A,5408.0814,N,08326.2314,E,71.63,197.86,041016,,,A*53
$GPGGA,034343.000,5408.0625,N,08326.2213,E,1,07,1.1,799.4,M,-37.9,M,,0000*7E
$GPGSA,A,3,06,12,02,17,25,24,03,,,,,,1.9,1.1,1.5*3D
$GPRMC,034343.000,A,5408.0625,N,08326.2213,E,71.69,197.90,041016,,,A*55
$GPGGA,034344.000,5408.0436,N,08326.2113,E,1,07,1.1,799.1,M,-37.9,M,,0000*7F
$GPGSA,A,3,06,12,02,17,25,24,03,,,,,,1.9,1.1,1.5*3D
$GPGSV,3,1,12,06,78,115,26,12,56,289,36,02,53,218,31,17,34,096,21*76
$GPGSV,3,2,12,25,21,313,27,24,15,239,30,03,15,034,17,14,02,339,22*7A
$GPGSV,3,3,12,19,54,092,08,22,00,024,09,23,02,066,25,57,39,104,*76
$GPRMC,034344.000,A,5408.0436,N,08326.2113,E,72.01,197.87,041016,,,A*5A
$GPGGA,034345.000,5408.0245,N,08326.2013,E,1,07,1.1,798.8,M,-37.9,M,,0000*75
$GPGSA,A,3,06,12,02,17,25,24,03,,,,,,1.9,1.1,1.5*3D
$GPRMC,034345.000,A,5408.0245,N,08326.2013,E,72.20,197.64,041016,,,A*56
$GPGGA,034346.000,5408.0054,N,08326.1907,E,1,07,1.1,798.9,M,-37.9,M,,0000*7A
$GPGSA,A,3,06,12,02,17,25,24,03,,,,,,1.9,1.1,1.5*3D
$GPRMC,034346.000,A,5408.0054,N,08326.1907,E,72.57,197.79,041016,,,A*54
$GPGGA,034347.000,5407.9862,N,08326.1806,E,1,07,1.1,798.9,M,-37.9,M,,0000*70
$GPGSA,A,3,06,12,02,17,25,24,03,,,,,,1.9,1.1,1.5*3D
$GPRMC,034347.000,A,5407.9862,N,08326.1806,E,72.49,197.37,041016,,,A*5B
$GPGGA,034348.000,5407.9671,N,08326.1709,E,1,07,1.1,798.2,M,-37.9,M,,0000*78
$GPGSA,A,3,06,12,02,17,25,24,03,,,,,,1.9,1.1,1.5*3D
$GPRMC,034348.000,A,5407.9671,N,08326.1709,E,72.29,197.00,041016,,,A*5A
$GPGGA,034349.000,5407.9479,N,08326.1611,E,1,07,1.1,798.0,M,-37.9,M,,0000*79
$GPGSA,A,3,06,12,02,17,25,24,03,,,,,,1.9,1.1,1.5*3D
$GPGSV,3,1,12,06,78,115,26,12,56,289,36,02,53,218,31,17,34,096,22*75
$GPGSV,3,2,12,25,21,313,27,24,15,239,30,03,15,034,17,14,02,339,22*7A
$GPGSV,3,3,12,19,54,092,09,22,00,024,10,23,02,066,18,57,39,104,*71
$GPRMC,034349.000,A,5407.9479,N,08326.1611,E,72.02,197.02,041016,,,A*52
$GPGGA,034350.000,5407.9289,N,08326.1513,E,1,08,1.1,797.8,M,-37.9,M,,0000*71
$GPGSA,A,3,06,12,19,02,17,25,24,03,,,,,1.9,1.1,1.5*35
$GPRMC,034350.000,A,5407.9289,N,08326.1513,E,71.41,197.03,041016,,,A*57
$GPGGA,034351.000,5407.9101,N,08326.1411,E,1,08,1.1,798.1,M,-37.9,M,,0000*76
$GPGSA,A,3,06,12,19,02,17,25,24,03,,,,,1.9,1.1,1.5*35
$GPRMC,034351.000,A,5407.9101,N,08326.1411,E,70.80,197.22,041016,,,A*59
$GPGGA,034352.000,5407.8915,N,08326.1309,E,1,08,1.1,798.6,M,-37.9,M,,0000*70
$GPGSA,A,3,06,12,19,02,17,25,24,03,,,,,1.9,1.1,1.5*35
$GPRMC,034352.000,A,5407.8915,N,08326.1309,E,69.76,197.29,041016,,,A*52
$GPGGA,034353.000,5407.8731,N,08326.1208,E,1,08,1.1,799.2,M,-37.9,M,,0000*7C
$GPGSA,A,3,06,12,19,02,17,25,24,03,,,,,1.9,1.1,1.5*35
$GPRMC,034353.000,A,5407.8731,N,08326.1208,E,69.22,197.41,041016,,,A*54
$GPGGA,034354.000,5407.8550,N,08326.1108,E,1,07,1.1,799.8,M,-37.9,M,,0000*78
$GPGSA,A,3,12,19,02,17,25,24,03,,,,,,2.1,1.1,1.7*3A
$GPGSV,3,1,12,12,56,289,36,19,54,092,08,02,53,218,32,17,34,096,21*77
$GPGSV,3,2,12,25,21,313,21,24,15,239,29,03,15,034,17,14,02,339,22*74
$GPGSV,3,3,12,22,00,024,10,23,02,066,15,57,39,104,17,06,78,115,*7D
$GPRMC,034354.000,A,5407.8550,N,08326.1108,E,68.11,197.61,041016,,,A*56
$GPGGA,034355.000,5407.8370,N,08326.1003,E,1,08,1.1,800.9,M,-37.9,M,,0000*76
$GPGSA,A,3,06,12,19,02,17,25,24,03,,,,,1.9,1.1,1.5*35
$GPRMC,034355.000,A,5407.8370,N,08326.1003,E,67.71,198.30,041016,,,A*5B
$GPGGA,034356.000,5407.8192,N,08326.0891,E,1,07,1.1,802.3,M,-37.9,M,,0000*7E
$GPGSA,A,3,06,12,02,17,25,24,03,,,,,,1.9,1.1,1.5*3D
$GPRMC,034356.000,A,5407.8192,N,08326.0891,E,67.43,199.12,041016,,,A*54
$GPGGA,034357.000,5407.8015,N,08326.0781,E,1,07,1.1,803.6,M,-37.9,M,,0000*7B
$GPGSA,A,3,06,12,02,17,25,24,03,,,,,,1.9,1.1,1.5*3D
$GPRMC,034357.000,A,5407.8015,N,08326.0781,E,67.21,199.44,041016,,,A*52
$GPGGA,034358.000,5407.7841,N,08326.0677,E,1,07,1.1,804.3,M,-37.9,M,,0000*78
$GPGSA,A,3,06,12,02,17,25,24,03,,,,,,1.9,1.1,1.5*3D
$GPRMC,034358.000,A,5407.7841,N,08326.0677,E,66.53,199.79,041016,,,A*59
$GPGGA,034359.000,5407.7668,N,08326.0570,E,1,07,1.1,805.2,M,-37.9,M,,0000*78
$GPGSA,A,3,06,12,02,17,25,24,03,,,,,,1.9,1.1,1.5*3D
$GPGSV,3,1,12,06,78,115,26,12,56,289,36,02,53,218,32,17,34,096,21*75
$GPGSV,3,2,12,25,21,313,23,24,15,239,28,03,15,034,18,14,02,339,21*7B
$GPGSV,3,3,12,19,54,092,07,22,00,024,07,23,02,066,15,57,39,104,13*76
$GPRMC,034359.000,A,5407.7668,N,08326.0570,E,66.18,200.44,041016,,,A*5B
$GPGGA,034400.000,5407.7497,N,08326.0455,E,1,07,1.1,806.6,M,-37.9,M,,0000*70
$GPGSA,A,3,06,12,02,17,25,24,03,,,,,,1.9,1.1,1.5*3D
$GPRMC,034400.000,A,5407.7497,N,08326.0455,E,65.69,200.81,041016,,,A*58
$GPGGA,034401.000,5407.7327,N,08326.0341,E,1,06,1.1,808.0,M,-37.9,M,,0000*76
$GPGSA,A,3,12,02,17,25,24,03,,,,,,,2.2,1.1,1.9*3F
$GPRMC,034401.000,A,5407.7327,N,08326.0341,E,65.04,200.62,041016,,,A*51
$GPGGA,034402.000,5407.7158,N,08326.0226,E,1,07,1.1,809.7,M,-37.9,M,,0000*78
$GPGSA,A,3,06,12,02,17,25,24,03,,,,,,1.9,1.1,1.5*3D
$GPRMC,034402.000,A,5407.7158,N,08326.0226,E,64.96,201.35,041016,,,A*51
$GPGGA,034403.000,5407.6991,N,08326.0113,E,1,06,1.1,811.0,M,-37.9,M,,0000*7F
$GPGSA,A,3,12,02,17,25,24,03,,,,,,,2.2,1.1,1.9*3F
$GPRMC,034403.000,A,5407.6991,N,08326.0113,E,64.15,200.91,041016,,,A*5D
$GPGGA,034404.000,5407.6825,N,08326.0000,E,1,06,1.1,812.1,M,-37.9,M,,0000*77
$GPGSA,A,3,12,02,17,25,24,03,,,,,,,2.2,1.1,1.9*3F
$GPGSV,3,1,12,12,56,289,37,02,53,218,32,17,34,096,21,25,21,313,24*7F
$GPGSV,3,2,12,24,15,239,27,03,15,034,19,14,02,339,21,19,54,092,16*74
$GPGSV,3,3,12,22,00,024,08,23,02,066,16,06,78,115,,57,39,104,*71
$GPRMC,034404.000,A,5407.6825,N,08326.0000,E,64.03,201.31,041016,,,A*5B
$GPGGA,034405.000,5407.6659,N,08325.9886,E,1,07,1.1,813.5,M,-37.9,M,,0000*7B
$GPGSA,A,3,06,12,02,17,25,24,03,,,,,,1.9,1.1,1.5*3D
$GPRMC,034405.000,A,5407.6659,N,08325.9886,E,64.07,201.66,041016,,,A*55
$GPGGA,034406.000,5407.6494,N,08325.9770,E,1,07,1.1,814.6,M,-37.9,M,,0000*79
$GPGSA,A,3,06,12,02,17,25,24,03,,,,,,1.9,1.1,1.5*3D
$GPRMC,034406.000,A,5407.6494,N,08325.9770,E,64.15,202.13,041016,,,A*51
$GPGGA,034407.000,5407.6330,N,08325.9656,E,1,06,1.1,815.4,M,-37.9,M,,0000*76
$GPGSA,A,3,12,02,17,25,24,03,,,,,,,2.2,1.1,1.9*3F
