$GPGGA,055824.000,5405.9837,N,08323.7310,E,1,11,0.8,380.6,M,-38.1,M,,0000*7E
$GPGSA,A,3,02,05,57,29,25,12,06,09,20,31,23,,1.5,0.8,1.2*39
$GPGSV,3,1,12,02,63,081,28,05,56,167,15,57,48,092,25,29,46,296,16*7F
$GPGSV,3,2,12,25,43,249,18,12,29,203,21,06,23,078,29,09,18,044,32*75
$GPGSV,3,3,12,20,12,208,18,31,08,307,15,23,05,017,32,26,00,337,22*72
$GPRMC,055824.000,A,5405.9837,N,08323.7310,E,61.43,309.11,041016,,,A*56
$GPGGA,055825.000,5405.9938,N,08323.7078,E,1,11,0.8,379.4,M,-38.1,M,,0000*78
$GPGSA,A,3,02,05,57,29,25,12,06,09,20,31,23,,1.5,0.8,1.2*39
$GPRMC,055825.000,A,5405.9938,N,08323.7078,E,61.74,308.58,041016,,,A*5C
$GPGGA,055826.000,5406.0044,N,08323.6848,E,1,11,0.8,379.3,M,-38.1,M,,0000*7E
$GPGSA,A,3,02,05,57,29,25,12,06,09,20,31,23,,1.5,0.8,1.2*39
$GPRMC,055826.000,A,5406.0044,N,08323.6848,E,62.40,308.35,041016,,,A*52
$GPGGA,055827.000,5406.0153,N,08323.6615,E,1,11,0.8,379.5,M,-38.1,M,,0000*78
$GPGSA,A,3,02,05,57,29,25,12,06,09,20,31,23,,1.5,0.8,1.2*39
$GPRMC,055827.000,A,5406.0153,N,08323.6615,E,63.06,308.23,041016,,,A*56
$GPGGA,055828.000,5406.0258,N,08323.6374,E,1,11,0.8,379.2,M,-38.1,M,,0000*7A
$GPGSA,A,3,02,05,57,29,25,12,06,09,20,31,23,,1.5,0.8,1.2*39
$GPRMC,055828.000,A,5406.0258,N,08323.6374,E,63.60,308.42,041016,,,A*54
$GPGGA,055829.000,5406.0367,N,08323.6134,E,1,10,1.0,380.0,M,-38.1,M,,0000*7C
$GPGSA,A,3,02,05,57,29,25,12,06,09,31,23,,,1.9,1.0,1.6*3A
$GPGSV,3,1,12,02,63,081,24,05,56,167,15,57,48,092,21,29,46,296,20*72
$GPGSV,3,2,12,25,43,249,17,12,29,203,23,06,23,078,25,09,18,044,32*74
$GPGSV,3,3,12,31,08,307,13,23,05,017,26,20,12,208,08,26,00,337,29*7B
$GPRMC,055829.000,A,5406.0367,N,08323.6134,E,64.09,307.48,041016,,,A*53
$GPGGA,055830.000,5406.0476,N,08323.5892,E,1,11,0.8,380.9,M,-38.1,M,,0000*74
$GPGSA,A,3,02,05,57,29,25,12,06,09,20,31,23,,1.5,0.8,1.2*39
$GPRMC,055830.000,A,5406.0476,N,08323.5892,E,64.50,307.33,041016,,,A*5A
$GPGGA,055831.000,5406.0586,N,08323.5647,E,1,10,0.9,381.5,M,-38.1,M,,0000*70
$GPGSA,A,3,02,05,57,29,25,12,06,09,20,23,,,1.6,0.9,1.3*38
$GPRMC,055831.000,A,5406.0586,N,08323.5647,E,64.91,307.38,041016,,,A*55
$GPGGA,055832.000,5406.0695,N,08323.5400,E,1,11,0.8,381.3,M,-38.1,M,,0000*75
$GPGSA,A,3,02,05,57,29,25,12,06,09,20,31,23,,1.5,0.8,1.2*39
$GPRMC,055832.000,A,5406.0695,N,08323.5400,E,65.74,307.15,041016,,,A*53
$GPGGA,055833.000,5406.0805,N,08323.5150,E,1,11,0.8,380.9,M,-38.1,M,,0000*78
$GPGSA,A,3,02,05,57,29,25,12,06,09,20,31,23,,1.5,0.8,1.2*39
$GPRMC,055833.000,A,5406.0805,N,08323.5150,E,66.33,306.59,041016,,,A*5C
$GPGGA,055834.000,5406.0914,N,08323.4897,E,1,11,0.8,380.3,M,-38.1,M,,0000*77
$GPGSA,A,3,02,05,57,29,25,12,06,09,20,31,23,,1.5,0.8,1.2*39
$GPGSV,3,1,12,02,63,081,25,05,56,167,09,57,48,092,21,29,46,296,21*7F
$GPGSV,3,2,12,25,43,249,17,12,29,203,21,06,23,078,27,09,18,044,32*74
$GPGSV,3,3,12,20,12,208,20,31,08,307,10,23,05,017,30,26,00,337,27*7B
$GPRMC,055834.000,A,5406.0914,N,08323.4897,E,66.97,306.50,041016,,,A*5E
$GPGGA,055835.000,5406.1024,N,08323.4640,E,1,11,0.8,379.6,M,-38.1,M,,0000*7A
$GPGSA,A,3,02,05,57,29,25,12,06,09,20,31,23,,1.5,0.8,1.2*39
$GPRMC,055835.000,A,5406.1024,N,08323.4640,E,68.29,306.35,041016,,,A*58
$GPGGA,055836.000,5406.1136,N,08323.4382,E,1,09,1.0,379.2,M,-38.1,M,,0000*74
$GPGSA,A,3,02,57,29,25,12,06,09,20,23,,,,1.6,1.0,1.3*35
$GPRMC,055836.000,A,5406.1136,N,08323.4382,E,67.87,306.37,041016,,,A*5B
$GPGGA,055837.000,5406.1248,N,08323.4126,E,1,09,1.0,379.0,M,-38.1,M,,0000*71
$GPGSA,A,3,02,57,29,25,12,06,09,20,23,,,,1.6,1.0,1.3*35
$GPRMC,055837.000,A,5406.1248,N,08323.4126,E,67.57,307.36,041016,,,A*51
$GPGGA,055838.000,5406.1363,N,08323.3874,E,1,09,1.0,378.1,M,-38.1,M,,0000*7F
$GPGSA,A,3,02,57,29,25,12,06,09,20,23,,,,1.6,1.0,1.3*35
$GPRMC,055838.000,A,5406.1363,N,08323.3874,E,67.70,307.69,041016,,,A*50
$GPGGA,055839.000,5406.1478,N,08323.3619,E,1,09,1.0,376.8,M,-38.1,M,,0000*71
$GPGSA,A,3,02,57,29,25,12,06,09,20,23,,,,1.6,1.0,1.3*35
$GPGSV,3,1,12,02,63,081,25,57,48,092,21,29,46,296,17,25,43,249,21*79
$GPGSV,3,2,12,12,29,203,23,06,23,078,27,09,18,044,32,20,12,208,20*76
$GPGSV,3,3,12,23,05,017,32,05,56,167,09,26,00,337,26,31,08,307,10*7E
$GPRMC,055839.000,A,5406.1478,N,08323.3619,E,67.59,308.35,041016,,,A*54
$GPGGA,055840.000,5406.1591,N,08323.3367,E,1,09,1.0,374.9,M,-38.1,M,,0000*76
$GPGSA,A,3,02,57,29,25,12,06,09,20,23,,,,1.6,1.0,1.3*35
$GPRMC,055840.000,A,5406.1591,N,08323.3367,E,66.99,308.39,041016,,,A*51
$GPGGA,055841.000,5406.1705,N,08323.3120,E,1,09,1.0,373.7,M,-38.1,M,,0000*70
$GPGSA,A,3,02,57,29,25,12,06,09,20,23,,,,1.6,1.0,1.3*35
$GPRMC,055841.000,A,5406.1705,N,08323.3120,E,66.77,308.95,041016,,,A*58
$GPGGA,055842.000,5406.1814,N,08323.2876,E,1,09,1.0,371.6,M,-38.1,M,,0000*74
$GPGSA,A,3,02,57,29,25,12,06,09,20,23,,,,1.6,1.0,1.3*35
$GPRMC,055842.000,A,5406.1814,N,08323.2876,E,65.83,309.54,041016,,,A*5B
$GPGGA,055843.000,5406.1922,N,08323.2635,E,1,09,1.0,368.9,M,-38.1,M,,0000*7F
$GPGSA,A,3,02,57,29,25,12,06,09,20,23,,,,1.6,1.0,1.3*35
$GPRMC,055843.000,A,5406.1922,N,08323.2635,E,65.50,309.91,041016,,,A*50
$GPGGA,055844.000,5406.2036,N,08323.2402,E,1,09,1.0,368.2,M,-38.1,M,,0000*7A
$GPGSA,A,3,02,57,29,25,12,06,09,20,23,,,,1.6,1.0,1.3*35
$GPGSV,3,1,12,02,63,081,26,57,48,092,27,29,46,296,18,25,43,249,19*78
$GPGSV,3,2,12,12,29,203,23,06,23,078,27,09,18,044,33,20,12,208,22*75
$GPGSV,3,3,12,23,05,017,33,05,56,167,16,26,00,337,21,31,08,307,10*76
$GPRMC,055844.000,A,5406.2036,N,08323.2402,E,63.99,310.77,041016,,,A*5D
$GPGGA,055845.000,5406.2152,N,08323.2179,E,1,09,1.0,367.6,M,-38.1,M,,0000*7A
$GPGSA,A,3,02,57,29,25,12,06,09,20,23,,,,1.6,1.0,1.3*35
$GPRMC,055845.000,A,5406.2152,N,08323.2179,E,63.50,310.56,041016,,,A*50
$GPGGA,055846.000,5406.2266,N,08323.1955,E,1,09,1.0,366.6,M,-38.1,M,,0000*79
$GPGSA,A,3,02,57,29,25,12,06,09,20,23,,,,1.6,1.0,1.3*35
$GPRMC,055846.000,A,5406.2266,N,08323.1955,E,63.13,310.94,041016,,,A*5B
$GPGGA,055847.000,5406.2386,N,08323.1732,E,1,09,1.0,367.3,M,-38.1,M,,0000*7C
$GPGSA,A,3,02,57,29,25,12,06,09,20,23,,,,1.6,1.0,1.3*35
$GPRMC,055847.000,A,5406.2386,N,08323.1732,E,63.58,311.60,041016,,,A*5F
$GPGGA,055848.000,5406.2507,N,08323.1511,E,1,09,1.0,367.9,M,-38.1,M,,0000*75
$GPGSA,A,3,02,57,29,25,12,06,09,20,23,,,,1.6,1.0,1.3*35
$GPRMC,055848.000,A,5406.2507,N,08323.1511,E,63.33,312.20,041016,,,A*56
$GPGGA,055849.000,5406.2626,N,08323.1293,E,1,09,1.0,367.4,M,-38.1,M,,0000*74
$GPGSA,A,3,02,57,29,25,12,06,09,20,23,,,,1.6,1.0,1.3*35
$GPGSV,3,1,12,02,63,081,27,57,48,092,27,29,46,296,19,25,43,249,19*78
$GPGSV,3,2,12,12,29,203,15,06,23,078,27,09,18,044,33,20,12,208,22*70
$GPGSV,3,3,12,23,05,017,33,05,56,167,16,26,00,337,21,31,08,307,10*76
$GPRMC,055849.000,A,5406.2626,N,08323.1293,E,63.29,313.10,041016,,,A*53
$GPGGA,055850.000,5406.2746,N,08323.1082,E,1,09,1.0,366.6,M,-38.1,M,,0000*7A
$GPGSA,A,3,02,57,29,25,12,06,09,20,23,,,,1.6,1.0,1.3*35
$GPRMC,055850.000,A,5406.2746,N,08323.1082,E,63.10,314.26,041016,,,A*56
$GPGGA,055851.000,5406.2868,N,08323.0874,E,1,09,1.0,365.9,M,-38.1,M,,0000*74
$GPGSA,A,3,02,57,29,25,12,06,09,20,23,,,,1.6,1.0,1.3*35
$GPRMC,055851.000,A,5406.2868,N,08323.0874,E,63.00,314.41,041016,,,A*54
$GPGGA,055852.000,5406.2988,N,08323.0663,E,1,09,1.0,364.3,M,-38.1,M,,0000*7B
$GPGSA,A,3,02,57,29,25,12,06,09,20,23,,,,1.6,1.0,1.3*35
$GPRMC,055852.000,A,5406.2988,N,08323.0663,E,63.09,314.04,041016,,,A*58
$GPGGA,055853.000,5406.3105,N,08323.0451,E,1,09,1.0,362.5,M,-38.1,M,,0000*75
$GPGSA,A,3,02,57,29,25,12,06,09,20,23,,,,1.6,1.0,1.3*35
$GPRMC,055853.000,A,5406.3105,N,08323.0451,E,62.65,313.50,041016,,,A*5B
$GPGGA,055854.000,5406.3224,N,08323.0237,E,1,09,1.0,361.6,M,-38.1,M,,0000*74
$GPGSA,A,3,02,57,29,25,12,06,09,20,23,,,,1.6,1.0,1.3*35
$GPGSV,3,1,12,02,63,081,28,57,48,092,27,29,46,296,18,25,43,249,19*76
$GPGSV,3,2,12,12,29,203,18,06,23,078,28,09,18,044,33,20,12,208,24*74
$GPGSV,3,3,12,23,05,017,32,26,00,337,21,31,08,307,10,05,56,167,*70
$GPRMC,055854.000,A,5406.3224,N,08323.0237,E,62.06,313.63,041016,,,A*5F
$GPGGA,055855.000,5406.3341,N,08323.0021,E,1,09,1.0,360.4,M,-38.1,M,,0000*71
$GPGSA,A,3,02,57,29,25,12,06,09,20,23,,,,1.6,1.0,1.3*35
$GPRMC,055855.000,A,5406.3341,N,08323.0021,E,61.79,313.16,041016,,,A*50
$GPGGA,055856.000,5406.3457,N,08322.9808,E,1,09,1.0,359.4,M,-38.1,M,,0000*73
$GPGSA,A,3,02,57,29,25,12,06,09,20,23,,,,1.6,1.0,1.3*35
$GPRMC,055856.000,A,5406.3457,N,08322.9808,E,61.60,312.83,041016,,,A*5D
$GPGGA,055857.000,5406.3575,N,08322.9599,E,1,09,1.0,358.9,M,-38.1,M,,0000*7A
$GPGSA,A,3,02,57,29,25,12,06,09,20,23,,,,1.6,1.0,1.3*35
$GPRMC,055857.000,A,5406.3575,N,08322.9599,E,60.90,313.08,041016,,,A*54
$GPGGA,055858.000,5406.3692,N,08322.9391,E,1,09,1.0,358.7,M,-38.1,M,,0000*7F
$GPGSA,A,3,02,57,29,25,12,06,09,20,23,,,,1.6,1.0,1.3*35
$GPRMC,055858.000,A,5406.3692,N,08322.9391,E,60.79,312.56,041016,,,A*52
$GPGGA,055859.000,5406.3806,N,08322.9179,E,1,09,1.0,358.5,M,-38.1,M,,0000*7B
$GPGSA,A,3,02,57,29,25,12,06,09,20,23,,,,1.6,1.0,1.3*35
$GPGSV,3,1,12,02,63,081,28,57,48,092,27,29,46,296,18,25,43,249,19*76
$GPGSV,3,2,12,12,29,203,19,06,23,078,28,09,18,044,33,20,12,208,24*75
$GPGSV,3,3,12,23,05,017,32,26,00,337,18,31,08,307,10,05,56,167,*7A
$GPRMC,055859.000,A,5406.3806,N,08322.9179,E,60.56,311.58,041016,,,A*54
$GPGGA,055900.000,5406.3918,N,08322.8967,E,1,09,1.0,358.3,M,-38.1,M,,0000*78
$GPGSA,A,3,02,57,29,25,12,06,09,20,23,,,,1.6,1.0,1.3*35
$GPRMC,055900.000,A,5406.3918,N,08322.8967,E,60.30,311.11,041016,,,A*5C
$GPGGA,055901.000,5406.4028,N,08322.8754,E,1,09,1.0,358.1,M,-38.1,M,,0000*78
$GPGSA,A,3,02,57,29,25,12,06,09,20,23,,,,1.6,1.0,1.3*35
$GPRMC,055901.000,A,5406.4028,N,08322.8754,E,60.28,310.96,041016,,,A*59
$GPGGA,055902.000,5406.4137,N,08322.8541,E,1,09,1.0,358.2,M,-38.1,M,,0000*71
$GPGSA,A,3,02,57,29,25,12,06,09,20,23,,,,1.6,1.0,1.3*35
$GPRMC,055902.000,A,5406.4137,N,08322.8541,E,59.91,310.75,041016,,,A*56
$GPGGA,055903.000,5406.4245,N,08322.8330,E,1,09,1.0,358.9,M,-38.1,M,,0000*7D
$GPGSA,A,3,02,57,29,25,12,06,09,20,23,,,,1.6,1.0,1.3*35
$GPRMC,055903.000,A,5406.4245,N,08322.8330,E,59.51,310.47,041016,,,A*5C
$GPGGA,055904.000,5406.4351,N,08322.8115,E,1,09,1.0,358.9,M,-38.1,M,,0000*7B
$GPGSA,A,3,02,57,29,25,12,06,09,20,23,,,,1.6,1.0,1.3*35
$GPGSV,3,1,12,02,63,081,28,57,48,092,27,29,46,296,18,25,43,249,20*7C
$GPGSV,3,2,12,12,29,203,25,06,23,078,29,09,18,044,33,20,12,208,19*75
$GPGSV,3,3,12,23,05,017,26,26,00,337,24,31,08,307,10,05,56,167,*70
$GPRMC,055904.000,A,5406.4351,N,08322.8115,E,59.24,309.89,041016,,,A*52
$GPGGA,055905.000,5406.4455,N,08322.7899,E,1,09,1.0,359.2,M,-38.1,M,,0000*71
$GPGSA,A,3,02,57,29,25,12,06,09,20,23,,,,1.6,1.0,1.3*35
$GPRMC,055905.000,A,5406.4455,N,08322.7899,E,58.99,309.25,041016,,,A*53
$GPGGA,055906.000,5406.4558,N,08322.7685,E,1,09,1.0,359.6,M,-38.1,M,,0000*79
$GPGSA,A,3,02,57,29,25,12,06,09,20,23,,,,1.6,1.0,1.3*35
$GPRMC,055906.000,A,5406.4558,N,08322.7685,E,58.75,308.96,041016,,,A*54
$GPGGA,055907.000,5406.4660,N,08322.7467,E,1,09,1.0,359.9,M,-38.1,M,,0000*71
$GPGSA,A,3,02,57,29,25,12,06,09,20,23,,,,1.6,1.0,1.3*35
$GPRMC,055907.000,A,5406.4660,N,08322.7467,E,59.01,307.96,041016,,,A*5E
$GPGGA,055908.000,5406.4761,N,08322.7252,E,1,09,1.0,360.5,M,-38.1,M,,0000*78
$GPGSA,A,3,02,57,29,25,12,06,09,20,23,,,,1.6,1.0,1.3*35
$GPRMC,055908.000,A,5406.4761,N,08322.7252,E,58.50,308.30,041016,,,A*57
$GPGGA,055909.000,5406.4862,N,08322.7038,E,1,09,1.0,361.2,M,-38.1,M,,0000*7D
$GPGSA,A,3,02,57,29,25,12,06,09,20,23,,,,1.6,1.0,1.3*35
$GPGSV,3,1,12,02,63,081,28,57,48,092,22,29,46,296,19,25,43,249,19*72
$GPGSV,3,2,12,12,29,203,17,06,23,078,28,09,18,044,33,20,12,208,20*7F
$GPGSV,3,3,12,23,05,017,33,26,00,337,26,31,08,307,10,05,56,167,*76
$GPRMC,055909.000,A,5406.4862,N,08322.7038,E,58.17,307.91,041016,,,A*53
$GPGGA,055910.000,5406.4961,N,08322.6821,E,1,09,1.0,361.9,M,-38.1,M,,0000*7D
$GPGSA,A,3,02,57,29,25,12,06,09,20,23,,,,1.6,1.0,1.3*35
$GPRMC,055910.000,A,5406.4961,N,08322.6821,E,57.80,307.34,041016,,,A*56
$GPGGA,055911.000,5406.5059,N,08322.6604,E,1,09,1.0,362.6,M,-38.1,M,,0000*7A
$GPGSA,A,3,02,57,29,25,12,06,09,20,23,,,,1.6,1.0,1.3*35
$GPRMC,055911.000,A,5406.5059,N,08322.6604,E,58.15,307.03,041016,,,A*5A
$GPGGA,055912.000,5406.5158,N,08322.6385,E,1,09,1.0,363.4,M,-38.1,M,,0000*76
$GPGSA,A,3,02,57,29,25,12,06,09,20,23,,,,1.6,1.0,1.3*35
$GPRMC,055912.000,A,5406.5158,N,08322.6385,E,58.90,307.07,041016,,,A*5C
$GPGGA,055913.000,5406.5258,N,08322.6167,E,1,09,1.0,364.1,M,-38.1,M,,0000*78
$GPGSA,A,3,02,57,29,25,12,06,09,20,23,,,,1.6,1.0,1.3*35
$GPRMC,055913.000,A,5406.5258,N,08322.6167,E,58.87,307.65,041016,,,A*52
$GPGGA,055914.000,5406.5358,N,08322.5951,E,1,09,1.0,364.6,M,-38.1,M,,0000*77
$GPGSA,A,3,02,57,29,25,12,06,09,20,23,,,,1.6,1.0,1.3*35
$GPGSV,3,1,12,02,63,081,28,57,48,092,25,29,46,296,20,25,43,249,20*75
$GPGSV,3,2,12,12,29,203,18,06,23,078,27,09,18,044,33,20,12,208,20*7F
$GPGSV,3,3,12,23,05,017,34,26,00,337,27,31,08,307,10,05,56,167,*70
$GPRMC,055914.000,A,5406.5358,N,08322.5951,E,58.34,308.61,041016,,,A*59
$GPGGA,055915.000,5406.5458,N,08322.5737,E,1,08,1.0,364.9,M,-38.1,M,,0000*71
$GPGSA,A,3,02,57,29,12,06,09,20,23,,,,,1.7,1.0,1.4*34
$GPRMC,055915.000,A,5406.5458,N,08322.5737,E,58.07,308.75,041016,,,A*54
$GPGGA,055916.000,5406.5558,N,08322.5519,E,1,08,1.0,365.2,M,-38.1,M,,0000*77
$GPGSA,A,3,02,57,29,12,06,09,20,23,,,,,1.7,1.0,1.4*34
$GPRMC,055916.000,A,5406.5558,N,08322.5519,E,57.89,308.18,041016,,,A*5A
$GPGGA,055917.000,5406.5658,N,08322.5303,E,1,09,1.0,365.7,M,-38.1,M,,0000*7C
$GPGSA,A,3,02,57,29,25,12,06,09,20,23,,,,1.6,1.0,1.3*35
$GPRMC,055917.000,A,5406.5658,N,08322.5303,E,58.10,308.58,041016,,,A*5E
$GPGGA,055918.000,5406.5757,N,08322.5086,E,1,09,1.0,365.8,M,-38.1,M,,0000*7C
$GPGSA,A,3,02,57,29,25,12,06,09,20,23,,,,1.6,1.0,1.3*35
$GPRMC,055918.000,A,5406.5757,N,08322.5086,E,57.59,308.61,041016,,,A*59
$GPGGA,055919.000,5406.5858,N,08322.4873,E,1,09,1.0,366.6,M,-38.1,M,,0000*73
$GPGSA,A,3,02,57,29,25,12,06,09,20,23,,,,1.6,1.0,1.3*35
$GPGSV,3,1,12,02,63,081,27,57,48,092,25,29,46,296,21,25,43,249,16*7E
$GPGSV,3,2,12,12,29,203,25,06,23,078,27,09,18,044,33,20,12,208,19*7B
$GPGSV,3,3,12,23,05,017,31,26,00,337,27,31,08,307,10,05,56,167,*75
$GPRMC,055919.000,A,5406.5858,N,08322.4873,E,56.67,309.18,041016,,,A*58
$GPGGA,055920.000,5406.5958,N,08322.4662,E,1,09,1.0,367.5,M,-38.1,M,,0000*74
$GPGSA,A,3,02,57,29,25,12,06,09,20,23,,,,1.6,1.0,1.3*35
$GPRMC,055920.000,A,5406.5958,N,08322.4662,E,57.05,308.90,041016,,,A*59
$GPGGA,055921.000,5406.6059,N,08322.4452,E,1,08,1.2,367.9,M,-38.1,M,,0000*70
$GPGSA,A,3,02,57,25,12,06,09,20,23,,,,,1.9,1.2,1.5*35
$GPRMC,055921.000,A,5406.6059,N,08322.4452,E,58.00,309.41,041016,,,A*55
$GPGGA,055922.000,5406.6166,N,08322.4240,E,1,09,1.0,369.0,M,-38.1,M,,0000*7F
$GPGSA,A,3,02,57,29,25,12,06,09,20,23,,,,1.6,1.0,1.3*35
$GPRMC,055922.000,A,5406.6166,N,08322.4240,E,59.04,310.74,041016,,,A*55
$GPGGA,055923.000,5406.6273,N,08322.4031,E,1,08,1.0,369.3,M,-38.1,M,,0000*7F
$GPGSA,A,3,02,57,29,25,06,09,20,23,,,,,1.7,1.0,1.3*37
$GPRMC,055923.000,A,5406.6273,N,08322.4031,E,59.91,311.03,041016,,,A*5A
$GPGGA,055924.000,5406.6384,N,08322.3817,E,1,09,1.0,369.9,M,-38.1,M,,0000*71
$GPGSA,A,3,02,57,29,25,12,06,09,20,23,,,,1.6,1.0,1.3*35
$GPGSV,3,1,12,02,63,081,28,57,48,092,25,29,46,296,15,25,43,249,17*77
$GPGSV,3,2,12,12,29,203,17,06,23,078,27,09,18,044,33,20,12,208,20*70
$GPGSV,3,3,12,23,05,017,32,05,56,167,18,26,00,337,26,31,08,307,10*7E
$GPRMC,055924.000,A,5406.6384,N,08322.3817,E,60.29,311.54,041016,,,A*54
$GPGGA,055925.000,5406.6493,N,08322.3606,E,1,09,1.0,369.9,M,-38.1,M,,0000*7F
$GPGSA,A,3,02,57,29,25,12,06,09,20,23,,,,1.6,1.0,1.3*35
$GPRMC,055925.000,A,5406.6493,N,08322.3606,E,60.69,311.39,041016,,,A*55
$GPGGA,055926.000,5406.6601,N,08322.3392,E,1,09,1.0,369.6,M,-38.1,M,,0000*72
$GPGSA,A,3,02,57,29,25,12,06,09,20,23,,,,1.6,1.0,1.3*35
$GPRMC,055926.000,A,5406.6601,N,08322.3392,E,60.78,311.00,041016,,,A*5D
$GPGGA,055927.000,5406.6711,N,08322.3178,E,1,09,1.0,369.5,M,-38.1,M,,0000*76
$GPGSA,A,3,02,57,29,25,12,06,09,20,23,,,,1.6,1.0,1.3*35
$GPRMC,055927.000,A,5406.6711,N,08322.3178,E,60.61,311.19,041016,,,A*5A
$GPGGA,055928.000,5406.6821,N,08322.2961,E,1,09,1.0,369.8,M,-38.1,M,,0000*79
$GPGSA,A,3,02,57,29,25,12,06,09,20,23,,,,1.6,1.0,1.3*35
$GPRMC,055928.000,A,5406.6821,N,08322.2961,E,60.41,310.48,041016,,,A*5F
$GPGGA,055929.000,5406.6929,N,08322.2745,E,1,09,1.0,370.0,M,-38.1,M,,0000*79
$GPGSA,A,3,02,57,29,25,12,06,09,20,23,,,,1.6,1.0,1.3*35
$GPGSV,3,1,12,02,63,081,28,57,48,092,25,29,46,296,18,25,43,249,17*7A
$GPGSV,3,2,12,12,29,203,20,06,23,078,28,09,18,044,33,20,12,208,21*7A
$GPGSV,3,3,12,23,05,017,33,26,00,337,18,31,08,307,10,05,56,167,*7B
$GPRMC,055929.000,A,5406.6929,N,08322.2745,E,60.34,310.10,041016,,,A*50
$GPGGA,055930.000,5406.7038,N,08322.2525,E,1,09,1.0,370.3,M,-38.1,M,,0000*7E
$GPGSA,A,3,02,57,29,25,12,06,09,20,23,,,,1.6,1.0,1.3*35
$GPRMC,055930.000,A,5406.7038,N,08322.2525,E,61.16,309.91,041016,,,A*54
$GPGGA,055931.000,5406.7147,N,08322.2306,E,1,09,1.0,370.5,M,-38.1,M,,0000*77
$GPGSA,A,3,02,57,29,25,12,06,09,20,23,,,,1.6,1.0,1.3*35
$GPRMC,055931.000,A,5406.7147,N,08322.2306,E,61.32,310.21,041016,,,A*5E
$GPGGA,055932.000,5406.7258,N,08322.2083,E,1,09,1.0,370.8,M,-38.1,M,,0000*7A
$GPGSA,A,3,02,57,29,25,12,06,09,20,23,,,,1.6,1.0,1.3*35
$GPRMC,055932.000,A,5406.7258,N,08322.2083,E,62.02,310.34,041016,,,A*5A
$GPGGA,055933.000,5406.7372,N,08322.1860,E,1,09,1.0,371.6,M,-38.1,M,,0000*7B
$GPGSA,A,3,02,57,29,25,12,06,09,20,23,,,,1.6,1.0,1.3*35
$GPRMC,055933.000,A,5406.7372,N,08322.1860,E,62.76,310.32,041016,,,A*51
$GPGGA,055934.000,5406.7482,N,08322.1639,E,1,09,1.0,372.2,M,-38.1,M,,0000*71
$GPGSA,A,3,02,57,29,25,12,06,09,20,23,,,,1.6,1.0,1.3*35
$GPGSV,3,1,12,02,63,081,28,57,48,092,25,29,46,296,17,25,43,249,16*74
$GPGSV,3,2,12,12,29,203,19,06,23,078,28,09,18,044,33,20,12,208,22*73
$GPGSV,3,3,12,23,05,017,33,05,56,167,15,26,00,337,16,31,08,307,10*71
$GPRMC,055934.000,A,5406.7482,N,08322.1639,E,61.64,310.28,041016,,,A*57
$GPGGA,055935.000,5406.7592,N,08322.1421,E,1,09,1.0,372.5,M,-38.1,M,,0000*7C
$GPGSA,A,3,02,57,29,25,12,06,09,20,23,,,,1.6,1.0,1.3*35
$GPRMC,055935.000,A,5406.7592,N,08322.1421,E,61.41,310.15,041016,,,A*54
$GPGGA,055936.000,5406.7701,N,08322.1203,E,1,09,1.0,373.0,M,-38.1,M,,0000*75
$GPGSA,A,3,02,57,29,25,12,06,09,20,23,,,,1.6,1.0,1.3*35
$GPRMC,055936.000,A,5406.7701,N,08322.1203,E,61.29,309.81,041016,,,A*52
$GPGGA,055937.000,5406.7814,N,08322.0987,E,1,09,1.0,374.4,M,-38.1,M,,0000*7A
$GPGSA,A,3,02,57,29,25,12,06,09,20,23,,,,1.6,1.0,1.3*35
$GPRMC,055937.000,A,5406.7814,N,08322.0987,E,61.10,309.68,041016,,,A*53
$GPGGA,055938.000,5406.7920,N,08322.0765,E,1,09,1.0,374.6,M,-38.1,M,,0000*73
$GPGSA,A,3,02,57,29,25,12,06,09,20,23,,,,1.6,1.0,1.3*35
$GPRMC,055938.000,A,5406.7920,N,08322.0765,E,60.93,309.75,041016,,,A*5E
$GPGGA,055939.000,5406.8026,N,08322.0537,E,1,09,1.0,375.1,M,-38.1,M,,0000*71
$GPGSA,A,3,02,57,29,25,12,06,09,20,23,,,,1.6,1.0,1.3*35
$GPGSV,3,1,12,02,63,081,28,57,48,092,25,29,46,296,17,25,43,249,15*77
$GPGSV,3,2,12,12,29,203,23,06,23,078,28,09,18,044,33,20,12,208,22*7A
$GPGSV,3,3,12,23,05,017,34,21,00,259,13,26,00,337,25,31,08,307,10*7B
$GPRMC,055939.000,A,5406.8026,N,08322.0537,E,60.50,309.85,041016,,,A*5A
$GPGGA,055940.000,5406.8129,N,08322.0316,E,1,09,1.0,374.8,M,-38.1,M,,0000*7C
$GPGSA,A,3,02,57,29,25,12,06,09,20,23,,,,1.6,1.0,1.3*35
$GPRMC,055940.000,A,5406.8129,N,08322.0316,E,60.52,309.92,041016,,,A*5B
$GPGGA,055941.000,5406.8238,N,08322.0094,E,1,09,1.0,375.6,M,-38.1,M,,0000*78
$GPGSA,A,3,02,57,29,25,12,06,09,20,23,,,,1.6,1.0,1.3*35
$GPRMC,055941.000,A,5406.8238,N,08322.0094,E,60.70,310.71,041016,,,A*55
$GPGGA,055942.000,5406.8346,N,08321.9882,E,1,09,1.0,376.2,M,-38.1,M,,0000*71
$GPGSA,A,3,02,57,29,25,12,06,09,20,23,,,,1.6,1.0,1.3*35
$GPRMC,055942.000,A,5406.8346,N,08321.9882,E,59.82,310.98,041016,,,A*5B
$GPGGA,055943.000,5406.8452,N,08321.9672,E,1,09,1.0,376.7,M,-38.1,M,,0000*76
$GPGSA,A,3,02,57,29,25,12,06,09,20,23,,,,1.6,1.0,1.3*35
$GPRMC,055943.000,A,5406.8452,N,08321.9672,E,60.37,310.98,041016,,,A*5D
$GPGGA,055944.000,5406.8559,N,08321.9462,E,1,09,1.0,377.2,M,-38.1,M,,0000*7C
$GPGSA,A,3,02,57,29,25,12,06,09,20,23,,,,1.6,1.0,1.3*35
$GPGSV,3,1,12,02,63,081,28,57,48,092,25,29,46,296,17,25,43,249,17*75
$GPGSV,3,2,12,12,29,203,23,06,23,078,27,09,18,044,34,20,12,208,21*71
$GPGSV,3,3,12,23,05,017,37,05,56,167,15,26,00,337,24,31,08,307,10*74
$GPRMC,055944.000,A,5406.8559,N,08321.9462,E,60.55,310.95,041016,,,A*5A
$GPGGA,055945.000,5406.8667,N,08321.9250,E,1,09,1.0,377.8,M,-38.1,M,,0000*7E
$GPGSA,A,3,02,57,29,25,12,06,09,20,23,,,,1.6,1.0,1.3*35
$GPRMC,055945.000,A,5406.8667,N,08321.9250,E,60.87,310.80,041016,,,A*59
$GPGGA,055946.000,5406.8777,N,08321.9038,E,1,09,1.0,378.4,M,-38.1,M,,0000*72
$GPGSA,A,3,02,57,29,25,12,06,09,20,23,,,,1.6,1.0,1.3*35
$GPRMC,055946.000,A,5406.8777,N,08321.9038,E,61.17,311.14,041016,,,A*52
$GPGGA,055947.000,5406.8888,N,08321.8822,E,1,09,1.0,378.8,M,-38.1,M,,0000*72
$GPGSA,A,3,02,57,29,25,12,06,09,20,23,,,,1.6,1.0,1.3*35
$GPRMC,055947.000,A,5406.8888,N,08321.8822,E,61.14,311.11,041016,,,A*58
$GPGGA,055948.000,5406.8997,N,08321.8606,E,1,09,1.0,379.0,M,-38.1,M,,0000*73
$GPGSA,A,3,02,57,29,25,12,06,09,20,23,,,,1.6,1.0,1.3*35
$GPRMC,055948.000,A,5406.8997,N,08321.8606,E,60.29,310.32,041016,,,A*5F
$GPGGA,055949.000,5406.9108,N,08321.8387,E,1,09,1.0,379.9,M,-38.1,M,,0000*78
$GPGSA,A,3,02,57,29,25,12,06,09,20,23,,,,1.6,1.0,1.3*35
$GPGSV,3,1,12,02,62,082,28,57,48,092,25,29,47,296,17,25,43,248,18*78
$GPGSV,3,2,12,12,28,203,13,06,22,078,26,09,18,043,34,20,12,208,20*75
$GPGSV,3,3,12,23,05,017,29,05,56,166,16,26,01,337,25,31,07,307,10*76
$GPRMC,055949.000,A,5406.9108,N,08321.8387,E,60.62,310.15,041016,,,A*57
$GPGGA,055950.000,5406.9216,N,08321.8166,E,1,09,1.0,380.2,M,-38.1,M,,0000*7C
$GPGSA,A,3,02,57,29,25,12,06,09,20,23,,,,1.6,1.0,1.3*35
$GPRMC,055950.000,A,5406.9216,N,08321.8166,E,61.40,309.59,041016,,,A*5F
$GPGGA,055951.000,5406.9325,N,08321.7942,E,1,09,1.0,380.7,M,-38.1,M,,0000*78
$GPGSA,A,3,02,57,29,25,12,06,09,20,23,,,,1.6,1.0,1.3*35
$GPRMC,055951.000,A,5406.9325,N,08321.7942,E,61.94,309.03,041016,,,A*58
$GPGGA,055952.000,5406.9433,N,08321.7714,E,1,09,1.0,381.0,M,-38.1,M,,0000*70
$GPGSA,A,3,02,57,29,25,12,06,09,20,23,,,,1.6,1.0,1.3*35
$GPRMC,055952.000,A,5406.9433,N,08321.7714,E,61.83,308.81,041016,,,A*5B
$GPGGA,055953.000,5406.9541,N,08321.7485,E,1,09,1.0,381.6,M,-38.1,M,,0000*78
$GPGSA,A,3,02,57,29,25,12,06,09,20,23,,,,1.6,1.0,1.3*35
$GPRMC,055953.000,A,5406.9541,N,08321.7485,E,61.85,308.20,041016,,,A*58
$GPGGA,055954.000,5406.9644,N,08321.7254,E,1,09,1.0,381.7,M,-38.1,M,,0000*72
$GPGSA,A,3,02,57,29,25,12,06,09,20,23,,,,1.6,1.0,1.3*35
$GPGSV,3,1,12,02,62,082,28,57,48,092,24,29,47,296,17,25,43,248,17*76
$GPGSV,3,2,12,12,28,203,20,06,22,078,26,09,18,043,33,20,12,208,09*79
$GPGSV,3,3,12,23,05,016,35,05,56,166,16,26,01,337,25,31,07,306,10*7B
$GPRMC,055954.000,A,5406.9644,N,08321.7254,E,61.92,307.19,041016,,,A*50
$GPGGA,055955.000,5406.9750,N,08321.7017,E,1,09,1.0,382.6,M,-38.1,M,,0000*70
$GPGSA,A,3,02,57,29,25,12,06,09,20,23,,,,1.6,1.0,1.3*35
$GPRMC,055955.000,A,5406.9750,N,08321.7017,E,61.99,307.49,041016,,,A*5E
$GPGGA,055956.000,5406.9857,N,08321.6779,E,1,09,1.0,383.6,M,-38.1,M,,0000*74
$GPGSA,A,3,02,57,29,25,12,06,09,20,23,,,,1.6,1.0,1.3*35
$GPRMC,055956.000,A,5406.9857,N,08321.6779,E,62.62,307.35,041016,,,A*57
$GPGGA,055957.000,5406.9964,N,08321.6540,E,1,09,1.0,384.3,M,-38.1,M,,0000*7E
$GPGSA,A,3,02,57,29,25,12,06,09,20,23,,,,1.6,1.0,1.3*35
$GPRMC,055957.000,A,5406.9964,N,08321.6540,E,62.57,307.26,041016,,,A*5B
$GPGGA,055958.000,5407.0072,N,08321.6297,E,1,09,1.0,385.1,M,-38.1,M,,0000*79
$GPGSA,A,3,02,57,29,25,12,06,09,20,23,,,,1.6,1.0,1.3*35
$GPRMC,055958.000,A,5407.0072,N,08321.6297,E,63.63,307.23,041016,,,A*5C
$GPGGA,055959.000,5407.0181,N,08321.6055,E,1,09,1.0,385.8,M,-38.1,M,,0000*70
$GPGSA,A,3,02,57,29,25,12,06,09,20,23,,,,1.6,1.0,1.3*35
$GPGSV,3,1,12,02,62,082,28,57,48,092,23,29,47,296,17,25,43,248,17*71
$GPGSV,3,2,12,12,28,203,22,06,22,078,26,09,18,043,33,20,12,208,17*74
$GPGSV,3,3,12,23,05,016,31,05,56,166,14,26,01,337,25,31,07,306,10*7D
$GPRMC,055959.000,A,5407.0181,N,08321.6055,E,64.44,307.84,041016,,,A*53
$GPGGA,060000.000,5407.0291,N,08321.5812,E,1,09,1.0,385.8,M,-38.1,M,,0000*79
$GPGSA,A,3,02,57,29,25,12,06,09,20,23,,,,1.6,1.0,1.3*35
$GPRMC,060000.000,A,5407.0291,N,08321.5812,E,64.91,308.41,041016,,,A*54
$GPGGA,060001.000,5407.0401,N,08321.5574,E,1,09,1.0,385.7,M,-38.1,M,,0000*75
$GPGSA,A,3,02,57,29,25,12,06,09,20,23,,,,1.6,1.0,1.3*35
$GPRMC,060001.000,A,5407.0401,N,08321.5574,E,64.84,308.51,041016,,,A*52
$GPGGA,060002.000,5407.0513,N,08321.5334,E,1,09,1.0,385.4,M,-38.1,M,,0000*75
$GPGSA,A,3,02,57,29,25,12,06,09,20,23,,,,1.6,1.0,1.3*35
$GPRMC,060002.000,A,5407.0513,N,08321.5334,E,65.02,308.60,041016,,,A*5C
$GPGGA,060003.000,5407.0626,N,08321.5093,E,1,09,1.0,385.6,M,-38.1,M,,0000*7D
$GPGSA,A,3,02,57,29,25,12,06,09,20,23,,,,1.6,1.0,1.3*35
$GPRMC,060003.000,A,5407.0626,N,08321.5093,E,64.85,309.21,041016,,,A*5C
$GPGGA,060004.000,5407.0743,N,08321.4853,E,1,09,1.0,386.1,M,-38.1,M,,0000*79
$GPGSA,A,3,02,57,29,25,12,06,09,20,23,,,,1.6,1.0,1.3*35
$GPGSV,3,1,12,02,62,082,27,57,48,092,23,29,47,296,17,25,43,248,18*71
$GPGSV,3,2,12,12,28,203,22,06,22,078,26,09,18,043,34,20,12,208,18*7C
$GPGSV,3,3,12,23,05,016,31,05,56,166,18,26,01,337,21,31,07,306,10*75
$GPRMC,060004.000,A,5407.0743,N,08321.4853,E,64.43,310.07,041016,,,A*5A
$GPGGA,060005.000,5407.0858,N,08321.4616,E,1,09,1.0,386.2,M,-38.1,M,,0000*71
$GPGSA,A,3,02,57,29,25,12,06,09,20,23,,,,1.6,1.0,1.3*35
$GPRMC,060005.000,A,5407.0858,N,08321.4616,E,64.05,310.34,041016,,,A*53
$GPGGA,060006.000,5407.0973,N,08321.4382,E,1,09,1.0,386.3,M,-38.1,M,,0000*73
$GPGSA,A,3,02,57,29,25,12,06,09,20,23,,,,1.6,1.0,1.3*35
$GPRMC,060006.000,A,5407.0973,N,08321.4382,E,64.29,310.46,041016,,,A*5B
$GPGGA,060007.000,5407.1090,N,08321.4152,E,1,09,1.0,386.2,M,-38.1,M,,0000*79
$GPGSA,A,3,02,57,29,25,12,06,09,20,23,,,,1.6,1.0,1.3*35
$GPRMC,060007.000,A,5407.1090,N,08321.4152,E,64.04,311.22,041016,,,A*5C
$GPGGA,060008.000,5407.1207,N,08321.3926,E,1,09,1.0,386.0,M,-38.1,M,,0000*74
$GPGSA,A,3,02,57,29,25,12,06,09,20,23,,,,1.6,1.0,1.3*35
$GPRMC,060008.000,A,5407.1207,N,08321.3926,E,63.99,311.48,041016,,,A*5C
$GPGGA,060009.000,5407.1324,N,08321.3703,E,1,09,1.0,385.6,M,-38.1,M,,0000*79
$GPGSA,A,3,02,57,29,25,12,06,09,20,23,,,,1.6,1.0,1.3*35
$GPGSV,3,1,12,02,62,082,27,57,48,092,24,29,47,296,17,25,43,248,18*76
$GPGSV,3,2,12,12,28,203,10,06,22,078,26,09,18,043,34,20,12,208,18*7D
$GPGSV,3,3,12,23,05,016,31,21,00,260,23,26,01,337,23,31,07,306,10*7F
$GPRMC,060009.000,A,5407.1324,N,08321.3703,E,63.62,311.78,041016,,,A*53
$GPGGA,060010.000,5407.1443,N,08321.3481,E,1,09,1.0,385.7,M,-38.1,M,,0000*7F
$GPGSA,A,3,02,57,29,25,12,06,09,20,23,,,,1.6,1.0,1.3*35
$GPRMC,060010.000,A,5407.1443,N,08321.3481,E,63.56,312.36,041016,,,A*5A
$GPGGA,060011.000,5407.1563,N,08321.3260,E,1,09,1.0,385.5,M,-38.1,M,,0000*76
$GPGSA,A,3,02,57,29,25,12,06,09,20,23,,,,1.6,1.0,1.3*35
$GPRMC,060011.000,A,5407.1563,N,08321.3260,E,63.63,312.82,041016,,,A*58
$GPGGA,060012.000,5407.1683,N,08321.3039,E,1,08,1.1,385.5,M,-38.1,M,,0000*76
$GPGSA,A,3,02,57,29,25,12,06,09,23,,,,,2.0,1.1,1.7*37
$GPRMC,060012.000,A,5407.1683,N,08321.3039,E,63.30,313.16,041016,,,A*52
$GPGGA,060013.000,5407.1804,N,08321.2821,E,1,08,1.1,385.3,M,-38.1,M,,0000*70
$GPGSA,A,3,02,57,29,25,12,06,09,23,,,,,2.0,1.1,1.7*37
$GPRMC,060013.000,A,5407.1804,N,08321.2821,E,63.27,312.92,041016,,,A*59
$GPGGA,060014.000,5407.1924,N,08321.2602,E,1,08,1.1,385.2,M,-38.1,M,,0000*7A
$GPGSA,A,3,02,57,29,25,12,06,09,23,,,,,2.0,1.1,1.7*37
$GPGSV,3,1,12,02,62,082,28,57,48,092,24,29,47,296,17,25,43,248,17*76
$GPGSV,3,2,12,12,28,203,19,06,22,078,27,09,18,043,33,23,05,016,32*72
$GPGSV,3,3,12,21,00,260,16,26,01,337,21,31,07,306,10,05,56,166,*7D
$GPRMC,060014.000,A,5407.1924,N,08321.2602,E,63.43,313.15,041016,,,A*5E
$GPGGA,060015.000,5407.2044,N,08321.2382,E,1,08,1.1,385.4,M,-38.1,M,,0000*7C
$GPGSA,A,3,02,57,29,25,12,06,09,23,,,,,2.0,1.1,1.7*37
$GPRMC,060015.000,A,5407.2044,N,08321.2382,E,63.48,312.52,041016,,,A*57
$GPGGA,060016.000,5407.2161,N,08321.2159,E,1,08,1.1,385.1,M,-38.1,M,,0000*78
$GPGSA,A,3,02,57,29,25,12,06,09,23,,,,,2.0,1.1,1.7*37
$GPRMC,060016.000,A,5407.2161,N,08321.2159,E,63.57,311.50,041016,,,A*59
$GPGGA,060017.000,5407.2276,N,08321.1931,E,1,08,1.1,384.8,M,-38.1,M,,0000*71
$GPGSA,A,3,02,57,29,25,12,06,09,23,,,,,2.0,1.1,1.7*37
$GPRMC,060017.000,A,5407.2276,N,08321.1931,E,64.65,311.03,041016,,,A*58
$GPGGA,060018.000,5407.2386,N,08321.1699,E,1,08,1.1,383.1,M,-38.1,M,,0000*73
$GPGSA,A,3,02,57,29,25,12,06,09,23,,,,,2.0,1.1,1.7*37
$GPRMC,060018.000,A,5407.2386,N,08321.1699,E,64.41,310.35,041016,,,A*56
$GPGGA,060019.000,5407.2501,N,08321.1466,E,1,08,1.1,382.7,M,-38.1,M,,0000*7E
$GPGSA,A,3,02,57,29,25,12,06,09,23,,,,,2.0,1.1,1.7*37
$GPGSV,3,1,12,02,62,082,28,57,48,092,24,29,47,296,19,25,43,248,18*77
$GPGSV,3,2,12,12,28,203,23,06,22,078,28,09,18,043,33,23,05,016,32*74
$GPGSV,3,3,12,21,00,260,15,26,01,337,22,31,07,306,10,05,56,166,*7D
$GPRMC,060019.000,A,5407.2501,N,08321.1466,E,64.18,309.85,041016,,,A*53
$GPGGA,060020.000,5407.2617,N,08321.1228,E,1,08,1.1,383.1,M,-38.1,M,,0000*7B
$GPGSA,A,3,02,57,29,25,12,06,09,23,,,,,2.0,1.1,1.7*37
$GPRMC,060020.000,A,5407.2617,N,08321.1228,E,63.96,309.36,041016,,,A*58
$GPGGA,060021.000,5407.2731,N,08321.0989,E,1,08,1.1,383.5,M,-38.1,M,,0000*7A
$GPGSA,A,3,02,57,29,25,12,06,09,23,,,,,2.0,1.1,1.7*37
$GPRMC,060021.000,A,5407.2731,N,08321.0989,E,63.92,308.52,041016,,,A*5A
$GPGGA,060022.000,5407.2840,N,08321.0747,E,1,08,1.1,383.6,M,-38.1,M,,0000*7F
$GPGSA,A,3,02,57,29,25,12,06,09,23,,,,,2.0,1.1,1.7*37
$GPRMC,060022.000,A,5407.2840,N,08321.0747,E,63.61,308.08,041016,,,A*5F
$GPGGA,060023.000,5407.2949,N,08321.0514,E,1,08,1.1,383.4,M,-38.1,M,,0000*70
$GPGSA,A,3,02,57,29,25,12,06,09,23,,,,,2.0,1.1,1.7*37
$GPRMC,060023.000,A,5407.2949,N,08321.0514,E,63.21,308.05,041016,,,A*5B
$GPGGA,060024.000,5407.3058,N,08321.0276,E,1,08,1.1,383.3,M,-38.1,M,,0000*7B
$GPGSA,A,3,02,57,29,25,12,06,09,23,,,,,2.0,1.1,1.7*37
$GPGSV,3,1,12,02,62,082,28,57,48,092,24,29,47,296,18,25,43,248,19*77
$GPGSV,3,2,12,12,28,203,22,06,22,078,26,09,18,043,33,23,05,016,29*71
$GPGSV,3,3,12,05,56,166,13,21,00,260,13,26,01,337,24,31,07,306,10*7F
$GPRMC,060024.000,A,5407.3058,N,08321.0276,E,63.63,307.84,041016,,,A*57
$GPGGA,060025.000,5407.3168,N,08321.0034,E,1,08,1.1,383.3,M,-38.1,M,,0000*7C
$GPGSA,A,3,02,57,29,25,12,06,09,23,,,,,2.0,1.1,1.7*37
$GPRMC,060025.000,A,5407.3168,N,08321.0034,E,63.89,308.15,041016,,,A*53
$GPGGA,060026.000,5407.3281,N,08320.9799,E,1,08,1.1,383.6,M,-38.1,M,,0000*76
$GPGSA,A,3,02,57,29,25,12,06,09,23,,,,,2.0,1.1,1.7*37
$GPRMC,060026.000,A,5407.3281,N,08320.9799,E,63.49,309.23,041016,,,A*54
$GPGGA,060027.000,5407.3396,N,08320.9566,E,1,08,1.1,384.4,M,-38.1,M,,0000*77
$GPGSA,A,3,02,57,29,25,12,06,09,23,,,,,2.0,1.1,1.7*37
$GPRMC,060027.000,A,5407.3396,N,08320.9566,E,63.28,309.21,041016,,,A*55
$GPGGA,060028.000,5407.3508,N,08320.9335,E,1,08,1.1,384.8,M,-38.1,M,,0000*75
$GPGSA,A,3,02,57,29,25,12,06,09,23,,,,,2.0,1.1,1.7*37
$GPRMC,060028.000,A,5407.3508,N,08320.9335,E,62.76,309.13,041016,,,A*50
$GPGGA,060029.000,5407.3617,N,08320.9103,E,1,08,1.1,384.9,M,-38.1,M,,0000*7F
$GPGSA,A,3,02,57,29,25,12,06,09,23,,,,,2.0,1.1,1.7*37
$GPGSV,3,1,12,02,62,082,28,57,48,092,24,29,47,296,18,25,43,248,16*78
$GPGSV,3,2,12,12,28,203,21,06,22,078,26,09,18,043,33,23,05,016,32*78
$GPGSV,3,3,12,05,56,166,17,26,01,337,28,31,07,306,10,20,12,208,*79
$GPRMC,060029.000,A,5407.3617,N,08320.9103,E,62.53,308.80,041016,,,A*57
$GPGGA,060030.000,5407.3721,N,08320.8870,E,1,08,1.1,384.2,M,-38.1,M,,0000*74
$GPGSA,A,3,02,57,29,25,12,06,09,23,,,,,2.0,1.1,1.7*37
$GPRMC,060030.000,A,5407.3721,N,08320.8870,E,62.27,307.86,041016,,,A*5D
$GPGGA,060031.000,5407.3828,N,08320.8638,E,1,08,1.1,384.7,M,-38.1,M,,0000*74
$GPGSA,A,3,02,57,29,25,12,06,09,23,,,,,2.0,1.1,1.7*37
$GPRMC,060031.000,A,5407.3828,N,08320.8638,E,61.57,308.13,041016,,,A*5F
$GPGGA,060032.000,5407.3934,N,08320.8408,E,1,08,1.1,384.9,M,-38.1,M,,0000*74
$GPGSA,A,3,02,57,29,25,12,06,09,23,,,,,2.0,1.1,1.7*37
$GPRMC,060032.000,A,5407.3934,N,08320.8408,E,61.33,308.08,041016,,,A*59
$GPGGA,060033.000,5407.4039,N,08320.8179,E,1,08,1.1,385.1,M,-38.1,M,,0000*7C
$GPGSA,A,3,02,57,29,25,12,06,09,23,,,,,2.0,1.1,1.7*37
$GPRMC,060033.000,A,5407.4039,N,08320.8179,E,61.25,307.62,041016,,,A*5C
$GPGGA,060034.000,5407.4145,N,08320.7950,E,1,08,1.1,385.8,M,-38.1,M,,0000*74
$GPGSA,A,3,02,57,29,25,12,06,09,23,,,,,2.0,1.1,1.7*37
$GPGSV,3,1,12,02,62,082,28,57,48,092,25,29,47,296,18,25,43,248,16*79
$GPGSV,3,2,12,12,28,203,20,06,22,078,27,09,18,043,33,23,05,016,32*78
$GPGSV,3,3,12,26,01,337,20,31,07,306,10,05,57,166,,20,13,208,*77
$GPRMC,060034.000,A,5407.4145,N,08320.7950,E,61.21,307.67,041016,,,A*5C
$GPGGA,060035.000,5407.4250,N,08320.7722,E,1,08,1.1,386.2,M,-38.1,M,,0000*70
$GPGSA,A,3,02,57,29,25,12,06,09,23,,,,,2.0,1.1,1.7*37
$GPRMC,060035.000,A,5407.4250,N,08320.7722,E,61.17,307.69,041016,,,A*5A
$GPGGA,060036.000,5407.4350,N,08320.7497,E,1,08,1.1,385.7,M,-38.1,M,,0000*79
$GPGSA,A,3,02,57,29,25,12,06,09,23,,,,,2.0,1.1,1.7*37
$GPRMC,060036.000,A,5407.4350,N,08320.7497,E,60.22,307.74,041016,,,A*5E
$GPGGA,060037.000,5407.4450,N,08320.7272,E,1,08,1.1,385.4,M,-38.1,M,,0000*71
$GPGSA,A,3,02,57,29,25,12,06,09,23,,,,,2.0,1.1,1.7*37
$GPRMC,060037.000,A,5407.4450,N,08320.7272,E,59.97,307.38,041016,,,A*59
$GPGGA,060038.000,5407.4549,N,08320.7045,E,1,08,1.1,384.7,M,-38.1,M,,0000*73
$GPGSA,A,3,02,57,29,25,12,06,09,23,,,,,2.0,1.1,1.7*37
$GPRMC,060038.000,A,5407.4549,N,08320.7045,E,59.98,307.67,041016,,,A*5C
$GPGGA,060039.000,5407.4650,N,08320.6818,E,1,08,1.1,384.6,M,-38.1,M,,0000*79
$GPGSA,A,3,02,57,29,25,12,06,09,23,,,,,2.0,1.1,1.7*37
$GPGSV,3,1,12,02,62,082,29,57,48,092,25,29,47,296,17,25,43,248,15*74
$GPGSV,3,2,12,12,28,203,21,06,22,078,27,09,18,043,33,23,05,016,38*73
$GPGSV,3,3,12,20,13,208,19,26,01,337,25,31,07,306,10,05,57,166,*7A
$GPRMC,060039.000,A,5407.4650,N,08320.6818,E,59.70,307.57,041016,,,A*52
$GPGGA,060040.000,5407.4750,N,08320.6590,E,1,08,1.1,384.5,M,-38.1,M,,0000*78
$GPGSA,A,3,02,57,29,25,12,06,09,23,,,,,2.0,1.1,1.7*37
$GPRMC,060040.000,A,5407.4750,N,08320.6590,E,60.30,306.69,041016,,,A*52
$GPGGA,060041.000,5407.4846,N,08320.6360,E,1,08,1.1,384.4,M,-38.1,M,,0000*79
$GPGSA,A,3,02,57,29,25,12,06,09,23,,,,,2.0,1.1,1.7*37
$GPRMC,060041.000,A,5407.4846,N,08320.6360,E,58.86,305.06,041016,,,A*5E
$GPGGA,060042.000,5407.4938,N,08320.6125,E,1,08,1.1,385.0,M,-38.1,M,,0000*74
$GPGSA,A,3,02,57,29,25,12,06,09,23,,,,,2.0,1.1,1.7*37
$GPRMC,060042.000,A,5407.4938,N,08320.6125,E,59.48,303.01,041016,,,A*54
$GPGGA,060043.000,5407.5031,N,08320.5881,E,1,08,1.1,387.2,M,-38.1,M,,0000*70
$GPGSA,A,3,02,57,29,25,12,06,09,23,,,,,2.0,1.1,1.7*37
$GPRMC,060043.000,A,5407.5031,N,08320.5881,E,59.66,300.73,041016,,,A*5A
$GPGGA,060044.000,5407.5114,N,08320.5631,E,1,08,1.1,388.3,M,-38.1,M,,0000*7A
$GPGSA,A,3,02,57,29,25,12,06,09,23,,,,,2.0,1.1,1.7*37
$GPGSV,3,1,12,02,62,082,27,57,48,092,21,29,47,296,23,25,43,248,19*75
$GPGSV,3,2,12,12,28,203,20,06,22,078,26,09,18,043,31,23,05,016,29*71
$GPGSV,3,3,12,26,01,337,25,31,07,306,19,05,57,166,,20,13,208,*7B
$GPRMC,060044.000,A,5407.5114,N,08320.5631,E,59.39,298.74,041016,,,A*53
$GPGGA,060045.000,5407.5197,N,08320.5375,E,1,09,1.0,390.0,M,-38.1,M,,0000*7F
$GPGSA,A,3,02,57,29,25,12,06,09,31,23,,,,1.8,1.0,1.5*3D
$GPRMC,060045.000,A,5407.5197,N,08320.5375,E,60.03,297.41,041016,,,A*56
$GPGGA,060046.000,5407.5274,N,08320.5117,E,1,09,1.0,391.2,M,-38.1,M,,0000*77
$GPGSA,A,3,02,57,29,25,12,06,09,31,23,,,,1.8,1.0,1.5*3D
$GPRMC,060046.000,A,5407.5274,N,08320.5117,E,59.57,295.66,041016,,,A*51
$GPGGA,060047.000,5407.5346,N,08320.4862,E,1,09,1.0,391.8,M,-38.1,M,,0000*76
$GPGSA,A,3,02,57,29,25,12,06,09,31,23,,,,1.8,1.0,1.5*3D
$GPRMC,060047.000,A,5407.5346,N,08320.4862,E,59.46,293.63,041016,,,A*59
$GPGGA,060048.000,5407.5413,N,08320.4597,E,1,09,1.0,393.0,M,-38.1,M,,0000*73
$GPGSA,A,3,02,57,29,25,12,06,09,31,23,,,,1.8,1.0,1.5*3D
$GPRMC,060048.000,A,5407.5413,N,08320.4597,E,59.25,291.57,041016,,,A*56
$GPGGA,060049.000,5407.5473,N,08320.4328,E,1,09,1.0,394.2,M,-38.1,M,,0000*73
$GPGSA,A,3,02,57,29,25,12,06,09,31,23,,,,1.8,1.0,1.5*3D
$GPGSV,3,1,12,02,62,082,29,57,48,092,20,29,47,296,29,25,43,248,18*71
$GPGSV,3,2,12,12,28,203,20,06,22,078,09,09,18,043,31,31,07,306,25*73
$GPGSV,3,3,12,23,05,016,31,05,57,166,16,26,01,337,27,20,13,208,*77
$GPRMC,060049.000,A,5407.5473,N,08320.4328,E,58.90,289.12,041016,,,A*54
$GPGGA,060050.000,5407.5523,N,08320.4061,E,1,08,1.1,394.7,M,-38.1,M,,0000*74
$GPGSA,A,3,02,57,29,25,12,09,31,23,,,,,1.9,1.1,1.6*38
$GPRMC,060050.000,A,5407.5523,N,08320.4061,E,58.81,286.97,041016,,,A*54
$GPGGA,060051.000,5407.5566,N,08320.3793,E,1,10,1.0,395.1,M,-38.1,M,,0000*76
$GPGSA,A,3,02,05,57,29,25,12,06,09,31,23,,,1.8,1.0,1.5*38
$GPRMC,060051.000,A,5407.5566,N,08320.3793,E,58.53,284.58,041016,,,A*57
$GPGGA,060052.000,5407.5600,N,08320.3522,E,1,10,1.0,395.0,M,-38.1,M,,0000*7F
$GPGSA,A,3,02,05,57,29,25,12,06,09,31,23,,,1.8,1.0,1.5*38
$GPRMC,060052.000,A,5407.5600,N,08320.3522,E,58.33,281.67,041016,,,A*50
$GPGGA,060053.000,5407.5628,N,08320.3247,E,1,09,1.0,395.4,M,-38.1,M,,0000*7C
$GPGSA,A,3,02,57,29,25,12,06,09,31,23,,,,1.8,1.0,1.5*3D
$GPRMC,060053.000,A,5407.5628,N,08320.3247,E,57.82,278.85,041016,,,A*50
$GPGGA,060054.000,5407.5643,N,08320.2973,E,1,10,1.0,395.3,M,-38.1,M,,0000*74
$GPGSA,A,3,02,05,57,29,25,12,06,09,31,23,,,1.8,1.0,1.5*38
$GPGSV,3,1,12,02,62,082,29,05,57,166,11,57,48,092,21,29,47,296,35*7C
$GPGSV,3,2,12,25,43,248,17,12,28,203,19,06,22,078,23,09,18,043,30*7F
$GPGSV,3,3,12,31,07,306,33,23,05,016,31,26,01,337,27,20,13,208,*76
$GPRMC,060054.000,A,5407.5643,N,08320.2973,E,57.31,274.51,041016,,,A*5A
$GPGGA,060055.000,5407.5649,N,08320.2700,E,1,10,1.0,395.5,M,-38.1,M,,0000*73
$GPGSA,A,3,02,05,57,29,25,12,06,09,31,23,,,1.8,1.0,1.5*38
$GPRMC,060055.000,A,5407.5649,N,08320.2700,E,57.41,271.33,041016,,,A*5D
$GPGGA,060056.000,5407.5651,N,08320.2427,E,1,10,1.0,396.0,M,-38.1,M,,0000*79
$GPGSA,A,3,02,05,57,29,25,12,06,09,31,23,,,1.8,1.0,1.5*38
$GPRMC,060056.000,A,5407.5651,N,08320.2427,E,57.44,270.23,041016,,,A*54
$GPGGA,060057.000,5407.5653,N,08320.2154,E,1,08,1.7,397.0,M,-38.1,M,,0000*74
$GPGSA,A,3,02,57,29,25,06,09,31,23,,,,,2.8,1.7,2.2*3E
$GPRMC,060057.000,A,5407.5653,N,08320.2154,E,57.77,270.15,041016,,,A*53
$GPGGA,060058.000,5407.5655,N,08320.1880,E,1,09,1.5,397.9,M,-38.1,M,,0000*74
$GPGSA,A,3,02,05,57,29,25,06,09,31,23,,,,2.6,1.5,2.1*34
$GPRMC,060058.000,A,5407.5655,N,08320.1880,E,58.16,270.89,041016,,,A*54
$GPGGA,060059.000,5407.5659,N,08320.1604,E,1,09,1.5,398.8,M,-38.1,M,,0000*75
$GPGSA,A,3,02,05,57,29,25,06,09,31,23,,,,2.6,1.5,2.1*34
$GPGSV,3,1,12,02,62,082,23,05,57,166,17,57,48,092,20,29,47,296,33*77
$GPGSV,3,2,12,25,43,248,17,06,22,078,19,09,18,043,25,31,07,306,33*72
$GPGSV,3,3,12,23,05,016,30,21,00,260,14,26,01,337,27,12,28,203,*77
$GPRMC,060059.000,A,5407.5659,N,08320.1604,E,58.57,271.93,041016,,,A*54
$GPGGA,060100.000,5407.5667,N,08320.1327,E,1,09,1.5,399.6,M,-38.1,M,,0000*7E
$GPGSA,A,3,02,05,57,29,25,06,09,31,23,,,,2.6,1.5,2.1*34
$GPRMC,060100.000,A,5407.5667,N,08320.1327,E,58.69,273.31,041016,,,A*57
$GPGGA,060101.000,5407.5680,N,08320.1052,E,1,09,1.5,400.3,M,-38.1,M,,0000*75
$GPGSA,A,3,02,05,57,29,25,06,09,31,23,,,,2.6,1.5,2.1*34
$GPRMC,060101.000,A,5407.5680,N,08320.1052,E,58.28,275.40,041016,,,A*5B
$GPGGA,060102.000,5407.5700,N,08320.0779,E,1,09,1.5,401.0,M,-38.1,M,,0000*72
$GPGSA,A,3,02,05,57,29,25,06,09,31,23,,,,2.6,1.5,2.1*34
$GPRMC,060102.000,A,5407.5700,N,08320.0779,E,58.25,277.60,041016,,,A*53
$GPGGA,060103.000,5407.5730,N,08320.0510,E,1,09,1.5,401.9,M,-38.1,M,,0000*74
$GPGSA,A,3,02,05,57,29,25,06,09,31,23,,,,2.6,1.5,2.1*34
$GPRMC,060103.000,A,5407.5730,N,08320.0510,E,57.51,279.55,041016,,,A*58
$GPGGA,060104.000,5407.5765,N,08320.0250,E,1,09,1.5,402.7,M,-38.1,M,,0000*7D
$GPGSA,A,3,02,05,57,29,25,06,09,31,23,,,,2.6,1.5,2.1*34
$GPGSV,3,1,12,02,62,082,24,05,57,166,12,57,48,092,21,29,48,296,27*7E
$GPGSV,3,2,12,25,43,248,17,06,22,078,23,09,18,043,26,31,07,306,26*7C
$GPGSV,3,3,12,23,05,016,30,21,01,260,11,26,01,337,28,12,27,203,*73
$GPRMC,060104.000,A,5407.5765,N,08320.0250,E,56.01,281.73,041016,,,A*5B
$GPGGA,060105.000,5407.5807,N,08319.9999,E,1,10,1.0,402.9,M,-38.1,M,,0000*79
$GPGSA,A,3,02,05,57,29,25,12,06,09,31,23,,,1.8,1.0,1.5*38
$GPRMC,060105.000,A,5407.5807,N,08319.9999,E,54.91,284.12,041016,,,A*55
$GPGGA,060106.000,5407.5861,N,08319.9750,E,1,09,1.5,403.2,M,-38.1,M,,0000*76
$GPGSA,A,3,02,05,57,29,25,06,09,31,23,,,,2.6,1.5,2.1*34
$GPRMC,060106.000,A,5407.5861,N,08319.9750,E,55.67,287.44,041016,,,A*55
$GPGGA,060107.000,5407.5938,N,08319.9514,E,1,10,1.0,403.3,M,-38.1,M,,0000*74
$GPGSA,A,3,02,05,57,29,25,12,06,09,31,23,,,1.8,1.0,1.5*38
$GPRMC,060107.000,A,5407.5938,N,08319.9514,E,55.67,293.39,041016,,,A*54
$GPGGA,060108.000,5407.6028,N,08319.9301,E,1,10,1.0,402.6,M,-38.1,M,,0000*76
$GPGSA,A,3,02,05,57,29,25,12,06,09,31,23,,,1.8,1.0,1.5*38
$GPRMC,060108.000,A,5407.6028,N,08319.9301,E,54.27,300.12,041016,,,A*55
$GPGGA,060109.000,5407.6122,N,08319.9101,E,1,10,1.0,401.2,M,-38.1,M,,0000*79
$GPGSA,A,3,02,05,57,29,25,12,06,09,31,23,,,1.8,1.0,1.5*38
$GPGSV,3,1,12,02,62,082,24,05,57,166,15,57,48,092,25,29,48,296,19*70
$GPGSV,3,2,12,25,43,248,17,12,27,203,20,06,22,078,26,09,18,043,32*7D
$GPGSV,3,3,12,31,07,306,19,23,05,016,31,26,01,337,27,20,13,208,*7E
$GPRMC,060109.000,A,5407.6122,N,08319.9101,E,54.05,304.47,041016,,,A*59
$GPGGA,060110.000,5407.6217,N,08319.8907,E,1,10,1.0,400.3,M,-38.1,M,,0000*7B
$GPGSA,A,3,02,05,57,29,25,12,06,09,31,23,,,1.8,1.0,1.5*38
$GPRMC,060110.000,A,5407.6217,N,08319.8907,E,53.29,307.53,041016,,,A*54
$GPGGA,060111.000,5407.6314,N,08319.8720,E,1,10,1.0,400.0,M,-38.1,M,,0000*70
$GPGSA,A,3,02,05,57,29,25,12,06,09,31,23,,,1.8,1.0,1.5*38
$GPRMC,060111.000,A,5407.6314,N,08319.8720,E,52.37,310.22,041016,,,A*52
$GPGGA,060112.000,5407.6413,N,08319.8540,E,1,09,1.0,399.1,M,-38.1,M,,0000*79
$GPGSA,A,3,02,57,29,25,12,06,09,31,23,,,,1.8,1.0,1.5*3D
$GPRMC,060112.000,A,5407.6413,N,08319.8540,E,51.38,312.39,041016,,,A*51
$GPGGA,060113.000,5407.6513,N,08319.8371,E,1,10,1.0,398.9,M,-38.1,M,,0000*7C
$GPGSA,A,3,02,05,57,29,25,12,06,09,31,23,,,1.8,1.0,1.5*38
$GPRMC,060113.000,A,5407.6513,N,08319.8371,E,50.01,315.20,041016,,,A*51
$GPGGA,060114.000,5407.6618,N,08319.8214,E,1,10,1.0,399.1,M,-38.1,M,,0000*78
$GPGSA,A,3,02,05,57,29,25,12,06,09,31,23,,,1.8,1.0,1.5*38
$GPGSV,3,1,12,02,62,082,26,05,57,166,11,57,48,092,27,29,48,296,18*75
$GPGSV,3,2,12,25,43,248,17,12,27,203,20,06,22,078,29,09,18,043,33*73
$GPGSV,3,3,12,31,07,306,19,23,05,016,31,20,13,208,17,26,01,337,22*7D
$GPRMC,060114.000,A,5407.6618,N,08319.8214,E,49.69,318.71,041016,,,A*53
$GPGGA,060115.000,5407.6727,N,08319.8071,E,1,10,1.0,399.0,M,-38.1,M,,0000*74
$GPGSA,A,3,02,05,57,29,25,12,06,09,31,23,,,1.8,1.0,1.5*38
$GPRMC,060115.000,A,5407.6727,N,08319.8071,E,49.14,322.81,041016,,,A*52
$GPGGA,060116.000,5407.6840,N,08319.7941,E,1,10,1.0,398.7,M,-38.1,M,,0000*7A
$GPGSA,A,3,02,05,57,29,25,12,06,09,31,23,,,1.8,1.0,1.5*38
$GPRMC,060116.000,A,5407.6840,N,08319.7941,E,48.86,325.33,041016,,,A*5E
$GPGGA,060117.000,5407.6955,N,08319.7822,E,1,10,1.0,398.1,M,-38.1,M,,0000*7C
$GPGSA,A,3,02,05,57,29,25,12,06,09,31,23,,,1.8,1.0,1.5*38
$GPRMC,060117.000,A,5407.6955,N,08319.7822,E,48.68,328.66,041016,,,A*53
$GPGGA,060118.000,5407.7077,N,08319.7718,E,1,10,1.0,398.3,M,-38.1,M,,0000*7F
$GPGSA,A,3,02,05,57,29,25,12,06,09,31,23,,,1.8,1.0,1.5*38
$GPRMC,060118.000,A,5407.7077,N,08319.7718,E,48.35,331.89,041016,,,A*53
$GPGGA,060119.000,5407.7203,N,08319.7632,E,1,10,1.0,398.4,M,-38.1,M,,0000*71
$GPGSA,A,3,02,05,57,29,25,12,06,09,31,23,,,1.8,1.0,1.5*38
$GPGSV,3,1,12,02,62,082,27,05,57,166,21,57,48,092,28,29,48,296,19*79
$GPGSV,3,2,12,25,43,248,17,12,27,203,20,06,22,078,34,09,18,043,34*78
$GPGSV,3,3,12,31,07,306,18,23,05,016,31,21,01,260,16,26,01,337,16*76
$GPRMC,060119.000,A,5407.7203,N,08319.7632,E,47.77,337.17,041016,,,A*52
$GPGGA,060120.000,5407.7334,N,08319.7566,E,1,10,1.0,399.1,M,-38.1,M,,0000*78
$GPGSA,A,3,02,05,57,29,25,12,06,09,31,23,,,1.8,1.0,1.5*38
$GPRMC,060120.000,A,5407.7334,N,08319.7566,E,48.34,341.62,041016,,,A*54
$GPGGA,060121.000,5407.7466,N,08319.7521,E,1,10,1.0,399.3,M,-38.1,M,,0000*78
$GPGSA,A,3,02,05,57,29,25,12,06,09,31,23,,,1.8,1.0,1.5*38
$GPRMC,060121.000,A,5407.7466,N,08319.7521,E,47.87,346.60,041016,,,A*54
$GPGGA,060122.000,5407.7600,N,08319.7488,E,1,10,1.0,399.8,M,-38.1,M,,0000*70
$GPGSA,A,3,02,05,57,29,25,12,06,09,31,23,,,1.8,1.0,1.5*38
$GPRMC,060122.000,A,5407.7600,N,08319.7488,E,47.77,350.72,041016,,,A*5C
$GPGGA,060123.000,5407.7729,N,08319.7470,E,1,10,1.0,398.7,M,-38.1,M,,0000*72
$GPGSA,A,3,02,05,57,29,25,12,06,09,31,23,,,1.8,1.0,1.5*38
$GPRMC,060123.000,A,5407.7729,N,08319.7470,E,47.42,353.67,041016,,,A*51
$GPGGA,060124.000,5407.7857,N,08319.7460,E,1,08,1.5,397.8,M,-38.1,M,,0000*7E
$GPGSA,A,3,02,05,57,29,25,06,09,23,,,,,2.8,1.5,2.4*3D
$GPGSV,3,1,12,02,62,082,29,05,57,166,24,57,48,092,29,29,48,296,19*73
$GPGSV,3,2,12,25,43,248,18,06,22,078,35,09,18,043,32,23,05,016,24*70
$GPGSV,3,3,12,12,27,203,04,26,01,337,14,31,07,306,06,20,13,208,*72
$GPRMC,060124.000,A,5407.7857,N,08319.7460,E,47.06,357.91,041016,,,A*5C
$GPGGA,060125.000,5407.7985,N,08319.7465,E,1,08,1.5,397.2,M,-38.1,M,,0000*7E
$GPGSA,A,3,02,05,57,29,25,06,09,31,,,,,2.6,1.5,2.1*35
$GPRMC,060125.000,A,5407.7985,N,08319.7465,E,46.87,1.79,041016,,,A*58
$GPGGA,060126.000,5407.8117,N,08319.7493,E,1,10,1.0,397.4,M,-38.1,M,,0000*72
$GPGSA,A,3,02,05,57,29,25,12,06,09,31,23,,,1.8,1.0,1.5*38
$GPRMC,060126.000,A,5407.8117,N,08319.7493,E,47.33,5.76,041016,,,A*5B
$GPGGA,060127.000,5407.8248,N,08319.7534,E,1,10,1.0,397.4,M,-38.1,M,,0000*76
$GPGSA,A,3,02,05,57,29,25,12,06,09,31,23,,,1.8,1.0,1.5*38
$GPRMC,060127.000,A,5407.8248,N,08319.7534,E,47.45,9.94,041016,,,A*5E
$GPGGA,060128.000,5407.8377,N,08319.7590,E,1,10,1.0,397.4,M,-38.1,M,,0000*7A
$GPGSA,A,3,02,05,57,29,25,12,06,09,31,23,,,1.8,1.0,1.5*38
$GPRMC,060128.000,A,5407.8377,N,08319.7590,E,47.80,13.41,041016,,,A*68
$GPGGA,060129.000,5407.8505,N,08319.7661,E,1,10,1.0,397.4,M,-38.1,M,,0000*75
$GPGSA,A,3,02,05,57,29,25,12,06,09,31,23,,,1.8,1.0,1.5*38
$GPGSV,3,1,12,02,62,082,30,05,57,166,26,57,48,092,30,29,48,296,19*71
$GPGSV,3,2,12,25,43,248,17,12,27,203,16,06,22,078,35,09,18,043,30*78
$GPGSV,3,3,12,31,07,306,19,23,05,016,19,26,01,337,14,20,13,208,*74
$GPRMC,060129.000,A,5407.8505,N,08319.7661,E,47.59,16.88,041016,,,A*63
$GPGGA,060130.000,5407.8631,N,08319.7748,E,1,10,1.0,397.6,M,-38.1,M,,0000*71
$GPGSA,A,3,02,05,57,29,25,12,06,09,31,23,,,1.8,1.0,1.5*38
$GPRMC,060130.000,A,5407.8631,N,08319.7748,E,47.68,21.52,041016,,,A*64
$GPGGA,060131.000,5407.8750,N,08319.7850,E,1,10,1.0,397.4,M,-38.1,M,,0000*72
$GPGSA,A,3,02,05,57,29,25,12,06,09,31,23,,,1.8,1.0,1.5*38
$GPRMC,060131.000,A,5407.8750,N,08319.7850,E,47.41,26.22,041016,,,A*6E
$GPGGA,060132.000,5407.8864,N,08319.7966,E,1,10,1.0,397.0,M,-38.1,M,,0000*79
$GPGSA,A,3,02,05,57,29,25,12,06,09,31,23,,,1.8,1.0,1.5*38
$GPRMC,060132.000,A,5407.8864,N,08319.7966,E,47.34,30.77,041016,,,A*64
$GPGGA,060133.000,5407.8972,N,08319.8097,E,1,10,1.0,396.5,M,-38.1,M,,0000*72
$GPGSA,A,3,02,05,57,29,25,12,06,09,31,23,,,1.8,1.0,1.5*38
$GPRMC,060133.000,A,5407.8972,N,08319.8097,E,47.25,35.31,041016,,,A*6C
$GPGGA,060134.000,5407.9076,N,08319.8240,E,1,10,1.0,396.1,M,-38.1,M,,0000*75
$GPGSA,A,3,02,05,57,29,25,12,06,09,31,23,,,1.8,1.0,1.5*38
$GPGSV,3,1,12,02,62,082,30,05,57,166,28,57,48,092,30,29,48,296,19*7F
$GPGSV,3,2,12,25,43,248,17,12,27,203,17,06,22,078,29,09,18,043,23*76
$GPGSV,3,3,12,31,07,306,19,23,05,016,18,26,01,337,14,20,13,208,*75
$GPRMC,060134.000,A,5407.9076,N,08319.8240,E,47.75,38.56,041016,,,A*66
$GPGGA,060135.000,5407.9173,N,08319.8394,E,1,10,1.0,395.4,M,-38.1,M,,0000*7E
$GPGSA,A,3,02,05,57,29,25,12,06,09,31,23,,,1.8,1.0,1.5*38
$GPRMC,060135.000,A,5407.9173,N,08319.8394,E,47.63,42.61,041016,,,A*65
$GPGGA,060136.000,5407.9265,N,08319.8558,E,1,10,1.0,394.6,M,-38.1,M,,0000*7C
$GPGSA,A,3,02,05,57,29,25,12,06,09,31,23,,,1.8,1.0,1.5*38
$GPRMC,060136.000,A,5407.9265,N,08319.8558,E,47.91,46.54,041016,,,A*6B
$GPGGA,060137.000,5407.9349,N,08319.8733,E,1,10,1.0,394.0,M,-38.1,M,,0000*7B
$GPGSA,A,3,02,05,57,29,25,12,06,09,31,23,,,1.8,1.0,1.5*38
$GPRMC,060137.000,A,5407.9349,N,08319.8733,E,47.94,50.51,041016,,,A*6D
$GPGGA,060138.000,5407.9426,N,08319.8919,E,1,10,1.0,393.2,M,-38.1,M,,0000*79
$GPGSA,A,3,02,05,57,29,25,12,06,09,31,23,,,1.8,1.0,1.5*38
$GPRMC,060138.000,A,5407.9426,N,08319.8919,E,48.00,53.99,041016,,,A*6F
$GPGGA,060139.000,5407.9503,N,08319.9113,E,1,10,1.0,393.9,M,-38.1,M,,0000*76
$GPGSA,A,3,02,05,57,29,25,12,06,09,31,23,,,1.8,1.0,1.5*38
$GPGSV,3,1,12,02,62,082,29,05,57,166,29,57,48,092,25,29,48,296,18*73
$GPGSV,3,2,12,25,43,248,16,12,27,203,23,06,22,078,30,09,18,043,17*7F
$GPGSV,3,3,12,31,07,306,19,23,05,016,18,20,13,208,,26,01,337,*70
$GPRMC,060139.000,A,5407.9503,N,08319.9113,E,48.31,55.97,041016,,,A*61
$GPGGA,060140.000,5407.9576,N,08319.9312,E,1,10,1.0,394.3,M,-38.1,M,,0000*74
$GPGSA,A,3,02,05,57,29,25,12,06,09,31,23,,,1.8,1.0,1.5*38
$GPRMC,060140.000,A,5407.9576,N,08319.9312,E,48.68,57.25,041016,,,A*69
$GPGGA,060141.000,5407.9648,N,08319.9518,E,1,10,1.0,395.3,M,-38.1,M,,0000*76
$GPGSA,A,3,02,05,57,29,25,12,06,09,31,23,,,1.8,1.0,1.5*38
$GPRMC,060141.000,A,5407.9648,N,08319.9518,E,49.25,58.58,041016,,,A*67
$GPGGA,060142.000,5407.9712,N,08319.9734,E,1,10,1.0,396.2,M,-38.1,M,,0000*75
$GPGSA,A,3,02,05,57,29,25,12,06,09,31,23,,,1.8,1.0,1.5*38
$GPRMC,060142.000,A,5407.9712,N,08319.9734,E,49.11,61.93,041016,,,A*6C
$GPGGA,060143.000,5407.9774,N,08319.9951,E,1,10,1.0,397.4,M,-38.1,M,,0000*7E
$GPGSA,A,3,02,05,57,29,25,12,06,09,31,23,,,1.8,1.0,1.5*38
$GPRMC,060143.000,A,5407.9774,N,08319.9951,E,48.84,63.67,041016,,,A*64
$GPGGA,060144.000,5407.9826,N,08320.0179,E,1,10,0.9,398.4,M,-38.1,M,,0000*77
$GPGSA,A,3,02,05,57,29,12,06,09,20,31,23,,,1.5,0.9,1.3*3E
$GPGSV,3,1,12,02,62,082,25,05,57,166,30,57,48,092,22,29,48,296,18*70
$GPGSV,3,2,12,12,27,203,27,06,22,078,25,09,18,043,16,20,13,208,23*7C
$GPGSV,3,3,12,31,07,306,19,23,05,016,22,25,43,248,04,26,01,337,*79
$GPRMC,060144.000,A,5407.9826,N,08320.0179,E,49.31,66.63,041016,,,A*64
$GPGGA,060145.000,5407.9868,N,08320.0429,E,1,10,0.9,400.8,M,-38.1,M,,0000*76
$GPGSA,A,3,02,05,57,29,12,06,09,20,31,23,,,1.5,0.9,1.3*3E
$GPRMC,060145.000,A,5407.9868,N,08320.0429,E,49.96,71.02,041016,,,A*63
$GPGGA,060146.000,5407.9896,N,08320.0682,E,1,09,1.0,402.1,M,-38.1,M,,0000*7C
$GPGSA,A,3,02,05,57,29,12,06,09,20,23,,,,1.6,1.0,1.3*37
$GPRMC,060146.000,A,5407.9896,N,08320.0682,E,50.25,76.12,041016,,,A*64
$GPGGA,060147.000,5407.9899,N,08320.0953,E,1,09,1.0,402.9,M,-38.1,M,,0000*79
$GPGSA,A,3,02,05,57,29,12,06,09,20,23,,,,1.6,1.0,1.3*37
$GPRMC,060147.000,A,5407.9899,N,08320.0953,E,51.70,82.64,041016,,,A*62
$GPGGA,060148.000,5407.9899,N,08320.1217,E,1,08,1.1,403.5,M,-38.1,M,,0000*71
$GPGSA,A,3,02,05,57,29,12,06,09,20,,,,,1.9,1.1,1.5*3E
$GPRMC,060148.000,A,5407.9899,N,08320.1217,E,52.29,86.97,041016,,,A*60
$GPGGA,060149.000,5407.9889,N,08320.1490,E,1,08,1.1,404.4,M,-38.1,M,,0000*7E
$GPGSA,A,3,02,05,57,29,12,09,20,23,,,,,1.7,1.1,1.3*31
$GPGSV,3,1,12,02,62,082,19,05,57,166,30,57,48,092,19,29,48,296,15*7A
$GPGSV,3,2,12,12,27,203,30,09,18,043,18,20,13,208,24,23,05,016,11*7E
$GPGSV,3,3,12,06,22,078,09,25,43,248,04,31,07,306,04,26,01,337,*76
$GPRMC,060149.000,A,5407.9889,N,08320.1490,E,52.65,89.85,041016,,,A*6D
$GPGGA,060150.000,5407.9883,N,08320.1736,E,1,09,1.2,405.5,M,-38.1,M,,0000*71
$GPGSA,A,3,02,05,57,25,12,06,09,20,23,,,,1.9,1.2,1.4*31
$GPRMC,060150.000,A,5407.9883,N,08320.1736,E,49.98,92.53,041016,,,A*69
$GPGGA,060151.000,5407.9856,N,08320.1993,E,1,10,0.9,406.1,M,-38.1,M,,0000*7C
$GPGSA,A,3,02,05,57,29,25,12,06,09,20,23,,,1.6,0.9,1.3*38
$GPRMC,060151.000,A,5407.9856,N,08320.1993,E,49.14,96.79,041016,,,A*69
$GPGGA,060152.000,5407.9822,N,08320.2239,E,1,08,1.1,406.5,M,-38.1,M,,0000*70
$GPGSA,A,3,02,05,57,29,25,12,09,20,,,,,1.9,1.1,1.6*3C
$GPRMC,060152.000,A,5407.9822,N,08320.2239,E,49.16,100.16,041016,,,A*54
$GPGGA,060153.000,5407.9775,N,08320.2494,E,1,10,0.9,406.5,M,-38.1,M,,0000*7D
$GPGSA,A,3,02,05,57,29,25,12,06,09,20,23,,,1.6,0.9,1.3*38
$GPRMC,060153.000,A,5407.9775,N,08320.2494,E,50.76,103.05,041016,,,A*56
$GPGGA,060154.000,5407.9719,N,08320.2748,E,1,09,1.0,406.8,M,-38.1,M,,0000*7F
$GPGSA,A,3,02,05,57,29,25,12,09,20,23,,,,1.6,1.0,1.3*36
$GPGSV,3,1,12,02,62,082,17,05,57,166,31,57,48,092,18,29,48,296,13*72
$GPGSV,3,2,12,25,43,248,17,12,27,203,31,09,18,043,20,20,13,208,26*7D
$GPGSV,3,3,12,23,05,016,18,06,22,078,05,26,01,337,17,31,07,306,*78
$GPRMC,060154.000,A,5407.9719,N,08320.2748,E,52.25,106.80,041016,,,A*55
$GPGGA,060155.000,5407.9636,N,08320.3017,E,1,09,1.0,405.3,M,-38.1,M,,0000*76
$GPGSA,A,3,02,05,57,29,25,12,09,20,23,,,,1.6,1.0,1.3*36
$GPRMC,060155.000,A,5407.9636,N,08320.3017,E,55.12,111.86,041016,,,A*57
$GPGGA,060156.000,5407.9553,N,08320.3265,E,1,10,0.9,405.2,M,-38.1,M,,0000*73
$GPGSA,A,3,02,05,57,29,25,12,06,09,20,23,,,1.6,0.9,1.3*38
$GPRMC,060156.000,A,5407.9553,N,08320.3265,E,55.21,116.46,041016,,,A*58
$GPGGA,060157.000,5407.9464,N,08320.3510,E,1,10,0.9,405.0,M,-38.1,M,,0000*70
$GPGSA,A,3,02,05,57,29,25,12,06,09,20,23,,,1.6,0.9,1.3*38
$GPRMC,060157.000,A,5407.9464,N,08320.3510,E,55.89,119.62,041016,,,A*52
$GPGGA,060158.000,5407.9371,N,08320.3743,E,1,10,0.9,405.4,M,-38.1,M,,0000*7C
$GPGSA,A,3,02,05,57,29,25,12,06,09,20,23,,,1.6,0.9,1.3*38
$GPRMC,060158.000,A,5407.9371,N,08320.3743,E,56.42,121.51,041016,,,A*55
$GPGGA,060159.000,5407.9264,N,08320.3983,E,1,10,0.9,405.5,M,-38.1,M,,0000*7B
$GPGSA,A,3,02,05,57,29,25,12,06,09,20,23,,,1.6,0.9,1.3*38
$GPGSV,3,1,12,02,62,082,16,05,57,166,31,57,48,092,16,29,48,296,19*77
$GPGSV,3,2,12,25,43,248,26,12,27,203,33,06,22,078,16,09,18,043,18*76
$GPGSV,3,3,12,20,13,208,28,23,05,016,20,31,07,306,,26,01,337,*79
$GPRMC,060159.000,A,5407.9264,N,08320.3983,E,57.25,124.63,041016,,,A*57
$GPGGA,060200.000,5407.9158,N,08320.4213,E,1,10,0.9,406.0,M,-38.1,M,,0000*7B
$GPGSA,A,3,02,05,57,29,25,12,06,09,20,23,,,1.6,0.9,1.3*38
$GPRMC,060200.000,A,5407.9158,N,08320.4213,E,57.86,126.30,041016,,,A*5C
$GPGGA,060201.000,5407.9055,N,08320.4429,E,1,10,0.9,407.6,M,-38.1,M,,0000*7E
$GPGSA,A,3,02,05,57,29,25,12,06,09,20,23,,,1.6,0.9,1.3*38
$GPRMC,060201.000,A,5407.9055,N,08320.4429,E,58.17,127.62,041016,,,A*5F
$GPGGA,060202.000,5407.8950,N,08320.4644,E,1,10,0.9,408.5,M,-38.1,M,,0000*75
$GPGSA,A,3,02,05,57,29,25,12,06,09,20,23,,,1.6,0.9,1.3*38
$GPRMC,060202.000,A,5407.8950,N,08320.4644,E,57.41,128.13,041016,,,A*5D
$GPGGA,060203.000,5407.8842,N,08320.4857,E,1,10,0.9,409.5,M,-38.1,M,,0000*7B
$GPGSA,A,3,02,05,57,29,25,12,06,09,20,23,,,1.6,0.9,1.3*38
$GPRMC,060203.000,A,5407.8842,N,08320.4857,E,58.10,130.18,041016,,,A*5B
$GPGGA,060204.000,5407.8731,N,08320.5065,E,1,10,0.9,410.5,M,-38.1,M,,0000*77
$GPGSA,A,3,02,05,57,29,25,12,06,09,20,23,,,1.6,0.9,1.3*38
$GPGSV,3,1,12,02,61,082,18,05,57,165,30,57,48,092,15,29,48,296,20*71
$GPGSV,3,2,12,25,42,247,28,12,27,202,34,06,21,078,16,09,18,042,18*72
$GPGSV,3,3,12,20,13,208,29,23,04,016,18,21,01,260,25,26,02,337,19*78
$GPRMC,060204.000,A,5407.8731,N,08320.5065,E,58.63,131.54,041016,,,A*52
$GPGGA,060205.000,5407.8619,N,08320.5274,E,1,10,0.9,411.5,M,-38.1,M,,0000*7E
$GPGSA,A,3,02,05,29,57,25,12,06,09,20,23,,,1.6,0.9,1.3*38
$GPRMC,060205.000,A,5407.8619,N,08320.5274,E,58.39,131.90,041016,,,A*5D
$GPGGA,060206.000,5407.8508,N,08320.5479,E,1,09,1.1,412.8,M,-38.1,M,,0000*7A
$GPGSA,A,3,02,05,29,57,25,12,06,09,20,,,,1.8,1.1,1.5*38
$GPRMC,060206.000,A,5407.8508,N,08320.5479,E,58.71,131.60,041016,,,A*55
$GPGGA,060207.000,5407.8396,N,08320.5686,E,1,09,1.1,414.3,M,-38.1,M,,0000*75
$GPGSA,A,3,02,05,29,57,25,12,06,09,20,,,,1.8,1.1,1.5*38
$GPRMC,060207.000,A,5407.8396,N,08320.5686,E,59.00,131.12,041016,,,A*55
$GPGGA,060208.000,5407.8284,N,08320.5895,E,1,09,1.1,415.7,M,-38.1,M,,0000*71
$GPGSA,A,3,02,05,29,57,25,12,06,09,20,,,,1.8,1.1,1.5*38
$GPRMC,060208.000,A,5407.8284,N,08320.5895,E,59.19,131.21,041016,,,A*5C
$GPGGA,060209.000,5407.8170,N,08320.6103,E,1,08,1.5,417.2,M,-38.1,M,,0000*7F
$GPGSA,A,3,02,05,57,25,12,06,09,20,,,,,2.1,1.5,1.5*3D
$GPGSV,3,1,12,02,61,082,18,05,57,165,30,57,48,092,14,25,42,247,28*72
$GPGSV,3,2,12,12,27,202,35,06,21,078,16,09,18,042,22,20,13,208,29*71
$GPGSV,3,3,12,21,01,260,23,23,04,016,19,29,48,296,17,31,07,306,*7B
$GPRMC,060209.000,A,5407.8170,N,08320.6103,E,59.94,132.43,041016,,,A*52
$GPGGA,060210.000,5407.8054,N,08320.6311,E,1,09,1.1,418.4,M,-38.1,M,,0000*7D
$GPGSA,A,3,02,05,29,57,25,12,06,09,20,,,,1.8,1.1,1.5*38
$GPRMC,060210.000,A,5407.8054,N,08320.6311,E,60.32,133.40,041016,,,A*58
$GPGGA,060211.000,5407.7934,N,08320.6516,E,1,10,0.9,419.8,M,-38.1,M,,0000*71
$GPGSA,A,3,02,05,29,57,25,12,06,09,20,31,,,1.6,0.9,1.3*3B
$GPRMC,060211.000,A,5407.7934,N,08320.6516,E,60.26,134.04,041016,,,A*5A
$GPGGA,060212.000,5407.7816,N,08320.6722,E,1,10,0.9,420.7,M,-38.1,M,,0000*73
$GPGSA,A,3,02,05,29,57,25,12,06,09,20,31,,,1.6,0.9,1.3*3B
$GPRMC,060212.000,A,5407.7816,N,08320.6722,E,60.12,133.79,041016,,,A*57
$GPGGA,060213.000,5407.7697,N,08320.6929,E,1,10,0.9,421.8,M,-38.1,M,,0000*7E
$GPGSA,A,3,02,05,29,57,25,12,06,09,20,31,,,1.6,0.9,1.3*3B
$GPRMC,060213.000,A,5407.7697,N,08320.6929,E,61.03,133.52,041016,,,A*5C
$GPGGA,060214.000,5407.7576,N,08320.7142,E,1,09,1.1,422.7,M,-38.1,M,,0000*7C
$GPGSA,A,3,02,05,29,57,25,12,06,09,20,,,,1.8,1.1,1.5*38
$GPGSV,3,1,12,02,61,082,19,05,57,165,30,29,48,296,19,57,48,092,14*7B
$GPGSV,3,2,12,25,42,247,29,12,27,202,35,06,21,078,15,09,18,042,21*7B
$GPGSV,3,3,12,20,13,208,29,21,01,260,26,23,04,016,05,31,07,306,04*7A
$GPRMC,060214.000,A,5407.7576,N,08320.7142,E,62.37,133.42,041016,,,A*56
$GPGGA,060215.000,5407.7454,N,08320.7357,E,1,09,1.1,423.5,M,-38.1,M,,0000*79
$GPGSA,A,3,02,05,29,57,25,12,06,09,20,,,,1.8,1.1,1.5*38
$GPRMC,060215.000,A,5407.7454,N,08320.7357,E,62.63,133.31,041016,,,A*55
$GPGGA,060216.000,5407.7335,N,08320.7575,E,1,10,0.9,424.0,M,-38.1,M,,0000*7F
$GPGSA,A,3,02,05,29,57,25,12,06,09,20,31,,,1.6,0.9,1.3*3B
$GPRMC,060216.000,A,5407.7335,N,08320.7575,E,62.80,132.68,041016,,,A*50
$GPGGA,060217.000,5407.7219,N,08320.7795,E,1,10,0.9,424.5,M,-38.1,M,,0000*78
$GPGSA,A,3,02,05,29,57,25,12,06,09,20,31,,,1.6,0.9,1.3*3B
$GPRMC,060217.000,A,5407.7219,N,08320.7795,E,61.91,131.46,041016,,,A*5E
$GPGGA,060218.000,5407.7105,N,08320.8017,E,1,10,0.9,425.1,M,-38.1,M,,0000*7E
$GPGSA,A,3,02,05,29,57,25,12,06,09,20,31,,,1.6,0.9,1.3*3B
$GPRMC,060218.000,A,5407.7105,N,08320.8017,E,61.60,130.74,041016,,,A*53
$GPGGA,060219.000,5407.6993,N,08320.8242,E,1,10,0.9,425.6,M,-38.1,M,,0000*7C
$GPGSA,A,3,02,05,29,57,25,12,06,09,20,31,,,1.6,0.9,1.3*3B
$GPGSV,3,1,12,02,61,082,19,05,57,165,31,29,48,296,19,57,48,092,13*7D
$GPGSV,3,2,12,25,42,247,29,12,27,202,35,06,21,078,16,09,18,042,20*79
$GPGSV,3,3,12,20,13,208,28,31,07,306,12,21,01,260,24,23,04,016,19*73
$GPRMC,060219.000,A,5407.6993,N,08320.8242,E,61.48,129.77,041016,,,A*57
$GPGGA,060220.000,5407.6883,N,08320.8470,E,1,10,0.9,426.3,M,-38.1,M,,0000*77
$GPGSA,A,3,02,05,29,57,25,12,06,09,20,31,,,1.6,0.9,1.3*3B
$GPRMC,060220.000,A,5407.6883,N,08320.8470,E,60.91,129.08,041016,,,A*57
$GPGGA,060221.000,5407.6776,N,08320.8702,E,1,10,0.9,425.9,M,-38.1,M,,0000*7C
$GPGSA,A,3,02,05,29,57,25,12,06,09,20,31,,,1.6,0.9,1.3*3B
$GPRMC,060221.000,A,5407.6776,N,08320.8702,E,60.15,127.68,041016,,,A*51
$GPGGA,060222.000,5407.6674,N,08320.8930,E,1,10,0.9,425.7,M,-38.1,M,,0000*7D
$GPGSA,A,3,02,05,29,57,25,12,06,09,20,31,,,1.6,0.9,1.3*3B
$GPRMC,060222.000,A,5407.6674,N,08320.8930,E,59.73,127.41,041016,,,A*5F
$GPGGA,060223.000,5407.6573,N,08320.9157,E,1,10,0.9,425.9,M,-38.1,M,,0000*7E
$GPGSA,A,3,02,05,29,57,25,12,06,09,20,31,,,1.6,0.9,1.3*3B
$GPRMC,060223.000,A,5407.6573,N,08320.9157,E,59.60,127.47,041016,,,A*56
$GPGGA,060224.000,5407.6469,N,08320.9382,E,1,10,0.9,426.3,M,-38.1,M,,0000*70
$GPGSA,A,3,02,05,29,57,25,12,06,09,20,31,,,1.6,0.9,1.3*3B
$GPGSV,3,1,12,02,61,082,20,05,57,165,32,29,48,296,20,57,48,092,14*79
$GPGSV,3,2,12,25,42,247,28,12,27,202,35,06,21,078,16,09,18,042,20*78
$GPGSV,3,3,12,20,13,208,29,31,07,306,11,23,04,016,17,26,02,337,19*76
$GPRMC,060224.000,A,5407.6469,N,08320.9382,E,60.34,128.31,041016,,,A*54
$GPGGA,060225.000,5407.6362,N,08320.9607,E,1,10,0.9,426.7,M,-38.1,M,,0000*71
$GPGSA,A,3,02,05,29,57,25,12,06,09,20,31,,,1.6,0.9,1.3*3B
$GPRMC,060225.000,A,5407.6362,N,08320.9607,E,60.46,129.19,041016,,,A*5F
$GPGGA,060226.000,5407.6253,N,08320.9827,E,1,10,0.9,427.6,M,-38.1,M,,0000*7D
$GPGSA,A,3,02,05,29,57,25,12,06,09,20,31,,,1.6,0.9,1.3*3B
$GPRMC,060226.000,A,5407.6253,N,08320.9827,E,60.37,129.76,041016,,,A*5C
