$GPGGA,042825.000,5411.0715,N,08338.4679,E,1,12,0.8,410.3,M,-37.7,M,,0000*78
$GPGSA,A,3,02,12,06,57,25,19,17,05,23,29,09,31,1.3,0.8,1.0*31
$GPRMC,042825.000,A,5411.0715,N,08338.4679,E,66.92,194.32,051016,,,A*5C
$GPGGA,042826.000,5411.0537,N,08338.4580,E,1,12,0.8,410.4,M,-37.7,M,,0000*7B
$GPGSA,A,3,02,12,06,57,25,19,17,05,23,29,09,31,1.3,0.8,1.0*31
$GPRMC,042826.000,A,5411.0537,N,08338.4580,E,67.20,199.31,051016,,,A*5E
$GPGGA,042827.000,5411.0359,N,08338.4458,E,1,12,0.8,410.7,M,-37.7,M,,0000*73
$GPGSA,A,3,02,12,06,57,25,19,17,05,23,29,09,31,1.3,0.8,1.0*31
$GPGSV,3,1,12,02,75,219,27,12,61,246,32,06,61,071,20,57,44,100,17*72
$GPGSV,3,2,12,25,38,303,36,19,34,105,20,17,15,107,24,05,15,179,18*7E
$GPGSV,3,3,12,23,11,049,18,29,10,287,35,09,09,080,21,31,08,341,31*7B
$GPRMC,042827.000,A,5411.0359,N,08338.4458,E,68.22,202.01,051016,,,A*5A
$GPGGA,042828.000,5411.0184,N,08338.4313,E,1,12,0.8,411.1,M,-37.7,M,,0000*71
$GPGSA,A,3,02,12,06,57,25,19,17,05,23,29,09,31,1.3,0.8,1.0*31
$GPRMC,042828.000,A,5411.0184,N,08338.4313,E,68.67,205.33,051016,,,A*58
$GPGGA,042829.000,5411.0013,N,08338.4146,E,1,12,0.8,411.8,M,-37.7,M,,0000*74
$GPGSA,A,3,02,12,06,57,25,19,17,05,23,29,09,31,1.3,0.8,1.0*31
$GPRMC,042829.000,A,5411.0013,N,08338.4146,E,69.28,208.78,051016,,,A*5C
$GPGGA,042830.000,5410.9852,N,08338.3946,E,1,12,0.8,412.9,M,-37.7,M,,0000*74
$GPGSA,A,3,02,12,06,57,25,19,17,05,23,29,09,31,1.3,0.8,1.0*31
$GPRMC,042830.000,A,5410.9852,N,08338.3946,E,69.75,213.40,051016,,,A*57
$GPGGA,042831.000,5410.9701,N,08338.3711,E,1,12,0.8,414.0,M,-37.7,M,,0000*7F
$GPGSA,A,3,02,12,06,57,25,19,17,05,23,29,09,31,1.3,0.8,1.0*31
$GPRMC,042831.000,A,5410.9701,N,08338.3711,E,70.93,219.12,051016,,,A*5E
$GPGGA,042832.000,5410.9559,N,08338.3465,E,1,12,0.8,414.5,M,-37.7,M,,0000*76
$GPGSA,A,3,02,12,06,57,25,19,17,05,23,29,09,31,1.3,0.8,1.0*31
$GPGSV,3,1,12,02,75,219,20,12,61,246,26,06,61,071,18,57,44,100,17*7B
$GPGSV,3,2,12,25,38,303,37,19,34,105,21,17,15,107,22,05,15,179,18*78
$GPGSV,3,3,12,23,11,049,18,29,10,287,35,09,09,080,17,31,08,341,30*7F
$GPRMC,042832.000,A,5410.9559,N,08338.3465,E,70.78,224.27,051016,,,A*5F
$GPGGA,042833.000,5410.9420,N,08338.3212,E,1,12,0.8,414.9,M,-37.7,M,,0000*72
$GPGSA,A,3,02,12,06,57,25,19,17,05,23,29,09,31,1.3,0.8,1.0*31
$GPRMC,042833.000,A,5410.9420,N,08338.3212,E,71.13,227.12,051016,,,A*5E
$GPGGA,042834.000,5410.9295,N,08338.2947,E,1,11,0.8,415.1,M,-37.7,M,,0000*7D
$GPGSA,A,3,02,06,57,25,19,17,05,23,29,09,31,,1.3,0.8,1.1*33
$GPRMC,042834.000,A,5410.9295,N,08338.2947,E,71.32,229.24,051016,,,A*53
$GPGGA,042835.000,5410.9182,N,08338.2661,E,1,11,0.8,415.5,M,-37.7,M,,0000*76
$GPGSA,A,3,02,06,57,25,19,17,05,23,29,09,31,,1.3,0.8,1.1*33
$GPRMC,042835.000,A,5410.9182,N,08338.2661,E,72.00,233.19,051016,,,A*5B
$GPGGA,042836.000,5410.9073,N,08338.2364,E,1,12,0.8,416.7,M,-37.7,M,,0000*78
$GPGSA,A,3,02,12,06,57,25,19,17,05,23,29,09,31,1.3,0.8,1.0*31
$GPRMC,042836.000,A,5410.9073,N,08338.2364,E,73.14,236.13,051016,,,A*5C
$GPGGA,042837.000,5410.8976,N,08338.2057,E,1,12,0.8,418.0,M,-37.7,M,,0000*7E
$GPGSA,A,3,02,12,06,57,25,19,17,05,23,29,09,31,1.3,0.8,1.0*31
$GPGSV,3,1,12,02,75,219,21,12,61,246,23,06,61,071,20,57,44,100,17*74
$GPGSV,3,2,12,25,38,303,36,19,34,105,18,17,15,107,19,05,15,179,23*73
$GPGSV,3,3,12,23,11,049,25,29,10,287,29,09,09,080,16,31,08,341,30*7D
$GPRMC,042837.000,A,5410.8976,N,08338.2057,E,73.34,239.20,051016,,,A*5E
$GPGGA,042838.000,5410.8894,N,08338.1747,E,1,12,0.8,420.6,M,-37.7,M,,0000*74
$GPGSA,A,3,02,12,06,57,25,19,17,05,23,29,09,31,1.3,0.8,1.0*31
$GPRMC,042838.000,A,5410.8894,N,08338.1747,E,73.39,242.34,051016,,,A*5D
$GPGGA,042839.000,5410.8816,N,08338.1429,E,1,11,1.2,423.0,M,-37.7,M,,0000*79
$GPGSA,A,3,02,12,06,57,25,19,17,23,29,09,31,,1.7,1.2,1.3*38
$GPRMC,042839.000,A,5410.8816,N,08338.1429,E,74.06,245.34,051016,,,A*51
$GPGGA,042840.000,5410.8756,N,08338.1098,E,1,12,0.8,425.8,M,-37.7,M,,0000*74
$GPGSA,A,3,02,12,06,57,25,19,17,05,23,29,09,31,1.3,0.8,1.0*31
$GPRMC,042840.000,A,5410.8756,N,08338.1098,E,73.72,248.72,051016,,,A*51
$GPGGA,042841.000,5410.8713,N,08338.0762,E,1,12,0.8,428.7,M,-37.7,M,,0000*75
$GPGSA,A,3,02,12,06,57,25,19,17,05,23,29,09,31,1.3,0.8,1.0*31
$GPRMC,042841.000,A,5410.8713,N,08338.0762,E,73.01,252.63,051016,,,A*5D
$GPGGA,042842.000,5410.8682,N,08338.0413,E,1,12,0.8,431.3,M,-37.7,M,,0000*76
$GPGSA,A,3,02,12,06,57,25,19,17,05,23,29,09,31,1.3,0.8,1.0*31
$GPGSV,3,1,12,02,75,219,22,12,61,246,22,06,61,071,24,57,44,100,17*72
$GPGSV,3,2,12,25,38,303,35,19,34,105,17,17,15,107,19,05,15,179,14*7B
$GPGSV,3,3,12,23,11,049,28,29,10,287,18,09,09,080,22,31,08,341,31*74
$GPRMC,042842.000,A,5410.8682,N,08338.0413,E,73.25,257.86,051016,,,A*5A
$GPGGA,042843.000,5410.8654,N,08338.0057,E,1,12,0.8,433.5,M,-37.7,M,,0000*7C
$GPGSA,A,3,02,12,06,57,25,19,17,05,23,29,09,31,1.3,0.8,1.0*31
$GPRMC,042843.000,A,5410.8654,N,08338.0057,E,74.22,260.60,051016,,,A*58
$GPGGA,042844.000,5410.8635,N,08337.9696,E,1,12,0.8,435.7,M,-37.7,M,,0000*75
$GPGSA,A,3,02,12,06,57,25,19,17,05,23,29,09,31,1.3,0.8,1.0*31
$GPRMC,042844.000,A,5410.8635,N,08337.9696,E,74.13,263.52,051016,,,A*55
$GPGGA,042845.000,5410.8633,N,08337.9339,E,1,12,0.8,438.0,M,-37.7,M,,0000*78
$GPGSA,A,3,02,12,06,57,25,19,17,05,23,29,09,31,1.3,0.8,1.0*31
$GPRMC,042845.000,A,5410.8633,N,08337.9339,E,73.70,266.68,051016,,,A*5C
$GPGGA,042846.000,5410.8633,N,08337.8988,E,1,12,0.8,439.4,M,-37.7,M,,0000*7F
$GPGSA,A,3,02,12,06,57,25,19,17,05,23,29,09,31,1.3,0.8,1.0*31
$GPRMC,042846.000,A,5410.8633,N,08337.8988,E,73.31,267.95,051016,,,A*58
$GPGGA,042847.000,5410.8662,N,08337.8650,E,1,11,0.8,439.7,M,-37.7,M,,0000*70
$GPGSA,A,3,12,06,57,25,19,17,05,23,29,09,31,,1.4,0.8,1.1*35
$GPGSV,3,1,12,12,61,246,15,06,61,071,25,57,44,100,16,25,38,303,29*7B
$GPGSV,3,2,12,19,34,105,15,17,15,107,18,05,15,179,21,23,11,049,31*7A
$GPGSV,3,3,12,29,10,287,19,09,09,080,23,31,08,341,32,02,75,219,07*7C
$GPRMC,042847.000,A,5410.8662,N,08337.8650,E,72.29,272.16,051016,,,A*50
$GPGGA,042848.000,5410.8708,N,08337.8317,E,1,11,0.8,440.6,M,-37.7,M,,0000*7B
$GPGSA,A,3,12,06,57,25,19,17,05,23,29,09,31,,1.4,0.8,1.1*35
$GPRMC,042848.000,A,5410.8708,N,08337.8317,E,71.08,277.06,051016,,,A*50
$GPGGA,042849.000,5410.8772,N,08337.7990,E,1,12,0.8,441.4,M,-37.7,M,,0000*7D
$GPGSA,A,3,02,12,06,57,25,19,17,05,23,29,09,31,1.3,0.8,1.0*31
$GPRMC,042849.000,A,5410.8772,N,08337.7990,E,70.64,281.73,051016,,,A*56
$GPGGA,042850.000,5410.8847,N,08337.7672,E,1,12,0.8,441.6,M,-37.7,M,,0000*7D
$GPGSA,A,3,02,12,06,57,25,19,17,05,23,29,09,31,1.3,0.8,1.0*31
$GPRMC,042850.000,A,5410.8847,N,08337.7672,E,70.98,285.30,051016,,,A*54
$GPGGA,042851.000,5410.8939,N,08337.7364,E,1,12,0.8,442.0,M,-37.7,M,,0000*73
$GPGSA,A,3,02,12,06,57,25,19,17,05,23,29,09,31,1.3,0.8,1.0*31
$GPRMC,042851.000,A,5410.8939,N,08337.7364,E,70.98,290.07,051016,,,A*5F
$GPGGA,042852.000,5410.9041,N,08337.7068,E,1,12,0.8,443.5,M,-37.7,M,,0000*7C
$GPGSA,A,3,02,12,06,57,25,19,17,05,23,29,09,31,1.3,0.8,1.0*31
$GPGSV,3,1,12,02,75,219,14,12,61,246,18,06,61,071,26,57,44,100,16*7D
$GPGSV,3,2,12,25,38,303,21,19,34,105,25,17,15,107,19,05,15,179,21*79
$GPGSV,3,3,12,23,11,049,30,29,10,287,18,09,09,080,27,31,08,341,32*7B
$GPRMC,042852.000,A,5410.9041,N,08337.7068,E,70.60,293.94,051016,,,A*5A
$GPGGA,042853.000,5410.9136,N,08337.6782,E,1,12,0.8,444.2,M,-37.7,M,,0000*7E
$GPGSA,A,3,02,12,06,57,25,19,17,05,23,29,09,31,1.3,0.8,1.0*31
$GPRMC,042853.000,A,5410.9136,N,08337.6782,E,70.10,296.69,051016,,,A*58
$GPGGA,042854.000,5410.9243,N,08337.6513,E,1,12,0.8,444.7,M,-37.7,M,,0000*77
$GPGSA,A,3,02,12,06,57,25,19,17,05,23,29,09,31,1.3,0.8,1.0*31
$GPRMC,042854.000,A,5410.9243,N,08337.6513,E,70.26,301.06,051016,,,A*57
$GPGGA,042855.000,5410.9360,N,08337.6265,E,1,12,0.8,445.4,M,-37.7,M,,0000*72
$GPGSA,A,3,02,12,06,57,25,19,17,05,23,29,09,31,1.3,0.8,1.0*31
$GPRMC,042855.000,A,5410.9360,N,08337.6265,E,69.27,305.23,051016,,,A*5A
$GPGGA,042856.000,5410.9489,N,08337.6018,E,1,12,0.8,446.2,M,-37.7,M,,0000*7C
$GPGSA,A,3,02,12,06,57,25,19,17,05,23,29,09,31,1.3,0.8,1.0*31
$GPRMC,042856.000,A,5410.9489,N,08337.6018,E,70.41,308.77,051016,,,A*55
$GPGGA,042857.000,5410.9615,N,08337.5769,E,1,11,0.8,446.1,M,-37.7,M,,0000*78
$GPGSA,A,3,12,06,57,25,19,05,17,23,29,09,31,,1.4,0.8,1.1*35
$GPGSV,3,1,12,12,61,243,18,06,60,070,27,57,44,100,23,25,39,302,19*74
$GPGSV,3,2,12,19,32,105,24,05,16,179,17,17,14,108,25,23,11,048,31*79
$GPGSV,3,3,12,29,11,287,18,09,09,079,29,31,09,340,25,02,76,218,05*76
$GPRMC,042857.000,A,5410.9615,N,08337.5769,E,70.57,310.49,051016,,,A*52
$GPGGA,042858.000,5410.9746,N,08337.5530,E,1,11,0.8,445.3,M,-37.7,M,,0000*7F
$GPGSA,A,3,12,06,57,25,19,05,17,23,29,09,31,,1.4,0.8,1.1*35
$GPRMC,042858.000,A,5410.9746,N,08337.5530,E,68.26,310.99,051016,,,A*56
$GPGGA,042859.000,5410.9881,N,08337.5299,E,1,10,0.9,444.5,M,-37.7,M,,0000*79
$GPGSA,A,3,12,06,57,25,19,05,17,23,29,09,,,1.5,0.9,1.2*34
$GPRMC,042859.000,A,5410.9881,N,08337.5299,E,68.44,312.28,051016,,,A*5B
$GPGGA,042900.000,5411.0020,N,08337.5075,E,1,10,0.9,443.8,M,-37.7,M,,0000*75
$GPGSA,A,3,12,06,57,25,19,05,17,23,29,09,,,1.5,0.9,1.2*34
$GPRMC,042900.000,A,5411.0020,N,08337.5075,E,68.58,313.66,051016,,,A*5B
$GPGGA,042901.000,5411.0165,N,08337.4868,E,1,10,0.9,441.8,M,-37.7,M,,0000*73
$GPGSA,A,3,12,06,57,25,19,05,17,23,29,09,,,1.5,0.9,1.2*34
$GPRMC,042901.000,A,5411.0165,N,08337.4868,E,67.82,317.47,051016,,,A*50
$GPGGA,042902.000,5411.0327,N,08337.4686,E,1,12,0.8,440.0,M,-37.7,M,,0000*70
$GPGSA,A,3,02,12,06,57,25,19,05,17,23,29,09,31,1.3,0.8,1.0*31
$GPGSV,3,1,12,02,76,218,11,12,61,243,16,06,60,070,29,57,44,100,24*7F
$GPGSV,3,2,12,25,39,302,19,19,32,105,30,05,16,179,22,17,14,108,26*72
$GPGSV,3,3,12,23,11,048,33,29,11,287,18,09,09,079,30,31,09,340,19*71
$GPRMC,042902.000,A,5411.0327,N,08337.4686,E,68.29,321.62,051016,,,A*55
$GPGGA,042903.000,5411.0503,N,08337.4515,E,1,11,0.9,439.0,M,-37.7,M,,0000*74
$GPGSA,A,3,02,12,06,57,25,19,05,17,23,29,09,,1.4,0.9,1.1*34
$GPRMC,042903.000,A,5411.0503,N,08337.4515,E,70.36,325.17,051016,,,A*5C
$GPGGA,042904.000,5411.0675,N,08337.4343,E,1,12,0.8,438.6,M,-37.7,M,,0000*71
$GPGSA,A,3,02,12,06,57,25,19,05,17,23,29,09,31,1.3,0.8,1.0*31
$GPRMC,042904.000,A,5411.0675,N,08337.4343,E,69.62,325.69,051016,,,A*5C
$GPGGA,042905.000,5411.0841,N,08337.4166,E,1,12,0.8,438.0,M,-37.7,M,,0000*7A
$GPGSA,A,3,02,12,06,57,25,19,05,17,23,29,09,31,1.3,0.8,1.0*31
$GPRMC,042905.000,A,5411.0841,N,08337.4166,E,69.62,325.71,051016,,,A*58
$GPGGA,042906.000,5411.1003,N,08337.3987,E,1,12,0.8,438.1,M,-37.7,M,,0000*77
$GPGSA,A,3,02,12,06,57,25,19,05,17,23,29,09,31,1.3,0.8,1.0*31
$GPRMC,042906.000,A,5411.1003,N,08337.3987,E,69.35,325.02,051016,,,A*52
$GPGGA,042907.000,5411.1163,N,08337.3803,E,1,12,0.8,437.5,M,-37.7,M,,0000*77
$GPGSA,A,3,02,12,06,57,25,19,05,17,23,29,09,31,1.3,0.8,1.0*31
$GPGSV,3,1,12,02,76,218,16,12,61,243,16,06,60,070,35,57,44,100,26*77
$GPGSV,3,2,12,25,39,302,18,19,32,105,30,05,16,179,22,17,14,108,26*73
$GPGSV,3,3,12,23,11,048,35,29,11,287,24,09,09,079,30,31,09,340,19*78
$GPRMC,042907.000,A,5411.1163,N,08337.3803,E,69.13,324.31,051016,,,A*5C
$GPGGA,042908.000,5411.1323,N,08337.3621,E,1,12,0.8,437.0,M,-37.7,M,,0000*75
$GPGSA,A,3,02,12,06,57,25,19,05,17,23,29,09,31,1.3,0.8,1.0*31
$GPRMC,042908.000,A,5411.1323,N,08337.3621,E,69.14,324.11,051016,,,A*5E
$GPGGA,042909.000,5411.1482,N,08337.3441,E,1,12,0.8,437.0,M,-37.7,M,,0000*7C
$GPGSA,A,3,02,12,06,57,25,19,05,17,23,29,09,31,1.3,0.8,1.0*31
$GPRMC,042909.000,A,5411.1482,N,08337.3441,E,68.32,324.55,051016,,,A*52
$GPGGA,042910.000,5411.1639,N,08337.3259,E,1,11,0.9,436.7,M,-37.7,M,,0000*7D
$GPGSA,A,3,02,12,06,57,25,19,05,17,23,29,09,,1.4,0.9,1.1*34
$GPRMC,042910.000,A,5411.1639,N,08337.3259,E,68.96,324.91,051016,,,A*51
$GPGGA,042911.000,5411.1798,N,08337.3078,E,1,11,0.9,436.7,M,-37.7,M,,0000*77
$GPGSA,A,3,02,12,06,57,25,19,05,17,23,29,09,,1.4,0.9,1.1*34
$GPRMC,042911.000,A,5411.1798,N,08337.3078,E,68.60,325.66,051016,,,A*5B
$GPGGA,042912.000,5411.1957,N,08337.2895,E,1,12,0.8,436.9,M,-37.7,M,,0000*7F
$GPGSA,A,3,02,12,06,57,25,19,05,17,23,29,09,31,1.3,0.8,1.0*31
$GPGSV,3,1,12,02,76,218,16,12,61,243,15,06,60,070,34,57,44,100,26*75
$GPGSV,3,2,12,25,39,302,17,19,32,105,31,05,16,179,22,17,14,108,27*7C
$GPGSV,3,3,12,23,11,048,35,29,11,287,19,09,09,079,28,31,09,340,13*75
$GPRMC,042912.000,A,5411.1957,N,08337.2895,E,69.13,325.59,051016,,,A*56
$GPGGA,042913.000,5411.2118,N,08337.2717,E,1,11,1.2,438.0,M,-37.7,M,,0000*74
$GPGSA,A,3,02,12,06,57,25,19,17,23,29,09,31,,1.7,1.2,1.3*38
$GPRMC,042913.000,A,5411.2118,N,08337.2717,E,68.41,326.68,051016,,,A*55
$GPGGA,042914.000,5411.2280,N,08337.2542,E,1,12,0.8,439.2,M,-37.7,M,,0000*78
$GPGSA,A,3,02,12,06,57,25,19,05,17,23,29,09,31,1.3,0.8,1.0*31
$GPRMC,042914.000,A,5411.2280,N,08337.2542,E,68.73,326.32,051016,,,A*5C
$GPGGA,042915.000,5411.2442,N,08337.2365,E,1,12,0.8,439.8,M,-37.7,M,,0000*78
$GPGSA,A,3,02,12,06,57,25,19,05,17,23,29,09,31,1.3,0.8,1.0*31
$GPRMC,042915.000,A,5411.2442,N,08337.2365,E,68.68,325.73,051016,,,A*5A
$GPGGA,042916.000,5411.2601,N,08337.2185,E,1,12,0.8,440.5,M,-37.7,M,,0000*71
$GPGSA,A,3,02,12,06,57,25,19,05,17,23,29,09,31,1.3,0.8,1.0*31
$GPRMC,042916.000,A,5411.2601,N,08337.2185,E,68.51,325.33,051016,,,A*5E
$GPGGA,042917.000,5411.2756,N,08337.2001,E,1,12,0.8,440.9,M,-37.7,M,,0000*72
$GPGSA,A,3,02,12,06,57,25,19,05,17,23,29,09,31,1.3,0.8,1.0*31
$GPGSV,3,1,12,02,76,218,18,12,61,243,16,06,60,070,35,57,44,100,27*78
$GPGSV,3,2,12,25,39,302,17,19,32,105,28,05,16,179,20,17,14,108,24*75
$GPGSV,3,3,12,23,11,048,34,29,11,287,20,09,09,079,29,31,09,340,21*7E
$GPRMC,042917.000,A,5411.2756,N,08337.2001,E,68.17,323.72,051016,,,A*50
$GPGGA,042918.000,5411.2910,N,08337.1814,E,1,12,0.8,441.5,M,-37.7,M,,0000*73
$GPGSA,A,3,02,12,06,57,25,19,05,17,23,29,09,31,1.3,0.8,1.0*31
$GPRMC,042918.000,A,5411.2910,N,08337.1814,E,68.87,323.19,051016,,,A*58
$GPGGA,042919.000,5411.3064,N,08337.1624,E,1,12,0.8,442.1,M,-37.7,M,,0000*73
$GPGSA,A,3,02,12,06,57,25,19,05,17,23,29,09,31,1.3,0.8,1.0*31
$GPRMC,042919.000,A,5411.3064,N,08337.1624,E,67.57,322.31,051016,,,A*56
$GPGGA,042920.000,5411.3215,N,08337.1427,E,1,12,0.8,442.6,M,-37.7,M,,0000*7B
$GPGSA,A,3,02,12,06,57,25,19,05,17,23,29,09,31,1.3,0.8,1.0*31
$GPRMC,042920.000,A,5411.3215,N,08337.1427,E,68.28,320.53,051016,,,A*58
$GPGGA,042921.000,5411.3365,N,08337.1222,E,1,12,0.8,442.8,M,-37.7,M,,0000*71
$GPGSA,A,3,02,12,06,57,25,19,05,17,23,29,09,31,1.3,0.8,1.0*31
$GPRMC,042921.000,A,5411.3365,N,08337.1222,E,68.78,318.81,051016,,,A*5D
$GPGGA,042922.000,5411.3511,N,08337.1012,E,1,12,0.8,442.9,M,-37.7,M,,0000*77
$GPGSA,A,3,02,12,06,57,25,19,05,17,23,29,09,31,1.3,0.8,1.0*31
$GPGSV,3,1,12,02,76,218,25,12,61,243,24,06,60,070,36,57,44,100,26*75
$GPGSV,3,2,12,25,39,302,18,19,32,105,18,05,16,179,19,17,14,108,20*77
$GPGSV,3,3,12,23,11,048,30,29,11,287,18,09,09,079,29,31,09,340,24*74
$GPRMC,042922.000,A,5411.3511,N,08337.1012,E,68.72,317.30,051016,,,A*55
$GPGGA,042923.000,5411.3650,N,08337.0793,E,1,12,0.8,442.8,M,-37.7,M,,0000*7E
$GPGSA,A,3,02,12,06,57,25,19,05,17,23,29,09,31,1.3,0.8,1.0*31
$GPRMC,042923.000,A,5411.3650,N,08337.0793,E,67.47,315.94,051016,,,A*58
$GPGGA,042924.000,5411.3782,N,08337.0567,E,1,12,0.8,442.0,M,-37.7,M,,0000*76
$GPGSA,A,3,02,12,06,57,25,19,05,17,23,29,09,31,1.3,0.8,1.0*31
$GPRMC,042924.000,A,5411.3782,N,08337.0567,E,67.24,315.05,051016,,,A*55
$GPGGA,042925.000,5411.3910,N,08337.0341,E,1,12,0.8,441.2,M,-37.7,M,,0000*71
$GPGSA,A,3,02,12,06,57,25,19,05,17,23,29,09,31,1.3,0.8,1.0*31
$GPRMC,042925.000,A,5411.3910,N,08337.0341,E,65.62,314.16,051016,,,A*50
$GPGGA,042926.000,5411.4037,N,08337.0113,E,1,12,0.8,441.3,M,-37.7,M,,0000*7D
$GPGSA,A,3,02,12,06,57,25,19,05,17,23,29,09,31,1.3,0.8,1.0*31
$GPRMC,042926.000,A,5411.4037,N,08337.0113,E,65.65,313.28,051016,,,A*50
$GPGGA,042927.000,5411.4161,N,08336.9874,E,1,12,0.8,440.8,M,-37.7,M,,0000*74
$GPGSA,A,3,02,12,06,57,25,19,05,17,23,29,09,31,1.3,0.8,1.0*31
$GPGSV,3,1,12,02,76,218,18,12,61,243,12,06,60,070,35,57,44,100,25*7E
$GPGSV,3,2,12,25,39,302,23,19,32,105,18,05,16,179,11,17,14,108,19*7D
$GPGSV,3,3,12,23,11,048,31,29,11,287,18,09,09,079,29,31,09,340,26*77
$GPRMC,042927.000,A,5411.4161,N,08336.9874,E,65.63,311.86,051016,,,A*53
$GPGGA,042928.000,5411.4275,N,08336.9633,E,1,12,0.8,439.3,M,-37.7,M,,0000*75
$GPGSA,A,3,02,12,06,57,25,19,05,17,23,29,09,31,1.3,0.8,1.0*31
$GPRMC,042928.000,A,5411.4275,N,08336.9633,E,64.54,310.69,051016,,,A*52
$GPGGA,042929.000,5411.4392,N,08336.9394,E,1,12,0.8,438.9,M,-37.7,M,,0000*7F
$GPGSA,A,3,02,12,06,57,25,19,05,17,23,29,09,31,1.3,0.8,1.0*31
$GPRMC,042929.000,A,5411.4392,N,08336.9394,E,64.96,310.00,051016,,,A*52
$GPGGA,042930.000,5411.4506,N,08336.9161,E,1,12,0.8,438.2,M,-37.7,M,,0000*7F
$GPGSA,A,3,02,12,06,57,25,19,05,17,23,29,09,31,1.3,0.8,1.0*31
$GPRMC,042930.000,A,5411.4506,N,08336.9161,E,64.12,310.41,051016,,,A*50
$GPGGA,042931.000,5411.4620,N,08336.8929,E,1,12,0.8,438.0,M,-37.7,M,,0000*7E
$GPGSA,A,3,02,12,06,57,25,19,05,17,23,29,09,31,1.3,0.8,1.0*31
$GPRMC,042931.000,A,5411.4620,N,08336.8929,E,64.08,309.66,051016,,,A*55
$GPGGA,042932.000,5411.4732,N,08336.8693,E,1,12,0.8,437.2,M,-37.7,M,,0000*7C
$GPGSA,A,3,02,12,06,57,25,19,05,17,23,29,09,31,1.3,0.8,1.0*31
$GPGSV,3,1,12,02,76,218,21,12,61,243,15,06,60,070,34,57,44,100,21*76
$GPGSV,3,2,12,25,39,302,22,19,32,105,24,05,16,179,14,17,14,108,20*7C
$GPGSV,3,3,12,23,11,048,32,29,11,287,16,09,09,079,30,31,09,340,29*7D
$GPRMC,042932.000,A,5411.4732,N,08336.8693,E,64.53,309.90,051016,,,A*5D
$GPGGA,042933.000,5411.4844,N,08336.8459,E,1,12,0.8,436.3,M,-37.7,M,,0000*77
$GPGSA,A,3,02,12,06,57,25,19,05,17,23,29,09,31,1.3,0.8,1.0*31
$GPRMC,042933.000,A,5411.4844,N,08336.8459,E,64.07,309.96,051016,,,A*51
$GPGGA,042934.000,5411.4955,N,08336.8229,E,1,11,0.8,435.2,M,-37.7,M,,0000*71
$GPGSA,A,3,02,06,57,25,19,05,17,23,29,09,31,,1.4,0.8,1.1*34
$GPRMC,042934.000,A,5411.4955,N,08336.8229,E,63.06,309.95,051016,,,A*53
$GPGGA,042935.000,5411.5066,N,08336.7995,E,1,11,0.8,434.7,M,-37.7,M,,0000*7F
$GPGSA,A,3,02,06,57,25,19,05,17,23,29,09,31,,1.4,0.8,1.1*34
$GPRMC,042935.000,A,5411.5066,N,08336.7995,E,62.88,309.22,051016,,,A*52
$GPGGA,042936.000,5411.5175,N,08336.7764,E,1,11,0.8,433.7,M,-37.7,M,,0000*78
$GPGSA,A,3,02,06,57,25,19,05,17,23,29,09,31,,1.4,0.8,1.1*34
$GPRMC,042936.000,A,5411.5175,N,08336.7764,E,61.99,309.39,051016,,,A*5B
$GPGGA,042937.000,5411.5285,N,08336.7538,E,1,11,0.8,432.8,M,-37.7,M,,0000*70
$GPGSA,A,3,02,06,57,25,19,05,17,23,29,09,31,,1.4,0.8,1.1*34
$GPGSV,3,1,12,02,76,218,20,06,60,070,34,57,44,100,22,25,39,302,22*7D
$GPGSV,3,2,12,19,32,105,24,05,16,179,14,17,14,108,19,23,11,048,32*76
$GPGSV,3,3,12,29,11,287,16,09,09,079,30,31,09,340,28,12,61,243,15*75
$GPRMC,042937.000,A,5411.5285,N,08336.7538,E,61.73,309.51,051016,,,A*57
$GPGGA,042938.000,5411.5391,N,08336.7311,E,1,11,0.8,431.4,M,-37.7,M,,0000*79
$GPGSA,A,3,02,06,57,25,19,05,17,23,29,09,31,,1.4,0.8,1.1*34
$GPRMC,042938.000,A,5411.5391,N,08336.7311,E,61.09,308.97,051016,,,A*57
$GPGGA,042939.000,5411.5497,N,08336.7085,E,1,11,0.8,430.2,M,-37.7,M,,0000*70
$GPGSA,A,3,02,06,57,25,19,05,17,23,29,09,31,,1.4,0.8,1.1*34
$GPRMC,042939.000,A,5411.5497,N,08336.7085,E,60.97,308.69,051016,,,A*5E
$GPGGA,042940.000,5411.5603,N,08336.6860,E,1,12,0.8,429.5,M,-37.7,M,,0000*7F
$GPGSA,A,3,02,12,06,57,25,19,05,17,23,29,09,31,1.3,0.8,1.0*31
$GPRMC,042940.000,A,5411.5603,N,08336.6860,E,60.39,308.45,051016,,,A*57
$GPGGA,042941.000,5411.5707,N,08336.6635,E,1,12,0.8,428.9,M,-37.7,M,,0000*78
$GPGSA,A,3,02,12,06,57,25,19,05,17,23,29,09,31,1.3,0.8,1.0*31
$GPRMC,042941.000,A,5411.5707,N,08336.6635,E,59.95,308.95,051016,,,A*5C
$GPGGA,042942.000,5411.5813,N,08336.6413,E,1,12,0.8,428.8,M,-37.7,M,,0000*76
$GPGSA,A,3,02,12,06,57,25,19,05,17,23,29,09,31,1.3,0.8,1.0*31
$GPGSV,3,1,12,02,76,218,21,12,61,243,16,06,60,070,34,57,44,100,22*76
$GPGSV,3,2,12,25,39,302,23,19,32,105,23,05,16,179,14,17,14,108,19*70
$GPGSV,3,3,12,23,11,048,32,29,11,287,16,09,09,079,31,31,09,340,28*7D
$GPRMC,042942.000,A,5411.5813,N,08336.6413,E,59.12,308.75,051016,,,A*52
$GPGGA,042943.000,5411.5913,N,08336.6193,E,1,12,0.8,427.9,M,-37.7,M,,0000*75
$GPGSA,A,3,02,12,06,57,25,19,05,17,23,29,09,31,1.3,0.8,1.0*31
$GPRMC,042943.000,A,5411.5913,N,08336.6193,E,58.90,308.58,051016,,,A*5B
$GPGGA,042944.000,5411.6014,N,08336.5978,E,1,11,0.8,427.4,M,-37.7,M,,0000*7F
$GPGSA,A,3,02,12,06,57,19,05,17,23,29,09,31,,1.3,0.8,1.0*36
$GPRMC,042944.000,A,5411.6014,N,08336.5978,E,57.65,309.26,051016,,,A*52
$GPGGA,042945.000,5411.6115,N,08336.5767,E,1,12,0.8,427.1,M,-37.7,M,,0000*78
$GPGSA,A,3,02,12,06,57,25,19,05,17,23,29,09,31,1.3,0.8,1.0*31
$GPRMC,042945.000,A,5411.6115,N,08336.5767,E,57.62,309.54,051016,,,A*51
$GPGGA,042946.000,5411.6221,N,08336.5553,E,1,12,0.8,427.4,M,-37.7,M,,0000*7F
$GPGSA,A,3,02,12,06,57,25,19,05,17,23,29,09,31,1.3,0.8,1.0*31
$GPRMC,042946.000,A,5411.6221,N,08336.5553,E,59.18,309.87,051016,,,A*5E
$GPGGA,042947.000,5411.6327,N,08336.5338,E,1,12,0.8,428.0,M,-37.7,M,,0000*79
$GPGSA,A,3,02,12,06,57,25,19,05,17,23,29,09,31,1.3,0.8,1.0*31
$GPGSV,3,1,12,02,76,218,21,12,61,243,17,06,60,070,33,57,44,100,22*70
$GPGSV,3,2,12,25,39,302,20,19,32,105,24,05,16,179,14,17,14,108,20*7E
$GPGSV,3,3,12,23,11,048,32,29,11,287,16,09,09,079,30,31,09,340,26*72
$GPRMC,042947.000,A,5411.6327,N,08336.5338,E,59.07,308.89,051016,,,A*52
$GPGGA,042948.000,5411.6431,N,08336.5126,E,1,12,0.8,428.2,M,-37.7,M,,0000*79
$GPGSA,A,3,02,12,06,57,25,19,05,17,23,29,09,31,1.3,0.8,1.0*31
$GPRMC,042948.000,A,5411.6431,N,08336.5126,E,58.74,309.86,051016,,,A*5B
$GPGGA,042949.000,5411.6537,N,08336.4917,E,1,12,0.8,428.5,M,-37.7,M,,0000*73
$GPGSA,A,3,02,12,06,57,25,19,05,17,23,29,09,31,1.3,0.8,1.0*31
$GPRMC,042949.000,A,5411.6537,N,08336.4917,E,58.38,311.29,051016,,,A*52
$GPGGA,042950.000,5411.6641,N,08336.4710,E,1,12,0.8,428.0,M,-37.7,M,,0000*75
$GPGSA,A,3,02,12,06,57,25,19,05,17,23,29,09,31,1.3,0.8,1.0*31
$GPRMC,042950.000,A,5411.6641,N,08336.4710,E,58.54,311.30,051016,,,A*53
$GPGGA,042951.000,5411.6745,N,08336.4500,E,1,12,0.8,427.2,M,-37.7,M,,0000*7F
$GPGSA,A,3,02,12,06,57,25,19,05,17,23,29,09,31,1.3,0.8,1.0*31
$GPRMC,042951.000,A,5411.6745,N,08336.4500,E,58.81,311.33,051016,,,A*5F
$GPGGA,042952.000,5411.6853,N,08336.4296,E,1,12,0.8,427.1,M,-37.7,M,,0000*7F
$GPGSA,A,3,02,12,06,57,25,19,05,17,23,29,09,31,1.3,0.8,1.0*31
$GPGSV,3,1,12,02,76,218,21,12,61,243,16,06,60,070,33,57,44,100,23*70
$GPGSV,3,2,12,25,39,302,21,19,32,105,24,05,16,179,14,17,14,108,20*7F
$GPGSV,3,3,12,23,11,048,32,29,11,287,17,09,09,079,28,31,09,340,26*7A
$GPRMC,042952.000,A,5411.6853,N,08336.4296,E,58.27,311.99,051016,,,A*50
$GPGGA,042953.000,5411.6961,N,08336.4092,E,1,12,0.8,426.3,M,-37.7,M,,0000*7B
$GPGSA,A,3,02,12,06,57,25,19,05,17,23,29,09,31,1.3,0.8,1.0*31
$GPRMC,042953.000,A,5411.6961,N,08336.4092,E,58.20,312.43,051016,,,A*54
$GPGGA,042954.000,5411.7069,N,08336.3889,E,1,12,0.8,425.7,M,-37.7,M,,0000*7E
$GPGSA,A,3,02,12,06,57,25,19,05,17,23,29,09,31,1.3,0.8,1.0*31
$GPRMC,042954.000,A,5411.7069,N,08336.3889,E,58.33,311.89,051016,,,A*51
$GPGGA,042955.000,5411.7175,N,08336.3681,E,1,12,0.8,425.1,M,-37.7,M,,0000*73
$GPGSA,A,3,02,12,06,57,25,19,05,17,23,29,09,31,1.3,0.8,1.0*31
$GPRMC,042955.000,A,5411.7175,N,08336.3681,E,58.95,311.09,051016,,,A*5E
$GPGGA,042956.000,5411.7279,N,08336.3471,E,1,12,0.8,424.7,M,-37.7,M,,0000*75
$GPGSA,A,3,02,12,06,57,25,19,05,17,23,29,09,31,1.3,0.8,1.0*31
$GPRMC,042956.000,A,5411.7279,N,08336.3471,E,58.28,310.48,051016,,,A*5D
$GPGGA,042957.000,5411.7385,N,08336.3260,E,1,12,0.8,425.0,M,-37.7,M,,0000*76
$GPGSA,A,3,02,12,06,57,25,19,05,17,23,29,09,31,1.3,0.8,1.0*31
$GPGSV,3,1,12,02,76,218,20,12,61,243,16,06,60,070,33,57,44,100,23*71
$GPGSV,3,2,12,25,39,302,21,19,32,105,23,05,16,179,16,17,14,108,22*78
$GPGSV,3,3,12,23,11,048,32,29,11,287,15,09,09,079,35,31,09,340,26*74
$GPRMC,042957.000,A,5411.7385,N,08336.3260,E,57.98,309.96,051016,,,A*57
$GPGGA,042958.000,5411.7488,N,08336.3048,E,1,12,0.8,424.9,M,-37.7,M,,0000*73
$GPGSA,A,3,02,12,06,57,25,19,05,17,23,29,09,31,1.3,0.8,1.0*31
$GPRMC,042958.000,A,5411.7488,N,08336.3048,E,58.22,309.70,051016,,,A*5C
$GPGGA,042959.000,5411.7589,N,08336.2833,E,1,12,0.8,424.3,M,-37.7,M,,0000*7D
$GPGSA,A,3,02,12,06,57,25,19,05,17,23,29,09,31,1.3,0.8,1.0*31
$GPRMC,042959.000,A,5411.7589,N,08336.2833,E,57.19,308.61,051016,,,A*5E
$GPGGA,043000.000,5411.7686,N,08336.2628,E,1,12,0.8,424.0,M,-37.7,M,,0000*72
$GPGSA,A,3,02,12,06,57,25,19,05,17,23,29,09,31,1.3,0.8,1.0*31
$GPRMC,043000.000,A,5411.7686,N,08336.2628,E,56.40,308.65,051016,,,A*5B
$GPGGA,043001.000,5411.7780,N,08336.2420,E,1,12,0.8,423.3,M,-37.7,M,,0000*7A
$GPGSA,A,3,02,12,06,57,25,19,05,17,23,29,09,31,1.3,0.8,1.0*31
$GPRMC,043001.000,A,5411.7780,N,08336.2420,E,55.63,308.06,051016,,,A*50
$GPGGA,043002.000,5411.7874,N,08336.2215,E,1,12,0.8,422.8,M,-37.7,M,,0000*77
$GPGSA,A,3,02,12,06,57,25,19,05,17,23,29,09,31,1.3,0.8,1.0*31
$GPGSV,3,1,12,02,76,218,20,12,61,243,15,06,60,070,33,57,44,100,23*72
$GPGSV,3,2,12,25,39,302,25,19,32,105,24,05,16,179,18,17,14,108,21*76
$GPGSV,3,3,12,23,11,048,32,29,11,287,15,09,09,079,28,31,09,340,27*79
$GPRMC,043002.000,A,5411.7874,N,08336.2215,E,55.67,308.49,051016,,,A*58
$GPGGA,043003.000,5411.7971,N,08336.2007,E,1,12,0.8,422.1,M,-37.7,M,,0000*7A
$GPGSA,A,3,02,12,06,57,25,19,05,17,23,29,09,31,1.3,0.8,1.0*31
$GPRMC,043003.000,A,5411.7971,N,08336.2007,E,56.81,308.53,051016,,,A*5C
$GPGGA,043004.000,5411.8070,N,08336.1797,E,1,12,0.8,421.5,M,-37.7,M,,0000*70
$GPGSA,A,3,02,12,06,57,25,19,05,17,29,23,09,31,1.3,0.8,1.0*31
$GPRMC,043004.000,A,5411.8070,N,08336.1797,E,57.17,308.92,051016,,,A*52
$GPGGA,043005.000,5411.8174,N,08336.1587,E,1,11,0.9,421.4,M,-37.7,M,,0000*74
$GPGSA,A,3,02,12,06,57,25,19,05,17,23,09,31,,1.4,0.9,1.1*3D
$GPRMC,043005.000,A,5411.8174,N,08336.1587,E,57.71,309.51,051016,,,A*5B
$GPGGA,043006.000,5411.8278,N,08336.1376,E,1,11,0.9,422.0,M,-37.7,M,,0000*77
$GPGSA,A,3,02,12,06,57,25,19,05,17,23,09,31,,1.4,0.9,1.1*3D
$GPRMC,043006.000,A,5411.8278,N,08336.1376,E,57.17,309.37,051016,,,A*5F
$GPGGA,043007.000,5411.8380,N,08336.1167,E,1,11,0.9,422.4,M,-37.7,M,,0000*76
$GPGSA,A,3,02,12,06,57,25,19,05,17,23,09,31,,1.4,0.9,1.1*3D
$GPGSV,3,1,12,02,77,217,21,12,61,242,15,06,59,070,33,57,44,100,23*76
$GPGSV,3,2,12,25,40,301,19,19,32,106,24,05,17,179,18,17,14,108,20*77
$GPGSV,3,3,12,23,11,048,32,09,10,078,31,31,09,340,27,29,11,287,06*7A
$GPRMC,043007.000,A,5411.8380,N,08336.1167,E,57.47,308.33,051016,,,A*5A
$GPGGA,043008.000,5411.8479,N,08336.0954,E,1,11,0.8,422.8,M,-37.7,M,,0000*7C
$GPGSA,A,3,02,12,06,57,25,19,05,29,23,09,31,,1.3,0.8,1.1*36
$GPRMC,043008.000,A,5411.8479,N,08336.0954,E,58.14,307.54,051016,,,A*5A
$GPGGA,043009.000,5411.8582,N,08336.0740,E,1,11,0.8,423.7,M,-37.7,M,,0000*7D
$GPGSA,A,3,02,12,06,57,25,19,05,29,23,09,31,,1.3,0.8,1.1*36
$GPRMC,043009.000,A,5411.8582,N,08336.0740,E,58.48,308.83,051016,,,A*59
$GPGGA,043010.000,5411.8686,N,08336.0525,E,1,11,0.8,424.3,M,-37.7,M,,0000*70
$GPGSA,A,3,02,12,06,57,25,19,05,29,23,09,31,,1.3,0.8,1.1*36
$GPRMC,043010.000,A,5411.8686,N,08336.0525,E,59.21,309.57,051016,,,A*51
$GPGGA,043011.000,5411.8793,N,08336.0306,E,1,11,0.8,425.0,M,-37.7,M,,0000*71
$GPGSA,A,3,02,12,06,57,25,19,05,29,23,09,31,,1.3,0.8,1.1*36
$GPRMC,043011.000,A,5411.8793,N,08336.0306,E,60.02,309.96,051016,,,A*54
$GPGGA,043012.000,5411.8903,N,08336.0088,E,1,11,0.8,426.0,M,-37.7,M,,0000*73
$GPGSA,A,3,02,12,06,57,25,19,05,29,23,09,31,,1.3,0.8,1.1*36
$GPGSV,3,1,12,02,77,217,20,12,61,242,15,06,59,070,33,57,44,100,18*7F
$GPGSV,3,2,12,25,40,301,20,19,32,106,18,05,17,179,18,29,11,287,12*7F
$GPGSV,3,3,12,23,11,048,29,09,10,078,31,31,09,340,27,17,14,108,*7A
$GPRMC,043012.000,A,5411.8903,N,08336.0088,E,59.81,310.74,051016,,,A*50
$GPGGA,043013.000,5411.9012,N,08335.9869,E,1,11,0.8,425.7,M,-37.7,M,,0000*73
$GPGSA,A,3,02,12,06,57,25,19,05,29,23,09,31,,1.3,0.8,1.1*36
$GPRMC,043013.000,A,5411.9012,N,08335.9869,E,61.11,309.89,051016,,,A*5C
$GPGGA,043014.000,5411.9127,N,08335.9646,E,1,12,0.8,426.0,M,-37.7,M,,0000*77
$GPGSA,A,3,02,12,06,57,25,19,05,17,29,23,09,31,1.3,0.8,1.0*31
$GPRMC,043014.000,A,5411.9127,N,08335.9646,E,60.89,311.40,051016,,,A*53
$GPGGA,043015.000,5411.9244,N,08335.9430,E,1,12,0.8,426.4,M,-37.7,M,,0000*77
$GPGSA,A,3,02,12,06,57,25,19,05,17,29,23,09,31,1.3,0.8,1.0*31
$GPRMC,043015.000,A,5411.9244,N,08335.9430,E,60.52,312.19,051016,,,A*5E
$GPGGA,043016.000,5411.9364,N,08335.9214,E,1,12,0.8,426.8,M,-37.7,M,,0000*7B
$GPGSA,A,3,02,12,06,57,25,19,05,17,29,23,09,31,1.3,0.8,1.0*31
$GPRMC,043016.000,A,5411.9364,N,08335.9214,E,62.05,312.88,051016,,,A*56
$GPGGA,043017.000,5411.9484,N,08335.8998,E,1,12,0.8,426.8,M,-37.7,M,,0000*7D
$GPGSA,A,3,02,12,06,57,25,19,05,17,29,23,09,31,1.3,0.8,1.0*31
$GPGSV,3,1,12,02,77,217,20,12,61,242,21,06,59,070,33,57,44,100,22*71
$GPGSV,3,2,12,25,40,301,21,19,32,106,20,05,17,179,18,17,14,108,21*79
$GPGSV,3,3,12,29,11,287,15,23,11,048,30,09,10,078,30,31,09,340,22*7E
$GPRMC,043017.000,A,5411.9484,N,08335.8998,E,61.59,312.60,051016,,,A*5C
$GPGGA,043018.000,5411.9600,N,08335.8778,E,1,12,0.8,426.1,M,-37.7,M,,0000*75
$GPGSA,A,3,02,12,06,57,25,19,05,17,29,23,09,31,1.3,0.8,1.0*31
$GPRMC,043018.000,A,5411.9600,N,08335.8778,E,61.59,312.29,051016,,,A*50
$GPGGA,043019.000,5411.9719,N,08335.8554,E,1,12,0.8,425.6,M,-37.7,M,,0000*75
$GPGSA,A,3,02,12,06,57,25,19,05,17,29,23,09,31,1.3,0.8,1.0*31
$GPRMC,043019.000,A,5411.9719,N,08335.8554,E,62.99,311.75,051016,,,A*51
$GPGGA,043020.000,5411.9835,N,08335.8326,E,1,12,0.8,425.2,M,-37.7,M,,0000*79
$GPGSA,A,3,02,12,06,57,25,19,05,17,29,23,09,31,1.3,0.8,1.0*31
$GPRMC,043020.000,A,5411.9835,N,08335.8326,E,62.43,310.83,051016,,,A*56
$GPGGA,043021.000,5411.9956,N,08335.8076,E,1,12,0.8,423.2,M,-37.7,M,,0000*7C
$GPGSA,A,3,02,12,06,57,25,19,05,17,29,23,09,31,1.3,0.8,1.0*31
$GPRMC,043021.000,A,5411.9956,N,08335.8076,E,64.28,309.79,051016,,,A*53
$GPGGA,043022.000,5412.0075,N,08335.7823,E,1,12,0.8,421.5,M,-37.7,M,,0000*7F
$GPGSA,A,3,02,12,06,57,25,19,05,17,29,23,09,31,1.3,0.8,1.0*31
$GPGSV,3,1,12,02,77,217,20,12,61,242,19,06,59,070,33,57,44,100,23*7B
$GPGSV,3,2,12,25,40,301,21,19,32,106,20,05,17,179,18,17,14,108,19*72
$GPGSV,3,3,12,29,11,287,14,23,11,048,30,09,10,078,30,31,09,340,28*75
$GPRMC,043022.000,A,5412.0075,N,08335.7823,E,65.35,308.97,051016,,,A*59
$GPGGA,043023.000,5412.0191,N,08335.7572,E,1,12,0.8,420.3,M,-37.7,M,,0000*7B
$GPGSA,A,3,02,12,06,57,25,19,05,17,29,23,09,31,1.3,0.8,1.0*31
$GPRMC,043023.000,A,5412.0191,N,08335.7572,E,65.05,307.73,051016,,,A*5C
$GPGGA,043024.000,5412.0299,N,08335.7322,E,1,12,0.8,418.6,M,-37.7,M,,0000*7A
$GPGSA,A,3,02,12,06,57,25,19,05,17,29,23,09,31,1.3,0.8,1.0*31
$GPRMC,043024.000,A,5412.0299,N,08335.7322,E,64.43,306.92,051016,,,A*5E
$GPGGA,043025.000,5412.0404,N,08335.7078,E,1,12,0.8,417.6,M,-37.7,M,,0000*7A
$GPGSA,A,3,02,12,06,57,25,19,05,17,29,23,09,31,1.3,0.8,1.0*31
$GPRMC,043025.000,A,5412.0404,N,08335.7078,E,63.77,306.37,051016,,,A*5E
$GPGGA,043026.000,5412.0506,N,08335.6834,E,1,12,0.8,416.7,M,-37.7,M,,0000*7B
$GPGSA,A,3,02,12,06,57,25,19,05,17,29,23,09,31,1.3,0.8,1.0*31
$GPRMC,043026.000,A,5412.0506,N,08335.6834,E,62.92,305.30,051016,,,A*51
$GPGGA,043027.000,5412.0608,N,08335.6595,E,1,12,0.8,416.2,M,-37.7,M,,0000*74
$GPGSA,A,3,02,12,06,57,25,19,05,17,29,23,09,31,1.3,0.8,1.0*31
$GPGSV,3,1,12,02,77,217,20,12,61,242,18,06,59,070,33,57,44,100,23*7A
$GPGSV,3,2,12,25,40,301,23,19,32,106,21,05,17,179,19,17,14,108,19*70
$GPGSV,3,3,12,29,11,287,13,23,11,048,31,09,10,078,30,31,09,340,28*73
$GPRMC,043027.000,A,5412.0608,N,08335.6595,E,62.44,306.10,051016,,,A*51
$GPGGA,043028.000,5412.0707,N,08335.6360,E,1,12,0.8,415.6,M,-37.7,M,,0000*7E
$GPGSA,A,3,02,12,06,57,25,19,05,17,29,23,09,31,1.3,0.8,1.0*31
$GPRMC,043028.000,A,5412.0707,N,08335.6360,E,61.42,305.64,051016,,,A*59
$GPGGA,043029.000,5412.0807,N,08335.6128,E,1,12,0.8,415.3,M,-37.7,M,,0000*7B
$GPGSA,A,3,02,12,06,57,25,19,05,17,29,23,09,31,1.3,0.8,1.0*31
$GPRMC,043029.000,A,5412.0807,N,08335.6128,E,60.95,307.01,051016,,,A*53
$GPGGA,043030.000,5412.0909,N,08335.5897,E,1,12,0.8,414.9,M,-37.7,M,,0000*79
$GPGSA,A,3,02,12,06,57,25,19,05,17,29,23,09,31,1.3,0.8,1.0*31
$GPRMC,043030.000,A,5412.0909,N,08335.5897,E,60.66,307.96,051016,,,A*58
$GPGGA,043031.000,5412.1011,N,08335.5671,E,1,12,0.8,414.7,M,-37.7,M,,0000*71
$GPGSA,A,3,02,12,06,57,25,19,05,17,29,23,09,31,1.3,0.8,1.0*31
$GPRMC,043031.000,A,5412.1011,N,08335.5671,E,60.85,307.81,051016,,,A*55
$GPGGA,043032.000,5412.1113,N,08335.5445,E,1,12,0.8,414.3,M,-37.7,M,,0000*70
$GPGSA,A,3,02,12,06,57,25,19,05,17,29,23,09,31,1.3,0.8,1.0*31
$GPGSV,3,1,12,02,77,217,21,12,61,242,18,06,59,070,33,57,44,100,23*7B
$GPGSV,3,2,12,25,40,301,24,19,32,106,23,05,17,179,20,17,14,108,18*7E
$GPGSV,3,3,12,29,11,287,16,23,11,048,30,09,10,078,29,31,09,340,28*7F
$GPRMC,043032.000,A,5412.1113,N,08335.5445,E,60.15,308.16,051016,,,A*58
$GPGGA,043033.000,5412.1215,N,08335.5218,E,1,12,0.8,414.0,M,-37.7,M,,0000*79
$GPGSA,A,3,02,12,06,57,25,19,05,17,29,23,09,31,1.3,0.8,1.0*31
$GPRMC,043033.000,A,5412.1215,N,08335.5218,E,61.05,307.99,051016,,,A*5A
$GPGGA,043034.000,5412.1317,N,08335.4992,E,1,12,0.8,414.2,M,-37.7,M,,0000*77
$GPGSA,A,3,02,12,06,57,25,19,05,17,29,23,09,31,1.3,0.8,1.0*31
$GPRMC,043034.000,A,5412.1317,N,08335.4992,E,61.02,307.75,051016,,,A*53
$GPGGA,043035.000,5412.1417,N,08335.4768,E,1,12,0.8,414.3,M,-37.7,M,,0000*7B
$GPGSA,A,3,02,12,06,57,25,19,05,17,29,23,09,31,1.3,0.8,1.0*31
$GPRMC,043035.000,A,5412.1417,N,08335.4768,E,59.89,307.41,051016,,,A*51
$GPGGA,043036.000,5412.1517,N,08335.4545,E,1,12,0.8,414.4,M,-37.7,M,,0000*73
$GPGSA,A,3,02,12,06,57,25,19,05,17,29,23,09,31,1.3,0.8,1.0*31
$GPRMC,043036.000,A,5412.1517,N,08335.4545,E,60.23,307.65,051016,,,A*52
$GPGGA,043037.000,5412.1621,N,08335.4322,E,1,12,0.8,414.5,M,-37.7,M,,0000*72
$GPGSA,A,3,02,12,06,57,25,19,05,17,29,23,09,31,1.3,0.8,1.0*31
$GPGSV,3,1,12,02,77,217,21,12,61,242,17,06,59,070,33,57,44,100,23*74
$GPGSV,3,2,12,25,40,301,20,19,32,106,23,05,17,179,19,17,14,108,18*70
$GPGSV,3,3,12,29,11,287,16,23,11,048,30,09,10,078,29,31,09,340,28*7F
$GPRMC,043037.000,A,5412.1621,N,08335.4322,E,60.85,308.73,051016,,,A*56
$GPGGA,043038.000,5412.1728,N,08335.4102,E,1,12,0.8,415.0,M,-37.7,M,,0000*71
$GPGSA,A,3,02,12,06,57,25,19,05,17,29,23,09,31,1.3,0.8,1.0*31
$GPRMC,043038.000,A,5412.1728,N,08335.4102,E,60.66,309.42,051016,,,A*5F
$GPGGA,043039.000,5412.1836,N,08335.3886,E,1,12,0.8,415.9,M,-37.7,M,,0000*7B
$GPGSA,A,3,02,12,06,57,25,19,05,17,29,23,09,31,1.3,0.8,1.0*31
$GPRMC,043039.000,A,5412.1836,N,08335.3886,E,60.96,310.18,051016,,,A*54
$GPGGA,043040.000,5412.1944,N,08335.3672,E,1,12,0.8,416.4,M,-37.7,M,,0000*7A
$GPGSA,A,3,02,12,06,57,25,19,05,17,29,23,09,31,1.3,0.8,1.0*31
$GPRMC,043040.000,A,5412.1944,N,08335.3672,E,60.36,310.50,051016,,,A*5D
$GPGGA,043041.000,5412.2055,N,08335.3458,E,1,12,0.8,416.8,M,-37.7,M,,0000*77
$GPGSA,A,3,02,12,06,57,25,19,05,17,29,23,09,31,1.3,0.8,1.0*31
$GPRMC,043041.000,A,5412.2055,N,08335.3458,E,61.69,311.29,051016,,,A*58
$GPGGA,043042.000,5412.2168,N,08335.3241,E,1,12,0.8,417.7,M,-37.7,M,,0000*7B
$GPGSA,A,3,02,12,06,57,25,19,05,17,29,23,09,31,1.3,0.8,1.0*31
$GPGSV,3,1,12,02,77,217,21,12,61,242,18,06,59,070,33,57,44,100,23*7B
$GPGSV,3,2,12,25,40,301,20,19,32,106,22,05,17,179,19,17,14,108,16*7F
$GPGSV,3,3,12,29,11,287,15,23,11,048,30,09,10,078,28,31,09,340,24*71
$GPRMC,043042.000,A,5412.2168,N,08335.3241,E,62.16,310.66,051016,,,A*5B
$GPGGA,043043.000,5412.2282,N,08335.3025,E,1,12,0.8,418.2,M,-37.7,M,,0000*77
$GPGSA,A,3,02,12,06,57,25,19,05,17,29,23,09,31,1.3,0.8,1.0*31
$GPRMC,043043.000,A,5412.2282,N,08335.3025,E,61.64,312.00,051016,,,A*59
$GPGGA,043044.000,5412.2398,N,08335.2808,E,1,12,0.8,418.8,M,-37.7,M,,0000*76
$GPGSA,A,3,02,12,06,57,25,19,05,17,29,23,09,31,1.3,0.8,1.0*31
$GPRMC,043044.000,A,5412.2398,N,08335.2808,E,63.30,311.93,051016,,,A*58
$GPGGA,043045.000,5412.2515,N,08335.2587,E,1,12,0.8,418.5,M,-37.7,M,,0000*73
$GPGSA,A,3,02,12,06,57,25,19,05,17,29,23,09,31,1.3,0.8,1.0*31
$GPRMC,043045.000,A,5412.2515,N,08335.2587,E,64.07,312.29,051016,,,A*51
$GPGGA,043046.000,5412.2634,N,08335.2370,E,1,12,0.8,418.2,M,-37.7,M,,0000*79
$GPGSA,A,3,02,12,06,57,25,19,05,17,29,23,09,31,1.3,0.8,1.0*31
$GPRMC,043046.000,A,5412.2634,N,08335.2370,E,62.66,313.07,051016,,,A*50
$GPGGA,043047.000,5412.2753,N,08335.2155,E,1,12,0.8,417.8,M,-37.7,M,,0000*78
$GPGSA,A,3,02,12,06,57,25,19,05,17,29,23,09,31,1.3,0.8,1.0*31
$GPGSV,3,1,12,02,77,217,20,12,61,242,16,06,59,070,33,57,44,100,23*74
$GPGSV,3,2,12,25,40,301,20,19,32,106,22,05,17,179,18,17,14,108,15*7D
$GPGSV,3,3,12,29,11,287,16,23,11,048,31,09,10,078,28,31,09,340,26*71
$GPRMC,043047.000,A,5412.2753,N,08335.2155,E,62.89,313.31,051016,,,A*50
$GPGGA,043048.000,5412.2869,N,08335.1943,E,1,12,0.8,417.4,M,-37.7,M,,0000*71
$GPGSA,A,3,02,12,06,57,25,19,05,17,29,23,09,31,1.3,0.8,1.0*31
$GPRMC,043048.000,A,5412.2869,N,08335.1943,E,60.90,312.56,051016,,,A*5F
$GPGGA,043049.000,5412.2981,N,08335.1730,E,1,12,0.8,417.2,M,-37.7,M,,0000*7B
$GPGSA,A,3,02,12,06,57,25,19,05,17,29,23,09,31,1.3,0.8,1.0*31
$GPRMC,043049.000,A,5412.2981,N,08335.1730,E,60.92,312.19,051016,,,A*5A
$GPGGA,043050.000,5412.3092,N,08335.1514,E,1,12,0.8,416.9,M,-37.7,M,,0000*77
$GPGSA,A,3,02,12,06,57,25,19,05,17,29,23,09,31,1.3,0.8,1.0*31
$GPRMC,043050.000,A,5412.3092,N,08335.1514,E,61.32,311.50,051016,,,A*59
$GPGGA,043051.000,5412.3203,N,08335.1300,E,1,12,0.8,416.3,M,-37.7,M,,0000*75
$GPGSA,A,3,02,12,06,57,25,19,05,17,29,23,09,31,1.3,0.8,1.0*31
$GPRMC,043051.000,A,5412.3203,N,08335.1300,E,60.74,312.43,051016,,,A*53
$GPGGA,043052.000,5412.3315,N,08335.1086,E,1,12,0.8,416.3,M,-37.7,M,,0000*7D
$GPGSA,A,3,02,12,06,57,25,19,05,17,29,23,09,31,1.3,0.8,1.0*31
$GPGSV,3,1,12,02,77,217,20,12,61,242,15,06,59,070,34,57,44,100,24*77
$GPGSV,3,2,12,25,40,301,20,19,32,106,22,05,17,179,17,17,14,108,18*7F
$GPGSV,3,3,12,29,11,287,18,23,11,048,31,09,10,078,29,31,09,340,26*7E
$GPRMC,043052.000,A,5412.3315,N,08335.1086,E,60.63,311.08,051016,,,A*51
$GPGGA,043053.000,5412.3428,N,08335.0871,E,1,12,0.8,416.5,M,-37.7,M,,0000*72
$GPGSA,A,3,02,12,06,57,25,19,05,17,29,23,09,31,1.3,0.8,1.0*31
$GPRMC,043053.000,A,5412.3428,N,08335.0871,E,60.47,311.84,051016,,,A*5A
$GPGGA,043054.000,5412.3541,N,08335.0655,E,1,12,0.8,416.8,M,-37.7,M,,0000*7E
$GPGSA,A,3,02,12,06,57,25,19,05,17,29,23,09,31,1.3,0.8,1.0*31
$GPRMC,043054.000,A,5412.3541,N,08335.0655,E,61.00,311.28,051016,,,A*5F
$GPGGA,043055.000,5412.3653,N,08335.0436,E,1,12,0.8,417.2,M,-37.7,M,,0000*73
$GPGSA,A,3,02,12,06,57,25,19,05,17,29,23,09,31,1.3,0.8,1.0*31
$GPRMC,043055.000,A,5412.3653,N,08335.0436,E,60.83,310.85,051016,,,A*55
$GPGGA,043056.000,5412.3766,N,08335.0216,E,1,12,0.8,417.2,M,-37.7,M,,0000*73
$GPGSA,A,3,02,12,06,57,25,19,05,17,29,23,09,31,1.3,0.8,1.0*31
$GPRMC,043056.000,A,5412.3766,N,08335.0216,E,61.01,311.54,051016,,,A*53
$GPGGA,043057.000,5412.3879,N,08334.9996,E,1,12,0.8,417.3,M,-37.7,M,,0000*79
$GPGSA,A,3,02,12,06,57,25,19,05,17,29,23,09,31,1.3,0.8,1.0*31
$GPGSV,3,1,12,02,77,217,19,12,61,241,15,06,59,070,34,57,44,100,24*7E
$GPGSV,3,2,12,25,40,301,21,19,32,106,23,05,17,179,18,17,13,108,22*7E
$GPGSV,3,3,12,29,12,288,17,23,11,047,32,09,10,078,29,31,09,339,27*7E
$GPRMC,043057.000,A,5412.3879,N,08334.9996,E,60.83,310.67,051016,,,A*52
$GPGGA,043058.000,5412.3993,N,08334.9774,E,1,12,0.8,417.5,M,-37.7,M,,0000*77
$GPGSA,A,3,02,12,06,57,25,19,05,17,29,23,09,31,1.3,0.8,1.0*31
$GPRMC,043058.000,A,5412.3993,N,08334.9774,E,61.61,310.85,051016,,,A*5B
$GPGGA,043059.000,5412.4105,N,08334.9554,E,1,12,0.8,417.5,M,-37.7,M,,0000*76
$GPGSA,A,3,02,12,06,57,25,19,05,17,29,23,09,31,1.3,0.8,1.0*31
$GPRMC,043059.000,A,5412.4105,N,08334.9554,E,61.18,311.18,051016,,,A*51
$GPGGA,043100.000,5412.4215,N,08334.9340,E,1,12,0.8,417.9,M,-37.7,M,,0000*76
$GPGSA,A,3,02,12,06,57,25,19,05,17,29,23,09,31,1.3,0.8,1.0*31
$GPRMC,043100.000,A,5412.4215,N,08334.9340,E,59.78,311.16,051016,,,A*5E
$GPGGA,043101.000,5412.4325,N,08334.9128,E,1,12,0.8,418.4,M,-37.7,M,,0000*7B
$GPGSA,A,3,02,12,06,57,25,19,05,17,29,23,09,31,1.3,0.8,1.0*31
$GPRMC,043101.000,A,5412.4325,N,08334.9128,E,59.91,311.79,051016,,,A*5F
$GPGGA,043102.000,5412.4438,N,08334.8915,E,1,12,0.8,419.1,M,-37.7,M,,0000*70
$GPGSA,A,3,02,12,06,57,25,19,05,17,29,23,09,31,1.3,0.8,1.0*31
$GPGSV,3,1,12,02,77,217,20,12,61,241,16,06,59,070,34,57,44,100,25*76
$GPGSV,3,2,12,25,40,301,21,19,32,106,24,05,17,179,18,17,13,108,21*7A
$GPGSV,3,3,12,29,12,288,17,23,11,047,32,09,10,078,30,31,09,339,27*76
$GPRMC,043102.000,A,5412.4438,N,08334.8915,E,60.58,312.04,051016,,,A*56
$GPGGA,043103.000,5412.4550,N,08334.8698,E,1,12,0.8,419.6,M,-37.7,M,,0000*73
$GPGSA,A,3,02,12,06,57,25,19,05,17,29,23,09,31,1.3,0.8,1.0*31
$GPRMC,043103.000,A,5412.4550,N,08334.8698,E,60.96,310.85,051016,,,A*5B
$GPGGA,043104.000,5412.4660,N,08334.8479,E,1,12,0.8,419.7,M,-37.7,M,,0000*78
$GPGSA,A,3,02,12,06,57,25,19,05,17,29,23,09,31,1.3,0.8,1.0*31
$GPRMC,043104.000,A,5412.4660,N,08334.8479,E,60.83,310.99,051016,,,A*58
$GPGGA,043105.000,5412.4771,N,08334.8264,E,1,12,0.8,420.0,M,-37.7,M,,0000*7F
$GPGSA,A,3,02,12,06,57,25,19,05,17,29,23,09,31,1.3,0.8,1.0*31
$GPRMC,043105.000,A,5412.4771,N,08334.8264,E,60.55,311.90,051016,,,A*51
$GPGGA,043106.000,5412.4885,N,08334.8049,E,1,12,0.8,420.5,M,-37.7,M,,0000*70
$GPGSA,A,3,02,12,06,57,25,19,05,17,29,23,09,31,1.3,0.8,1.0*31
$GPRMC,043106.000,A,5412.4885,N,08334.8049,E,61.80,312.26,051016,,,A*5C
$GPGGA,043107.000,5412.4999,N,08334.7833,E,1,12,0.8,420.5,M,-37.7,M,,0000*77
$GPGSA,A,3,02,12,06,57,25,19,05,17,29,23,09,31,1.3,0.8,1.0*31
$GPGSV,3,1,12,02,77,217,21,12,61,241,17,06,59,070,34,57,44,100,25*76
$GPGSV,3,2,12,25,40,301,17,19,32,106,24,05,17,179,17,17,13,108,21*70
$GPGSV,3,3,12,29,12,288,17,23,11,047,28,09,10,078,30,31,09,339,27*7D
$GPRMC,043107.000,A,5412.4999,N,08334.7833,E,61.11,312.00,051016,,,A*57
$GPGGA,043108.000,5412.5111,N,08334.7618,E,1,12,0.8,420.3,M,-37.7,M,,0000*70
$GPGSA,A,3,02,12,06,57,25,19,05,17,29,23,09,31,1.3,0.8,1.0*31
$GPRMC,043108.000,A,5412.5111,N,08334.7618,E,61.16,312.86,051016,,,A*5F
$GPGGA,043109.000,5412.5220,N,08334.7404,E,1,12,0.8,420.3,M,-37.7,M,,0000*7F
$GPGSA,A,3,02,12,06,57,25,19,05,17,29,23,09,31,1.3,0.8,1.0*31
$GPRMC,043109.000,A,5412.5220,N,08334.7404,E,60.63,311.77,051016,,,A*5E
$GPGGA,043110.000,5412.5333,N,08334.7189,E,1,12,0.8,420.6,M,-37.7,M,,0000*71
$GPGSA,A,3,02,12,06,57,25,19,05,17,29,23,09,31,1.3,0.8,1.0*31
$GPRMC,043110.000,A,5412.5333,N,08334.7189,E,61.59,311.71,051016,,,A*5B
$GPGGA,043111.000,5412.5445,N,08334.6971,E,1,12,0.8,420.6,M,-37.7,M,,0000*78
$GPGSA,A,3,02,12,06,57,25,19,05,17,29,23,09,31,1.3,0.8,1.0*31
$GPRMC,043111.000,A,5412.5445,N,08334.6971,E,60.75,311.15,051016,,,A*5F
$GPGGA,043112.000,5412.5555,N,08334.6752,E,1,12,0.8,420.8,M,-37.7,M,,0000*7A
$GPGSA,A,3,02,12,06,57,25,19,05,17,29,23,09,31,1.3,0.8,1.0*31
$GPGSV,3,1,12,02,77,217,23,12,61,241,18,06,59,070,35,57,44,100,25*7A
$GPGSV,3,2,12,25,40,301,22,19,32,106,24,05,17,179,17,17,13,108,23*74
$GPGSV,3,3,12,29,12,288,17,23,11,047,36,09,10,078,30,31,09,339,27*72
$GPRMC,043112.000,A,5412.5555,N,08334.6752,E,61.46,310.89,051016,,,A*56
$GPGGA,043113.000,5412.5663,N,08334.6531,E,1,12,0.8,420.7,M,-37.7,M,,0000*75
$GPGSA,A,3,02,12,06,57,25,19,05,17,29,23,09,31,1.3,0.8,1.0*31
$GPRMC,043113.000,A,5412.5663,N,08334.6531,E,60.56,308.98,051016,,,A*5F
$GPGGA,043114.000,5412.5766,N,08334.6305,E,1,12,0.8,420.8,M,-37.7,M,,0000*78
$GPGSA,A,3,02,12,06,57,25,19,05,17,29,23,09,31,1.3,0.8,1.0*31
$GPRMC,043114.000,A,5412.5766,N,08334.6305,E,60.24,308.07,051016,,,A*5E
$GPGGA,043115.000,5412.5868,N,08334.6076,E,1,12,0.8,421.0,M,-37.7,M,,0000*76
$GPGSA,A,3,02,12,06,57,25,19,05,17,29,23,09,31,1.3,0.8,1.0*31
$GPRMC,043115.000,A,5412.5868,N,08334.6076,E,60.60,306.75,051016,,,A*52
$GPGGA,043116.000,5412.5966,N,08334.5844,E,1,12,0.8,421.3,M,-37.7,M,,0000*73
$GPGSA,A,3,02,12,06,57,25,19,05,17,29,23,09,31,1.3,0.8,1.0*31
$GPRMC,043116.000,A,5412.5966,N,08334.5844,E,60.47,306.01,051016,,,A*52
$GPGGA,043117.000,5412.6062,N,08334.5604,E,1,12,0.8,421.3,M,-37.7,M,,0000*76
$GPGSA,A,3,02,12,06,57,25,19,05,17,29,23,09,31,1.3,0.8,1.0*31
$GPGSV,3,1,12,02,77,217,23,12,61,241,19,06,59,070,35,57,44,100,24*7A
$GPGSV,3,2,12,25,40,301,24,19,32,106,24,05,17,179,22,17,13,108,23*74
$GPGSV,3,3,12,29,12,288,17,23,11,047,29,09,10,078,30,31,09,339,28*73
$GPRMC,043117.000,A,5412.6062,N,08334.5604,E,60.38,305.33,051016,,,A*5D
$GPGGA,043118.000,5412.6158,N,08334.5366,E,1,12,0.8,420.9,M,-37.7,M,,0000*7B
$GPGSA,A,3,02,12,06,57,25,19,05,17,29,23,09,31,1.3,0.8,1.0*31
$GPRMC,043118.000,A,5412.6158,N,08334.5366,E,60.47,306.08,051016,,,A*58
$GPGGA,043119.000,5412.6255,N,08334.5133,E,1,12,0.8,421.2,M,-37.7,M,,0000*7C
$GPGSA,A,3,02,12,06,57,25,19,05,17,29,23,09,31,1.3,0.8,1.0*31
$GPRMC,043119.000,A,5412.6255,N,08334.5133,E,60.69,305.49,051016,,,A*5F
$GPGGA,043120.000,5412.6353,N,08334.4896,E,1,12,0.8,421.5,M,-37.7,M,,0000*71
$GPGSA,A,3,02,12,06,57,25,19,05,17,29,23,09,31,1.3,0.8,1.0*31
$GPRMC,043120.000,A,5412.6353,N,08334.4896,E,60.70,305.77,051016,,,A*50
$GPGGA,043121.000,5412.6447,N,08334.4662,E,1,12,0.8,421.4,M,-37.7,M,,0000*76
$GPGSA,A,3,02,12,06,57,25,19,05,17,29,23,09,31,1.3,0.8,1.0*31
$GPRMC,043121.000,A,5412.6447,N,08334.4662,E,59.49,305.08,051016,,,A*5E
$GPGGA,043122.000,5412.6544,N,08334.4429,E,1,11,0.8,421.3,M,-37.7,M,,0000*7E
$GPGSA,A,3,02,12,06,57,19,05,17,29,23,09,31,,1.3,0.8,1.0*36
$GPGSV,3,1,12,02,77,217,23,12,61,241,17,06,59,070,35,57,44,100,18*7B
$GPGSV,3,2,12,19,32,106,24,05,17,179,21,17,13,108,23,29,12,288,18*73
$GPGSV,3,3,12,23,11,047,32,09,10,078,30,31,09,339,29,25,40,301,20*77
$GPRMC,043122.000,A,5412.6544,N,08334.4429,E,60.13,306.08,051016,,,A*54
$GPGGA,043123.000,5412.6644,N,08334.4197,E,1,12,0.8,421.2,M,-37.7,M,,0000*7E
$GPGSA,A,3,02,12,06,57,25,19,05,17,29,23,09,31,1.3,0.8,1.0*31
$GPRMC,043123.000,A,5412.6644,N,08334.4197,E,60.53,307.06,051016,,,A*5D
$GPGGA,043124.000,5412.6742,N,08334.3967,E,1,12,0.8,420.5,M,-37.7,M,,0000*78
$GPGSA,A,3,02,12,06,57,25,19,05,17,29,23,09,31,1.3,0.8,1.0*31
$GPRMC,043124.000,A,5412.6742,N,08334.3967,E,60.12,307.00,051016,,,A*5E
$GPGGA,043125.000,5412.6843,N,08334.3743,E,1,11,0.8,420.2,M,-37.7,M,,0000*7B
$GPGSA,A,3,02,12,06,57,19,05,17,29,23,09,31,,1.3,0.8,1.0*36
$GPRMC,043125.000,A,5412.6843,N,08334.3743,E,60.69,308.51,051016,,,A*5E
$GPGGA,043126.000,5412.6947,N,08334.3518,E,1,11,0.8,419.9,M,-37.7,M,,0000*70
$GPGSA,A,3,02,12,06,57,19,05,17,29,23,09,31,,1.3,0.8,1.0*36
$GPRMC,043126.000,A,5412.6947,N,08334.3518,E,61.17,308.83,051016,,,A*53
$GPGGA,043127.000,5412.7054,N,08334.3293,E,1,11,0.8,419.4,M,-37.7,M,,0000*72
$GPGSA,A,3,02,12,06,57,19,05,17,29,23,09,31,,1.3,0.8,1.0*36
$GPGSV,3,1,12,02,77,217,22,12,61,241,16,06,59,070,35,57,44,100,22*72
$GPGSV,3,2,12,19,32,106,25,05,17,179,15,17,13,108,11,29,12,288,16*7A
$GPGSV,3,3,12,23,11,047,32,09,10,078,30,31,09,339,28,25,40,301,18*7D
$GPRMC,043127.000,A,5412.7054,N,08334.3293,E,61.12,309.19,051016,,,A*5B
$GPGGA,043128.000,5412.7161,N,08334.3069,E,1,11,0.8,418.9,M,-37.7,M,,0000*71
$GPGSA,A,3,02,12,06,57,19,05,17,29,23,09,31,,1.3,0.8,1.0*36
$GPRMC,043128.000,A,5412.7161,N,08334.3069,E,61.16,310.15,051016,,,A*54
$GPGGA,043129.000,5412.7267,N,08334.2849,E,1,11,0.8,418.0,M,-37.7,M,,0000*77
$GPGSA,A,3,02,12,06,57,19,05,17,29,23,09,31,,1.3,0.8,1.0*36
$GPRMC,043129.000,A,5412.7267,N,08334.2849,E,60.20,309.93,051016,,,A*59
$GPGGA,043130.000,5412.7373,N,08334.2629,E,1,11,0.8,417.6,M,-37.7,M,,0000*7A
$GPGSA,A,3,02,12,06,57,19,05,17,29,23,09,31,,1.3,0.8,1.0*36
$GPRMC,043130.000,A,5412.7373,N,08334.2629,E,60.60,308.82,051016,,,A*58
$GPGGA,043131.000,5412.7480,N,08334.2409,E,1,11,0.8,417.1,M,-37.7,M,,0000*77
$GPGSA,A,3,02,12,06,57,19,05,17,29,23,09,31,,1.3,0.8,1.0*36
$GPRMC,043131.000,A,5412.7480,N,08334.2409,E,60.52,310.09,051016,,,A*59
$GPGGA,043132.000,5412.7590,N,08334.2192,E,1,11,0.8,416.9,M,-37.7,M,,0000*7A
$GPGSA,A,3,02,12,06,57,19,05,17,29,23,09,31,,1.3,0.8,1.0*36
$GPGSV,3,1,12,02,77,217,22,12,61,241,16,06,59,070,35,57,44,100,23*73
$GPGSV,3,2,12,19,32,106,25,05,17,179,16,17,13,108,13,29,12,288,16*7B
$GPGSV,3,3,12,23,11,047,32,09,10,078,27,31,09,339,29,25,40,301,17*75
$GPRMC,043132.000,A,5412.7590,N,08334.2192,E,60.05,309.90,051016,,,A*57
$GPGGA,043133.000,5412.7701,N,08334.1975,E,1,11,0.8,416.9,M,-37.7,M,,0000*73
$GPGSA,A,3,02,12,06,57,19,05,17,29,23,09,31,,1.3,0.8,1.0*36
$GPRMC,043133.000,A,5412.7701,N,08334.1975,E,59.57,310.48,051016,,,A*5E
$GPGGA,043134.000,5412.7810,N,08334.1759,E,1,11,0.8,416.8,M,-37.7,M,,0000*7A
$GPGSA,A,3,02,12,06,57,19,05,17,29,23,09,31,,1.3,0.8,1.0*36
$GPRMC,043134.000,A,5412.7810,N,08334.1759,E,59.41,309.53,051016,,,A*53
$GPGGA,043135.000,5412.7918,N,08334.1541,E,1,11,0.8,416.7,M,-37.7,M,,0000*76
$GPGSA,A,3,02,12,06,57,19,05,17,29,23,09,31,,1.3,0.8,1.0*36
$GPRMC,043135.000,A,5412.7918,N,08334.1541,E,60.28,309.38,051016,,,A*58
$GPGGA,043136.000,5412.8023,N,08334.1326,E,1,12,0.8,416.8,M,-37.7,M,,0000*70
$GPGSA,A,3,02,12,06,57,25,19,05,17,29,23,09,31,1.3,0.8,1.0*31
$GPRMC,043136.000,A,5412.8023,N,08334.1326,E,58.52,308.95,051016,,,A*52
$GPGGA,043137.000,5412.8127,N,08334.1112,E,1,11,0.8,417.2,M,-37.7,M,,0000*79
$GPGSA,A,3,02,12,06,57,19,05,17,29,23,09,31,,1.3,0.8,1.0*36
$GPGSV,3,1,12,02,77,217,22,12,61,241,15,06,59,070,35,57,44,100,24*77
$GPGSV,3,2,12,19,32,106,26,05,17,179,17,17,13,108,16,29,12,288,15*7F
$GPGSV,3,3,12,23,11,047,33,09,10,078,29,31,09,339,28,25,40,301,*7D
$GPRMC,043137.000,A,5412.8127,N,08334.1112,E,59.52,308.80,051016,,,A*56
$GPGGA,043138.000,5412.8232,N,08334.0898,E,1,11,0.8,417.8,M,-37.7,M,,0000*71
$GPGSA,A,3,02,12,06,57,19,05,17,29,23,09,31,,1.3,0.8,1.0*36
$GPRMC,043138.000,A,5412.8232,N,08334.0898,E,59.46,309.02,051016,,,A*5A
$GPGGA,043139.000,5412.8335,N,08334.0683,E,1,11,0.8,417.8,M,-37.7,M,,0000*72
$GPGSA,A,3,02,12,06,57,19,05,17,29,23,09,31,,1.3,0.8,1.0*36
$GPRMC,043139.000,A,5412.8335,N,08334.0683,E,58.67,309.30,051016,,,A*5A
$GPGGA,043140.000,5412.8444,N,08334.0472,E,1,11,0.8,418.8,M,-37.7,M,,0000*7E
$GPGSA,A,3,02,12,06,57,19,05,17,29,23,09,31,,1.3,0.8,1.0*36
$GPRMC,043140.000,A,5412.8444,N,08334.0472,E,59.77,309.51,051016,,,A*5E
$GPGGA,043141.000,5412.8555,N,08334.0257,E,1,12,0.8,419.3,M,-37.7,M,,0000*76
$GPGSA,A,3,02,12,06,57,25,19,05,17,29,23,09,31,1.3,0.8,1.0*31
$GPRMC,043141.000,A,5412.8555,N,08334.0257,E,59.91,310.54,051016,,,A*5A
$GPGGA,043142.000,5412.8664,N,08334.0043,E,1,12,0.8,419.8,M,-37.7,M,,0000*78
$GPGSA,A,3,02,12,06,57,25,19,05,17,29,23,09,31,1.3,0.8,1.0*31
$GPGSV,3,1,12,02,77,217,22,12,61,241,16,06,59,070,35,57,44,100,24*74
$GPGSV,3,2,12,25,40,301,19,19,32,106,26,05,17,179,16,17,13,108,18*77
$GPGSV,3,3,12,29,12,288,15,23,11,047,33,09,10,078,30,31,09,339,27*75
$GPRMC,043142.000,A,5412.8664,N,08334.0043,E,59.78,309.96,051016,,,A*5E
$GPGGA,043143.000,5412.8773,N,08333.9827,E,1,12,0.8,420.3,M,-37.7,M,,0000*7B
$GPGSA,A,3,02,12,06,57,25,19,05,17,29,23,09,31,1.3,0.8,1.0*31
$GPRMC,043143.000,A,5412.8773,N,08333.9827,E,59.92,310.09,051016,,,A*56
$GPGGA,043144.000,5412.8881,N,08333.9613,E,1,11,0.8,421.2,M,-37.7,M,,0000*74
$GPGSA,A,3,02,12,06,57,19,05,17,29,23,09,31,,1.3,0.8,1.0*36
$GPRMC,043144.000,A,5412.8881,N,08333.9613,E,59.88,309.65,051016,,,A*53
$GPGGA,043145.000,5412.8987,N,08333.9396,E,1,12,0.8,421.9,M,-37.7,M,,0000*72
$GPGSA,A,3,02,12,06,57,25,19,05,17,29,23,09,31,1.3,0.8,1.0*31
$GPRMC,043145.000,A,5412.8987,N,08333.9396,E,60.32,309.37,051016,,,A*51
$GPGGA,043146.000,5412.9096,N,08333.9178,E,1,11,0.8,422.2,M,-37.7,M,,0000*70
$GPGSA,A,3,02,12,06,57,19,05,17,29,23,09,31,,1.3,0.8,1.0*36
$GPRMC,043146.000,A,5412.9096,N,08333.9178,E,61.10,310.41,051016,,,A*50
$GPGGA,043147.000,5412.9208,N,08333.8964,E,1,11,0.8,422.9,M,-37.7,M,,0000*7B
$GPGSA,A,3,02,12,06,57,19,05,17,29,23,09,31,,1.3,0.8,1.0*36
$GPGSV,3,1,12,02,77,217,22,12,61,241,16,06,59,070,35,57,44,100,25*75
$GPGSV,3,2,12,19,32,106,25,05,17,179,15,17,13,108,22,29,12,288,16*7A
$GPGSV,3,3,12,23,11,047,33,09,10,078,29,31,09,339,27,25,40,301,19*7A
$GPRMC,043147.000,A,5412.9208,N,08333.8964,E,60.54,310.79,051016,,,A*5A
$GPGGA,043148.000,5412.9318,N,08333.8749,E,1,12,0.8,423.3,M,-37.7,M,,0000*7D
$GPGSA,A,3,02,12,06,57,25,19,05,17,29,23,09,31,1.3,0.8,1.0*31
$GPRMC,043148.000,A,5412.9318,N,08333.8749,E,61.09,310.97,051016,,,A*5D
$GPGGA,043149.000,5412.9429,N,08333.8537,E,1,12,0.8,423.6,M,-37.7,M,,0000*77
$GPGSA,A,3,02,12,06,57,25,19,05,17,29,23,09,31,1.3,0.8,1.0*31
$GPRMC,043149.000,A,5412.9429,N,08333.8537,E,61.17,311.47,051016,,,A*51
$GPGGA,043150.000,5412.9540,N,08333.8321,E,1,12,0.8,423.5,M,-37.7,M,,0000*73
$GPGSA,A,3,02,12,06,57,25,19,05,17,29,23,09,31,1.3,0.8,1.0*31
$GPRMC,043150.000,A,5412.9540,N,08333.8321,E,62.06,312.21,051016,,,A*56
$GPGGA,043151.000,5412.9655,N,08333.8105,E,1,12,0.8,423.6,M,-37.7,M,,0000*72
$GPGSA,A,3,02,12,06,57,25,19,05,17,29,23,09,31,1.3,0.8,1.0*31
$GPRMC,043151.000,A,5412.9655,N,08333.8105,E,62.31,311.65,051016,,,A*53
$GPGGA,043152.000,5412.9769,N,08333.7886,E,1,12,0.8,423.7,M,-37.7,M,,0000*73
$GPGSA,A,3,02,12,06,57,25,19,05,17,29,23,09,31,1.3,0.8,1.0*31
$GPGSV,3,1,12,02,77,217,22,12,61,241,21,06,59,070,35,57,44,100,25*71
$GPGSV,3,2,12,25,40,301,18,19,32,106,25,05,17,179,11,17,13,108,21*78
$GPGSV,3,3,12,29,12,288,16,23,11,047,33,09,10,078,30,31,09,339,28*79
$GPRMC,043152.000,A,5412.9769,N,08333.7886,E,61.74,311.16,051016,,,A*55
$GPGGA,043153.000,5412.9882,N,08333.7668,E,1,12,0.8,423.7,M,-37.7,M,,0000*76
$GPGSA,A,3,02,12,06,57,25,19,05,17,29,23,09,31,1.3,0.8,1.0*31
$GPRMC,043153.000,A,5412.9882,N,08333.7668,E,61.93,312.00,051016,,,A*5D
$GPGGA,043154.000,5412.9997,N,08333.7445,E,1,12,0.8,423.6,M,-37.7,M,,0000*78
$GPGSA,A,3,02,12,06,57,25,19,05,17,29,23,09,31,1.3,0.8,1.0*31
$GPRMC,043154.000,A,5412.9997,N,08333.7445,E,62.95,310.82,051016,,,A*5F
$GPGGA,043155.000,5413.0113,N,08333.7220,E,1,12,0.8,423.6,M,-37.7,M,,0000*70
$GPGSA,A,3,02,12,06,57,25,19,05,17,29,23,09,31,1.3,0.8,1.0*31
$GPRMC,043155.000,A,5413.0113,N,08333.7220,E,63.17,311.00,051016,,,A*57
$GPGGA,043156.000,5413.0230,N,08333.6993,E,1,12,0.8,423.5,M,-37.7,M,,0000*70
$GPGSA,A,3,02,12,06,57,25,19,05,17,29,23,09,31,1.3,0.8,1.0*31
$GPRMC,043156.000,A,5413.0230,N,08333.6993,E,62.96,311.05,051016,,,A*59
$GPGGA,043157.000,5413.0345,N,08333.6769,E,1,12,0.8,423.4,M,-37.7,M,,0000*78
$GPGSA,A,3,02,12,06,57,25,19,05,17,29,23,09,31,1.3,0.8,1.0*31
$GPGSV,3,1,12,02,77,217,22,12,61,241,17,06,59,070,35,57,44,100,25*74
$GPGSV,3,2,12,25,40,301,19,19,32,106,24,05,17,179,15,17,13,108,20*7D
$GPGSV,3,3,12,29,12,288,17,23,11,047,29,09,10,078,29,31,09,339,23*70
$GPRMC,043157.000,A,5413.0345,N,08333.6769,E,62.35,310.07,051016,,,A*5A
$GPGGA,043158.000,5413.0460,N,08333.6547,E,1,12,0.8,423.5,M,-37.7,M,,0000*78
$GPGSA,A,3,02,12,06,57,25,19,05,17,29,23,09,31,1.3,0.8,1.0*31
$GPRMC,043158.000,A,5413.0460,N,08333.6547,E,62.75,310.98,051016,,,A*59
$GPGGA,043159.000,5413.0575,N,08333.6323,E,1,12,0.8,423.6,M,-37.7,M,,0000*7B
$GPGSA,A,3,02,12,06,57,25,19,05,17,29,23,09,31,1.3,0.8,1.0*31
$GPRMC,043159.000,A,5413.0575,N,08333.6323,E,62.72,310.98,051016,,,A*5E
$GPGGA,043200.000,5413.0690,N,08333.6096,E,1,12,0.8,423.5,M,-37.7,M,,0000*72
$GPGSA,A,3,02,12,06,57,25,19,05,17,29,23,09,31,1.3,0.8,1.0*31
$GPRMC,043200.000,A,5413.0690,N,08333.6096,E,63.46,310.66,051016,,,A*53
$GPGGA,043201.000,5413.0806,N,08333.5867,E,1,12,0.8,423.4,M,-37.7,M,,0000*76
$GPGSA,A,3,02,12,06,57,25,19,05,17,29,23,09,31,1.3,0.8,1.0*31
$GPRMC,043201.000,A,5413.0806,N,08333.5867,E,64.03,310.16,051016,,,A*57
$GPGGA,043202.000,5413.0920,N,08333.5637,E,1,12,0.8,423.7,M,-37.7,M,,0000*78
$GPGSA,A,3,02,12,06,57,25,19,05,17,29,23,09,31,1.3,0.8,1.0*31
$GPGSV,3,1,12,02,77,217,21,12,61,241,18,06,59,070,35,57,44,100,25*78
$GPGSV,3,2,12,25,40,301,20,19,32,106,21,05,17,179,16,17,13,108,20*71
$GPGSV,3,3,12,29,12,288,17,23,11,047,30,09,10,078,28,31,09,339,24*7E
$GPRMC,043202.000,A,5413.0920,N,08333.5637,E,63.75,309.63,051016,,,A*56
$GPGGA,043203.000,5413.1032,N,08333.5403,E,1,12,0.8,423.7,M,-37.7,M,,0000*77
$GPGSA,A,3,02,12,06,57,25,19,05,17,29,23,09,31,1.3,0.8,1.0*31
$GPRMC,043203.000,A,5413.1032,N,08333.5403,E,63.82,308.69,051016,,,A*5A
$GPGGA,043204.000,5413.1141,N,08333.5165,E,1,12,0.8,423.5,M,-37.7,M,,0000*72
$GPGSA,A,3,02,12,06,57,25,19,05,17,29,23,09,31,1.3,0.8,1.0*31
$GPRMC,043204.000,A,5413.1141,N,08333.5165,E,63.64,308.42,051016,,,A*5C
$GPGGA,043205.000,5413.1249,N,08333.4923,E,1,12,0.8,423.3,M,-37.7,M,,0000*75
$GPGSA,A,3,02,12,06,57,25,19,05,17,29,23,09,31,1.3,0.8,1.0*31
$GPRMC,043205.000,A,5413.1249,N,08333.4923,E,64.60,307.72,051016,,,A*52
$GPGGA,043206.000,5413.1360,N,08333.4680,E,1,12,0.8,422.8,M,-37.7,M,,0000*70
$GPGSA,A,3,02,12,06,57,25,19,05,17,29,23,09,31,1.3,0.8,1.0*31
$GPRMC,043206.000,A,5413.1360,N,08333.4680,E,65.10,308.89,051016,,,A*50
$GPGGA,043207.000,5413.1469,N,08333.4439,E,1,12,0.8,422.5,M,-37.7,M,,0000*72
$GPGSA,A,3,02,12,06,57,25,19,05,17,29,23,09,31,1.3,0.8,1.0*31
$GPGSV,3,1,12,02,77,217,20,12,61,241,17,06,59,070,34,57,44,100,24*76
$GPGSV,3,2,12,25,40,301,22,19,32,106,21,05,17,179,22,17,13,108,24*70
$GPGSV,3,3,12,29,12,288,21,23,11,047,25,09,10,078,25,31,09,339,29*7F
$GPRMC,043207.000,A,5413.1469,N,08333.4439,E,64.10,308.31,051016,,,A*5D
$GPGGA,043208.000,5413.1578,N,08333.4194,E,1,12,0.8,421.9,M,-37.7,M,,0000*71
$GPGSA,A,3,02,12,06,57,25,19,05,17,29,23,09,31,1.3,0.8,1.0*31
$GPRMC,043208.000,A,5413.1578,N,08333.4194,E,64.89,307.82,051016,,,A*56
$GPGGA,043209.000,5413.1687,N,08333.3947,E,1,12,0.8,421.2,M,-37.7,M,,0000*79
$GPGSA,A,3,02,12,06,57,25,19,05,17,29,23,09,31,1.3,0.8,1.0*31
$GPRMC,043209.000,A,5413.1687,N,08333.3947,E,64.99,307.85,051016,,,A*53
$GPGGA,043210.000,5413.1795,N,08333.3691,E,1,12,0.8,420.7,M,-37.7,M,,0000*73
$GPGSA,A,3,02,12,06,57,25,19,05,17,29,23,09,31,1.3,0.8,1.0*31
$GPRMC,043210.000,A,5413.1795,N,08333.3691,E,65.68,307.15,051016,,,A*5B
$GPGGA,043211.000,5413.1900,N,08333.3435,E,1,12,0.8,420.5,M,-37.7,M,,0000*7E
$GPGSA,A,3,02,12,06,57,25,19,05,17,29,23,09,31,1.3,0.8,1.0*31
$GPRMC,043211.000,A,5413.1900,N,08333.3435,E,64.51,305.68,051016,,,A*57
$GPGGA,043212.000,5413.2007,N,08333.3181,E,1,12,0.8,420.6,M,-37.7,M,,0000*79
$GPGSA,A,3,02,12,06,57,25,19,05,17,29,23,09,31,1.3,0.8,1.0*31
$GPGSV,3,1,12,02,77,217,20,12,61,241,16,06,59,070,34,57,44,100,23*70
$GPGSV,3,2,12,25,40,301,23,19,32,106,20,05,17,179,22,17,13,108,24*70
$GPGSV,3,3,12,29,12,288,21,23,11,047,28,09,10,078,28,31,09,339,28*7E
$GPRMC,043212.000,A,5413.2007,N,08333.3181,E,64.82,306.57,051016,,,A*52
$GPGGA,043213.000,5413.2109,N,08333.2922,E,1,12,0.8,420.2,M,-37.7,M,,0000*73
$GPGSA,A,3,02,12,06,57,25,19,05,17,29,23,09,31,1.3,0.8,1.0*31
$GPRMC,043213.000,A,5413.2109,N,08333.2922,E,65.75,305.45,051016,,,A*55
$GPGGA,043214.000,5413.2215,N,08333.2664,E,1,12,0.8,419.6,M,-37.7,M,,0000*79
$GPGSA,A,3,02,12,06,57,25,19,05,17,29,23,09,31,1.3,0.8,1.0*31
$GPRMC,043214.000,A,5413.2215,N,08333.2664,E,65.89,305.91,051016,,,A*5B
$GPGGA,043215.000,5413.2324,N,08333.2412,E,1,12,0.8,419.0,M,-37.7,M,,0000*7E
$GPGSA,A,3,02,12,06,57,25,19,05,17,29,23,09,31,1.3,0.8,1.0*31
$GPRMC,043215.000,A,5413.2324,N,08333.2412,E,65.65,306.66,051016,,,A*53
$GPGGA,043216.000,5413.2432,N,08333.2162,E,1,12,0.8,417.9,M,-37.7,M,,0000*78
$GPGSA,A,3,02,12,06,57,25,19,05,17,29,23,09,31,1.3,0.8,1.0*31
$GPRMC,043216.000,A,5413.2432,N,08333.2162,E,65.72,307.75,051016,,,A*57
$GPGGA,043217.000,5413.2538,N,08333.1911,E,1,12,0.8,416.7,M,-37.7,M,,0000*72
$GPGSA,A,3,02,12,06,57,25,19,05,17,29,23,09,31,1.3,0.8,1.0*31
$GPGSV,3,1,12,02,77,217,20,12,61,241,16,06,59,070,34,57,44,100,22*71
$GPGSV,3,2,12,25,40,301,22,19,32,106,20,05,17,179,21,17,13,108,21*77
$GPGSV,3,3,12,29,12,288,17,23,11,047,30,09,10,078,29,31,09,339,28*73
$GPRMC,043217.000,A,5413.2538,N,08333.1911,E,64.73,306.75,051016,,,A*53
$GPGGA,043218.000,5413.2645,N,08333.1664,E,1,12,0.8,415.1,M,-37.7,M,,0000*7C
$GPGSA,A,3,02,12,06,57,25,19,05,17,29,23,09,31,1.3,0.8,1.0*31
$GPRMC,043218.000,A,5413.2645,N,08333.1664,E,65.28,308.37,051016,,,A*5F
$GPGGA,043219.000,5413.2760,N,08333.1423,E,1,12,0.8,414.9,M,-37.7,M,,0000*73
$GPGSA,A,3,02,12,06,57,25,19,05,17,29,23,09,31,1.3,0.8,1.0*31
$GPRMC,043219.000,A,5413.2760,N,08333.1423,E,64.55,309.14,051016,,,A*52
$GPGGA,043220.000,5413.2874,N,08333.1185,E,1,12,0.8,413.9,M,-37.7,M,,0000*7D
$GPGSA,A,3,02,12,06,57,25,19,05,17,29,23,09,31,1.3,0.8,1.0*31
$GPRMC,043220.000,A,5413.2874,N,08333.1185,E,64.52,309.37,051016,,,A*5D
$GPGGA,043221.000,5413.2987,N,08333.0950,E,1,12,0.8,413.5,M,-37.7,M,,0000*7C
$GPGSA,A,3,02,12,06,57,25,19,05,17,29,23,09,31,1.3,0.8,1.0*31
$GPRMC,043221.000,A,5413.2987,N,08333.0950,E,63.75,309.81,051016,,,A*5F
$GPGGA,043222.000,5413.3101,N,08333.0717,E,1,12,0.8,412.9,M,-37.7,M,,0000*78
$GPGSA,A,3,02,12,06,57,25,19,05,17,29,23,09,31,1.3,0.8,1.0*31
$GPGSV,3,1,12,02,78,216,20,12,60,240,17,06,58,070,34,57,44,100,22*7F
$GPGSV,3,2,12,25,40,300,22,19,31,106,23,05,18,179,20,17,13,109,21*79
$GPGSV,3,3,12,29,12,288,16,23,12,047,31,09,10,078,29,31,09,339,27*7F
