$GPRMC,095057.000,A,5408.5863,N,08328.4224,E,46.01,127.87,041016,,,A*5A
$GPGGA,095058.000,5408.5785,N,08328.4394,E,1,11,0.8,331.9,M,-37.9,M,,0000*70
$GPGSA,A,3,21,15,18,20,13,27,10,29,16,24,30,,1.2,0.8,0.9*33
$GPRMC,095058.000,A,5408.5785,N,08328.4394,E,45.76,127.83,041016,,,A*5F
$GPGGA,095059.000,5408.5708,N,08328.4563,E,1,11,0.8,331.8,M,-37.9,M,,0000*7B
$GPGSA,A,3,21,15,18,20,13,27,10,29,16,24,30,,1.2,0.8,0.9*33
$GPGSV,3,1,12,21,78,196,29,15,61,101,23,18,59,254,28,20,57,084,15*77
$GPGSV,3,2,12,13,40,058,12,27,28,311,13,10,23,256,22,29,09,181,30*75
$GPGSV,3,3,12,16,07,281,18,24,07,135,22,30,06,017,22,57,38,098,10*74
$GPRMC,095059.000,A,5408.5708,N,08328.4563,E,46.04,127.12,041016,,,A*5B
$GPGGA,095100.000,5408.5630,N,08328.4736,E,1,12,0.8,332.0,M,-37.9,M,,0000*76
$GPGSA,A,3,21,15,18,20,13,57,27,10,29,16,24,30,1.2,0.8,0.9*31
$GPRMC,095100.000,A,5408.5630,N,08328.4736,E,46.34,127.47,041016,,,A*5D
$GPGGA,095101.000,5408.5551,N,08328.4911,E,1,12,0.8,332.3,M,-37.9,M,,0000*7B
$GPGSA,A,3,21,15,18,20,13,57,27,10,29,16,24,30,1.2,0.8,0.9*31
$GPRMC,095101.000,A,5408.5551,N,08328.4911,E,46.58,127.90,041016,,,A*53
$GPGGA,095102.000,5408.5471,N,08328.5085,E,1,12,0.8,332.3,M,-37.9,M,,0000*7E
$GPGSA,A,3,21,15,18,20,13,57,27,10,29,16,24,30,1.2,0.8,0.9*31
$GPRMC,095102.000,A,5408.5471,N,08328.5085,E,47.33,127.93,041016,,,A*59
$GPGGA,095103.000,5408.5390,N,08328.5258,E,1,12,0.8,332.6,M,-37.9,M,,0000*70
$GPGSA,A,3,21,15,18,20,13,57,27,10,29,16,24,30,1.2,0.8,0.9*31
$GPRMC,095103.000,A,5408.5390,N,08328.5258,E,46.93,128.40,041016,,,A*58
$GPGGA,095104.000,5408.5308,N,08328.5430,E,1,12,0.8,333.1,M,-37.9,M,,0000*78
$GPGSA,A,3,21,15,18,20,13,57,27,10,29,16,24,30,1.2,0.8,0.9*31
$GPGSV,3,1,12,21,78,196,29,15,61,101,22,18,59,254,28,20,57,084,15*76
$GPGSV,3,2,12,13,40,058,18,57,38,098,18,27,28,311,12,10,23,256,21*75
$GPGSV,3,3,12,29,09,181,29,16,07,281,18,24,07,135,22,30,06,017,09*75
$GPRMC,095104.000,A,5408.5308,N,08328.5430,E,46.92,128.42,041016,,,A*55
$GPGGA,095105.000,5408.5226,N,08328.5602,E,1,11,1.0,333.7,M,-37.9,M,,0000*7B
$GPGSA,A,3,21,15,18,20,13,57,27,10,29,16,24,,1.5,1.0,1.1*35
$GPRMC,095105.000,A,5408.5226,N,08328.5602,E,47.03,128.32,041016,,,A*54
$GPGGA,095106.000,5408.5143,N,08328.5774,E,1,11,1.0,334.5,M,-37.9,M,,0000*7D
$GPGSA,A,3,21,15,18,20,13,57,27,10,29,16,24,,1.5,1.0,1.1*35
$GPRMC,095106.000,A,5408.5143,N,08328.5774,E,47.32,128.68,041016,,,A*5A
$GPGGA,095107.000,5408.5061,N,08328.5950,E,1,12,0.8,334.9,M,-37.9,M,,0000*73
$GPGSA,A,3,21,15,18,20,13,57,27,10,29,16,24,30,1.2,0.8,0.9*31
$GPRMC,095107.000,A,5408.5061,N,08328.5950,E,48.42,127.87,041016,,,A*54
$GPGGA,095108.000,5408.4980,N,08328.6130,E,1,11,1.0,335.2,M,-37.9,M,,0000*76
$GPGSA,A,3,21,15,18,20,13,57,27,10,29,16,24,,1.5,1.0,1.1*35
$GPRMC,095108.000,A,5408.4980,N,08328.6130,E,48.52,127.64,041016,,,A*5D
$GPGGA,095109.000,5408.4898,N,08328.6311,E,1,11,1.0,335.7,M,-37.9,M,,0000*7B
$GPGSA,A,3,21,15,18,20,13,57,27,10,29,16,24,,1.5,1.0,1.1*35
$GPGSV,3,1,12,21,78,196,29,15,61,101,22,18,59,254,28,20,57,084,16*75
$GPGSV,3,2,12,13,40,058,20,57,38,098,18,27,28,311,10,10,23,256,21*7C
$GPGSV,3,3,12,29,09,181,29,16,07,281,17,24,07,135,21,30,06,017,07*77
$GPRMC,095109.000,A,5408.4898,N,08328.6311,E,48.31,127.55,041016,,,A*52
$GPGGA,095110.000,5408.4817,N,08328.6497,E,1,11,1.0,336.3,M,-37.9,M,,0000*7A
$GPGSA,A,3,21,15,18,20,13,57,27,10,29,16,24,,1.5,1.0,1.1*35
$GPRMC,095110.000,A,5408.4817,N,08328.6497,E,48.77,125.89,041016,,,A*55
$GPGGA,095111.000,5408.4737,N,08328.6686,E,1,11,0.8,337.3,M,-37.9,M,,0000*7C
$GPGSA,A,3,21,18,20,13,57,27,10,29,16,24,30,,1.2,0.8,1.0*3D
$GPRMC,095111.000,A,5408.4737,N,08328.6686,E,48.41,125.62,041016,,,A*5B
$GPGGA,095112.000,5408.4659,N,08328.6874,E,1,11,0.8,338.1,M,-37.9,M,,0000*78
$GPGSA,A,3,21,18,20,13,57,27,10,29,16,24,30,,1.2,0.8,1.0*3D
$GPRMC,095112.000,A,5408.4659,N,08328.6874,E,48.75,125.83,041016,,,A*5A
$GPGGA,095113.000,5408.4579,N,08328.7062,E,1,11,0.8,338.9,M,-37.9,M,,0000*7E
$GPGSA,A,3,21,18,20,13,57,27,10,29,16,24,30,,1.2,0.8,1.0*3D
$GPRMC,095113.000,A,5408.4579,N,08328.7062,E,49.20,125.58,041016,,,A*53
$GPGGA,095114.000,5408.4499,N,08328.7253,E,1,10,0.8,339.7,M,-37.9,M,,0000*78
$GPGSA,A,3,21,18,20,13,27,10,29,16,24,30,,,1.3,0.8,1.0*3E
$GPGSV,3,1,12,21,78,196,29,18,59,254,28,20,57,084,16,13,40,058,20*7F
$GPGSV,3,2,12,27,28,311,10,10,23,256,23,29,09,181,29,16,07,281,17*7A
$GPGSV,3,3,12,24,07,135,20,30,06,017,14,15,61,101,14,57,38,098,15*72
$GPRMC,095114.000,A,5408.4499,N,08328.7253,E,49.92,125.80,041016,,,A*57
$GPGGA,095115.000,5408.4417,N,08328.7450,E,1,10,0.8,340.8,M,-37.9,M,,0000*7B
$GPGSA,A,3,21,18,20,13,27,10,29,16,24,30,,,1.3,0.8,1.0*3E
$GPRMC,095115.000,A,5408.4417,N,08328.7450,E,50.57,125.34,041016,,,A*5B
$GPGGA,095116.000,5408.4333,N,08328.7649,E,1,11,0.8,342.2,M,-37.9,M,,0000*7A
$GPGSA,A,3,21,15,18,20,13,27,10,29,16,24,30,,1.2,0.8,0.9*33
$GPRMC,095116.000,A,5408.4333,N,08328.7649,E,50.92,125.67,041016,,,A*5C
$GPGGA,095117.000,5408.4247,N,08328.7852,E,1,11,0.8,343.7,M,-37.9,M,,0000*79
$GPGSA,A,3,21,15,18,20,13,27,10,29,16,24,30,,1.2,0.8,0.9*33
$GPRMC,095117.000,A,5408.4247,N,08328.7852,E,52.30,126.21,041016,,,A*50
$GPGGA,095118.000,5408.4157,N,08328.8053,E,1,11,0.8,345.1,M,-37.9,M,,0000*72
$GPGSA,A,3,21,15,18,20,13,27,10,29,16,24,30,,1.2,0.8,0.9*33
$GPRMC,095118.000,A,5408.4157,N,08328.8053,E,52.80,127.23,041016,,,A*53
$GPGGA,095119.000,5408.4067,N,08328.8247,E,1,11,0.8,346.0,M,-37.9,M,,0000*74
$GPGSA,A,3,21,15,18,20,13,27,10,29,16,24,30,,1.2,0.8,0.9*33
$GPGSV,3,1,12,21,78,196,29,15,61,101,19,18,59,254,28,20,57,084,16*7D
$GPGSV,3,2,12,13,40,058,21,27,28,311,10,10,23,256,24,29,09,181,29*78
$GPGSV,3,3,12,16,07,281,19,24,07,135,20,30,06,017,16,57,38,098,14*74
$GPRMC,095119.000,A,5408.4067,N,08328.8247,E,53.10,128.21,041016,,,A*52
$GPGGA,095120.000,5408.3975,N,08328.8441,E,1,11,0.8,346.8,M,-37.9,M,,0000*7B
$GPGSA,A,3,21,15,18,20,13,27,10,29,16,24,30,,1.2,0.8,0.9*33
$GPRMC,095120.000,A,5408.3975,N,08328.8441,E,53.24,128.69,041016,,,A*5E
$GPGGA,095121.000,5408.3883,N,08328.8636,E,1,10,0.8,347.7,M,-37.9,M,,0000*7F
$GPGSA,A,3,21,15,18,20,13,27,29,16,24,30,,,1.2,0.8,0.9*32
$GPRMC,095121.000,A,5408.3883,N,08328.8636,E,53.52,128.06,041016,,,A*5D
$GPGGA,095122.000,5408.3792,N,08328.8835,E,1,11,0.8,348.6,M,-37.9,M,,0000*71
$GPGSA,A,3,21,15,18,20,13,27,10,24,29,16,30,,1.2,0.8,0.9*33
$GPRMC,095122.000,A,5408.3792,N,08328.8835,E,53.92,127.37,041016,,,A*5D
$GPGGA,095123.000,5408.3699,N,08328.9037,E,1,11,0.8,349.9,M,-37.9,M,,0000*7F
$GPGSA,A,3,21,15,18,20,13,27,10,24,29,16,30,,1.2,0.8,0.9*33
$GPRMC,095123.000,A,5408.3699,N,08328.9037,E,54.63,126.85,041016,,,A*5C
$GPGGA,095124.000,5408.3604,N,08328.9239,E,1,12,0.8,351.5,M,-37.9,M,,0000*76
$GPGSA,A,3,21,15,18,20,13,57,27,10,24,29,16,30,1.2,0.8,0.9*31
$GPGSV,3,1,12,21,77,191,29,15,61,098,19,18,61,254,29,20,56,084,16*7F
$GPGSV,3,2,12,13,39,057,21,57,38,098,14,27,28,310,10,10,24,257,22*74
$GPGSV,3,3,12,24,08,134,19,29,08,181,29,16,06,280,18,30,06,016,16*7D
$GPRMC,095124.000,A,5408.3604,N,08328.9239,E,54.99,127.31,041016,,,A*58
$GPGGA,095125.000,5408.3509,N,08328.9444,E,1,12,0.8,352.9,M,-37.9,M,,0000*7A
$GPGSA,A,3,21,15,18,20,13,57,27,10,24,29,16,30,1.2,0.8,0.9*31
$GPRMC,095125.000,A,5408.3509,N,08328.9444,E,55.52,127.19,041016,,,A*57
$GPGGA,095126.000,5408.3414,N,08328.9650,E,1,12,0.8,354.4,M,-37.9,M,,0000*78
$GPGSA,A,3,21,15,18,20,13,57,27,10,24,29,16,30,1.2,0.8,0.9*31
$GPRMC,095126.000,A,5408.3414,N,08328.9650,E,55.45,126.87,041016,,,A*5E
$GPGGA,095127.000,5408.3320,N,08328.9860,E,1,12,0.8,355.9,M,-37.9,M,,0000*78
$GPGSA,A,3,21,15,18,20,13,57,27,10,24,29,16,30,1.2,0.8,0.9*31
$GPRMC,095127.000,A,5408.3320,N,08328.9860,E,56.03,126.61,041016,,,A*5B
$GPGGA,095128.000,5408.3227,N,08329.0074,E,1,11,0.8,357.1,M,-37.9,M,,0000*7D
$GPGSA,A,3,21,15,18,20,13,57,10,24,29,16,30,,1.2,0.8,0.9*34
$GPRMC,095128.000,A,5408.3227,N,08329.0074,E,56.74,126.86,041016,,,A*5E
$GPGGA,095129.000,5408.3133,N,08329.0294,E,1,11,0.8,358.2,M,-37.9,M,,0000*7A
$GPGSA,A,3,21,15,18,20,13,57,10,24,29,16,30,,1.2,0.8,0.9*34
$GPGSV,3,1,12,21,77,191,29,15,61,098,19,18,61,254,29,20,56,084,16*7F
$GPGSV,3,2,12,13,39,057,21,57,38,098,13,10,24,257,23,24,08,134,18*7F
$GPGSV,3,3,12,29,08,181,29,16,06,280,19,30,06,016,17,27,28,310,07*77
$GPRMC,095129.000,A,5408.3133,N,08329.0294,E,57.42,127.14,041016,,,A*5B
$GPGGA,095130.000,5408.3038,N,08329.0513,E,1,11,0.8,359.1,M,-37.9,M,,0000*72
$GPGSA,A,3,21,15,18,20,13,57,10,24,29,16,30,,1.2,0.8,0.9*34
$GPRMC,095130.000,A,5408.3038,N,08329.0513,E,57.92,127.25,041016,,,A*5E
$GPGGA,095131.000,5408.2942,N,08329.0731,E,1,11,0.8,359.9,M,-37.9,M,,0000*7C
$GPGSA,A,3,21,15,18,20,13,57,10,24,29,16,30,,1.2,0.8,0.9*34
$GPRMC,095131.000,A,5408.2942,N,08329.0731,E,57.96,127.18,041016,,,A*52
$GPGGA,095132.000,5408.2842,N,08329.0947,E,1,10,0.8,361.4,M,-37.9,M,,0000*76
$GPGSA,A,3,21,15,18,20,13,10,24,29,16,30,,,1.2,0.8,0.9*36
$GPRMC,095132.000,A,5408.2842,N,08329.0947,E,58.77,127.56,041016,,,A*55
$GPGGA,095133.000,5408.2740,N,08329.1166,E,1,11,0.8,363.2,M,-37.9,M,,0000*75
$GPGSA,A,3,21,15,18,20,13,27,10,24,29,16,30,,1.2,0.8,0.9*33
$GPRMC,095133.000,A,5408.2740,N,08329.1166,E,58.94,127.90,041016,,,A*54
$GPGGA,095134.000,5408.2634,N,08329.1386,E,1,11,0.8,365.3,M,-37.9,M,,0000*7B
$GPGSA,A,3,21,15,18,20,13,27,10,24,29,16,30,,1.2,0.8,0.9*33
$GPGSV,3,1,12,21,77,191,28,15,61,098,19,18,61,254,29,20,56,084,16*7E
$GPGSV,3,2,12,13,39,057,22,27,28,310,10,10,24,257,22,24,08,134,18*7B
$GPGSV,3,3,12,29,08,181,29,16,06,280,19,30,06,016,17,05,04,078,14*76
$GPRMC,095134.000,A,5408.2634,N,08329.1386,E,59.55,128.95,041016,,,A*5B
$GPGGA,095135.000,5408.2525,N,08329.1605,E,1,11,0.8,367.6,M,-37.9,M,,0000*70
$GPGSA,A,3,21,15,18,20,13,27,10,24,29,16,30,,1.2,0.8,0.9*33
$GPRMC,095135.000,A,5408.2525,N,08329.1605,E,60.90,129.26,041016,,,A*5D
$GPGGA,095136.000,5408.2412,N,08329.1825,E,1,11,0.8,369.9,M,-37.9,M,,0000*7B
$GPGSA,A,3,21,15,18,20,13,27,10,24,29,16,30,,1.2,0.8,0.9*33
$GPRMC,095136.000,A,5408.2412,N,08329.1825,E,61.60,130.74,041016,,,A*56
$GPGGA,095137.000,5408.2297,N,08329.2039,E,1,11,0.8,371.6,M,-37.9,M,,0000*71
$GPGSA,A,3,21,15,18,20,13,27,10,24,29,16,30,,1.2,0.8,0.9*33
$GPRMC,095137.000,A,5408.2297,N,08329.2039,E,61.97,132.22,041016,,,A*53
$GPGGA,095138.000,5408.2178,N,08329.2253,E,1,10,0.8,373.0,M,-37.9,M,,0000*77
$GPGSA,A,3,21,15,18,20,27,10,24,29,16,30,,,1.2,0.8,0.9*31
$GPRMC,095138.000,A,5408.2178,N,08329.2253,E,62.69,133.10,041016,,,A*52
$GPGGA,095139.000,5408.2058,N,08329.2465,E,1,10,0.8,374.1,M,-37.9,M,,0000*70
$GPGSA,A,3,21,15,18,20,27,10,24,29,16,30,,,1.2,0.8,0.9*31
$GPGSV,3,1,12,21,77,191,28,15,61,098,21,18,61,254,29,20,56,084,18*7B
$GPGSV,3,2,12,27,28,310,11,10,24,257,29,24,08,134,18,29,08,181,30*73
$GPGSV,3,3,12,16,06,280,21,30,06,016,18,05,04,078,04,57,38,098,10*7A
$GPRMC,095139.000,A,5408.2058,N,08329.2465,E,63.40,133.92,041016,,,A*53
$GPGGA,095140.000,5408.1934,N,08329.2676,E,1,10,0.8,375.2,M,-37.9,M,,0000*7C
$GPGSA,A,3,21,15,18,20,27,10,24,29,16,30,,,1.2,0.8,0.9*31
$GPRMC,095140.000,A,5408.1934,N,08329.2676,E,63.60,134.32,041016,,,A*52
$GPGGA,095141.000,5408.1811,N,08329.2891,E,1,10,0.8,376.3,M,-37.9,M,,0000*7E
$GPGSA,A,3,21,15,18,20,27,10,24,29,16,30,,,1.2,0.8,0.9*31
$GPRMC,095141.000,A,5408.1811,N,08329.2891,E,63.88,133.65,041016,,,A*51
$GPGGA,095142.000,5408.1688,N,08329.3107,E,1,10,0.8,377.3,M,-37.9,M,,0000*75
$GPGSA,A,3,21,15,18,20,27,10,24,29,16,30,,,1.2,0.8,0.9*31
$GPRMC,095142.000,A,5408.1688,N,08329.3107,E,63.29,133.64,041016,,,A*51
$GPGGA,095143.000,5408.1566,N,08329.3322,E,1,10,0.8,378.5,M,-37.9,M,,0000*7B
$GPGSA,A,3,21,15,18,20,27,10,24,29,16,30,,,1.2,0.8,0.9*31
$GPRMC,095143.000,A,5408.1566,N,08329.3322,E,62.97,132.90,041016,,,A*58
$GPGGA,095144.000,5408.1447,N,08329.3540,E,1,10,0.8,379.8,M,-37.9,M,,0000*70
$GPGSA,A,3,21,15,18,20,27,10,24,29,16,30,,,1.2,0.8,0.9*31
$GPGSV,3,1,12,21,77,191,29,15,61,098,21,18,61,254,29,20,56,084,19*7B
$GPGSV,3,2,12,27,28,310,11,10,24,257,21,24,08,134,18,29,08,181,29*73
$GPGSV,3,3,12,16,06,280,22,30,06,016,18,05,04,078,11,57,38,098,09*75
$GPRMC,095144.000,A,5408.1447,N,08329.3540,E,62.51,131.88,041016,,,A*5F
$GPGGA,095145.000,5408.1332,N,08329.3759,E,1,10,0.8,381.0,M,-37.9,M,,0000*71
$GPGSA,A,3,21,15,18,20,27,10,24,29,16,30,,,1.2,0.8,0.9*31
$GPRMC,095145.000,A,5408.1332,N,08329.3759,E,61.41,131.43,041016,,,A*54
$GPGGA,095146.000,5408.1221,N,08329.3975,E,1,11,0.8,382.0,M,-37.9,M,,0000*73
$GPGSA,A,3,21,15,18,20,13,27,10,24,29,16,30,,1.2,0.8,0.9*33
$GPRMC,095146.000,A,5408.1221,N,08329.3975,E,60.54,130.18,041016,,,A*5E
$GPGGA,095147.000,5408.1115,N,08329.4193,E,1,09,0.9,382.9,M,-37.9,M,,0000*70
$GPGSA,A,3,21,15,18,20,27,24,29,16,30,,,,1.3,0.9,0.9*30
$GPRMC,095147.000,A,5408.1115,N,08329.4193,E,59.58,129.41,041016,,,A*5E
$GPGGA,095148.000,5408.1012,N,08329.4411,E,1,10,0.8,384.0,M,-37.9,M,,0000*70
$GPGSA,A,3,21,15,18,20,57,27,24,29,16,30,,,1.3,0.8,0.9*33
$GPRMC,095148.000,A,5408.1012,N,08329.4411,E,59.21,128.18,041016,,,A*5B
$GPGGA,095149.000,5408.0912,N,08329.4628,E,1,10,0.8,385.2,M,-37.9,M,,0000*72
$GPGSA,A,3,21,15,18,20,57,27,24,29,16,30,,,1.3,0.8,0.9*33
$GPGSV,3,1,12,21,77,191,29,15,61,098,22,18,61,254,29,20,56,084,19*78
$GPGSV,3,2,12,57,38,098,20,27,28,310,09,24,08,134,18,29,08,181,29*74
$GPGSV,3,3,12,16,06,280,18,30,06,016,17,05,04,078,14,10,24,257,17*76
$GPRMC,095149.000,A,5408.0912,N,08329.4628,E,58.53,127.66,041016,,,A*58
$GPGGA,095150.000,5408.0815,N,08329.4848,E,1,11,0.8,386.6,M,-37.9,M,,0000*72
$GPGSA,A,3,21,15,18,20,57,27,10,24,29,16,30,,1.2,0.8,0.9*33
$GPRMC,095150.000,A,5408.0815,N,08329.4848,E,58.08,126.20,041016,,,A*53
$GPGGA,095151.000,5408.0718,N,08329.5067,E,1,11,0.8,388.1,M,-37.9,M,,0000*7C
$GPGSA,A,3,21,15,18,20,57,27,10,24,29,16,30,,1.2,0.8,0.9*33
$GPRMC,095151.000,A,5408.0718,N,08329.5067,E,58.33,126.39,041016,,,A*54
$GPGGA,095152.000,5408.0621,N,08329.5288,E,1,10,0.8,389.2,M,-37.9,M,,0000*74
$GPGSA,A,3,21,15,18,20,57,10,24,29,16,30,,,1.3,0.8,0.9*37
$GPRMC,095152.000,A,5408.0621,N,08329.5288,E,58.38,127.40,041016,,,A*5B
$GPGGA,095153.000,5408.0520,N,08329.5507,E,1,12,0.8,390.3,M,-37.9,M,,0000*7C
$GPGSA,A,3,21,15,18,20,13,57,27,10,24,29,16,30,1.2,0.8,0.9*31
$GPRMC,095153.000,A,5408.0520,N,08329.5507,E,59.41,128.72,041016,,,A*59
$GPGGA,095154.000,5408.0417,N,08329.5725,E,1,11,0.8,391.0,M,-37.9,M,,0000*7D
$GPGSA,A,3,21,15,18,20,13,57,10,24,29,16,30,,1.2,0.8,0.9*34
$GPGSV,3,1,12,21,77,191,29,15,61,098,21,18,61,254,29,20,56,084,19*7B
$GPGSV,3,2,12,13,39,057,22,57,38,098,18,10,24,257,19,24,08,134,19*7F
$GPGSV,3,3,12,29,08,181,29,16,06,280,16,30,06,016,16,27,28,310,08*76
$GPRMC,095154.000,A,5408.0417,N,08329.5725,E,59.81,129.46,041016,,,A*53
$GPGGA,095155.000,5408.0312,N,08329.5943,E,1,11,0.8,391.2,M,-37.9,M,,0000*72
$GPGSA,A,3,21,15,18,20,13,57,10,24,29,16,30,,1.2,0.8,0.9*34
$GPRMC,095155.000,A,5408.0312,N,08329.5943,E,60.27,130.09,041016,,,A*5B
$GPGGA,095156.000,5408.0204,N,08329.6158,E,1,12,0.8,391.4,M,-37.9,M,,0000*73
$GPGSA,A,3,21,15,18,20,13,57,27,10,24,29,16,30,1.2,0.8,0.9*31
$GPRMC,095156.000,A,5408.0204,N,08329.6158,E,60.48,130.98,041016,,,A*5E
$GPGGA,095157.000,5408.0096,N,08329.6373,E,1,12,0.8,391.3,M,-37.9,M,,0000*77
$GPGSA,A,3,21,15,18,20,13,57,27,10,24,29,16,30,1.2,0.8,0.9*31
$GPRMC,095157.000,A,5408.0096,N,08329.6373,E,60.55,130.86,041016,,,A*5E
$GPGGA,095158.000,5407.9990,N,08329.6587,E,1,12,0.8,391.1,M,-37.9,M,,0000*7E
$GPGSA,A,3,21,15,18,20,13,57,27,10,24,29,16,30,1.2,0.8,0.9*31
$GPRMC,095158.000,A,5407.9990,N,08329.6587,E,60.14,130.64,041016,,,A*5C
$GPGGA,095159.000,5407.9887,N,08329.6802,E,1,10,0.8,390.6,M,-37.9,M,,0000*7C
$GPGSA,A,3,21,15,18,20,57,10,24,29,16,30,,,1.3,0.8,0.9*37
$GPGSV,3,1,12,21,77,191,29,15,61,098,21,18,61,254,29,20,56,084,18*7A
$GPGSV,3,2,12,57,38,098,17,10,24,257,19,24,08,134,19,29,08,181,29*7A
$GPGSV,3,3,12,16,06,280,15,30,06,016,16,05,04,078,15,27,28,310,05*72
$GPRMC,095159.000,A,5407.9887,N,08329.6802,E,59.66,129.94,041016,,,A*52
$GPGGA,095200.000,5407.9786,N,08329.7019,E,1,10,0.8,390.0,M,-37.9,M,,0000*78
$GPGSA,A,3,21,15,18,20,57,10,24,29,16,30,,,1.3,0.8,0.9*37
$GPRMC,095200.000,A,5407.9786,N,08329.7019,E,59.45,129.30,041016,,,A*5F
$GPGGA,095201.000,5407.9687,N,08329.7236,E,1,10,0.8,389.2,M,-37.9,M,,0000*7C
$GPGSA,A,3,21,15,18,20,57,10,24,29,16,30,,,1.3,0.8,0.9*37
$GPRMC,095201.000,A,5407.9687,N,08329.7236,E,59.29,128.94,041016,,,A*54
$GPGGA,095202.000,5407.9586,N,08329.7452,E,1,09,1.3,388.8,M,-37.9,M,,0000*70
$GPGSA,A,3,21,15,18,20,57,10,24,29,16,,,,1.8,1.3,1.2*3F
$GPRMC,095202.000,A,5407.9586,N,08329.7452,E,59.20,128.78,041016,,,A*5A
$GPGGA,095203.000,5407.9484,N,08329.7667,E,1,09,1.3,388.6,M,-37.9,M,,0000*78
$GPGSA,A,3,21,15,18,20,57,10,24,29,16,,,,1.8,1.3,1.2*3F
$GPRMC,095203.000,A,5407.9484,N,08329.7667,E,59.25,129.22,041016,,,A*57
$GPGGA,095204.000,5407.9380,N,08329.7880,E,1,09,1.3,388.4,M,-37.9,M,,0000*79
$GPGSA,A,3,21,15,18,20,57,10,24,29,16,,,,1.8,1.3,1.2*3F
$GPGSV,3,1,12,21,77,191,29,15,61,098,21,18,61,254,29,20,56,084,18*7A
$GPGSV,3,2,12,57,38,098,16,10,24,257,20,24,08,134,20,29,08,181,29*7B
$GPGSV,3,3,12,16,06,280,16,05,04,078,16,27,28,310,05,30,06,016,06*73
$GPRMC,095204.000,A,5407.9380,N,08329.7880,E,59.16,130.13,041016,,,A*5E
$GPGGA,095205.000,5407.9280,N,08329.8096,E,1,09,0.8,387.5,M,-37.9,M,,0000*7D
$GPGSA,A,3,21,18,20,57,10,24,29,16,30,,,,1.3,0.8,1.0*3B
$GPRMC,095205.000,A,5407.9280,N,08329.8096,E,58.94,129.93,041016,,,A*55
$GPGGA,095206.000,5407.9181,N,08329.8311,E,1,10,0.8,386.5,M,-37.9,M,,0000*79
$GPGSA,A,3,21,15,18,20,57,10,24,29,16,30,,,1.3,0.8,0.9*37
$GPRMC,095206.000,A,5407.9181,N,08329.8311,E,58.67,129.45,041016,,,A*5F
$GPGGA,095207.000,5407.9081,N,08329.8525,E,1,11,0.8,385.8,M,-37.9,M,,0000*77
$GPGSA,A,3,21,15,18,20,13,57,10,24,29,16,30,,1.2,0.8,0.9*34
$GPRMC,095207.000,A,5407.9081,N,08329.8525,E,58.15,129.11,041016,,,A*5A
$GPGGA,095208.000,5407.8984,N,08329.8739,E,1,10,0.8,385.0,M,-37.9,M,,0000*73
$GPGSA,A,3,21,15,18,20,57,10,24,29,16,30,,,1.3,0.8,0.9*37
$GPRMC,095208.000,A,5407.8984,N,08329.8739,E,57.06,129.24,041016,,,A*5C
$GPGGA,095209.000,5407.8888,N,08329.8948,E,1,11,0.8,384.1,M,-37.9,M,,0000*76
$GPGSA,A,3,21,15,18,20,13,57,10,24,29,16,30,,1.2,0.8,0.9*34
$GPGSV,3,1,12,21,77,191,29,15,61,098,18,18,61,254,29,20,56,084,17*7F
$GPGSV,3,2,12,13,39,057,21,57,38,098,17,10,24,257,19,24,08,134,19*73
$GPGSV,3,3,12,29,08,181,28,16,06,280,15,30,06,016,11,27,28,310,06*7D
$GPRMC,095209.000,A,5407.8888,N,08329.8948,E,57.06,128.70,041016,,,A*58
$GPGGA,095210.000,5407.8790,N,08329.9155,E,1,10,0.9,383.5,M,-37.9,M,,0000*7E
$GPGSA,A,3,21,15,18,20,13,57,24,29,16,30,,,1.3,0.9,0.9*35
$GPRMC,095210.000,A,5407.8790,N,08329.9155,E,57.20,129.29,041016,,,A*5A
$GPGGA,095211.000,5407.8690,N,08329.9363,E,1,11,0.8,383.0,M,-37.9,M,,0000*7C
$GPGSA,A,3,21,15,18,20,13,57,10,24,29,16,30,,1.2,0.8,0.9*34
$GPRMC,095211.000,A,5407.8690,N,08329.9363,E,57.57,129.41,041016,,,A*53
$GPGGA,095212.000,5407.8591,N,08329.9572,E,1,11,0.8,382.2,M,-37.9,M,,0000*78
$GPGSA,A,3,21,15,18,20,13,57,10,24,29,16,30,,1.2,0.8,0.9*34
$GPRMC,095212.000,A,5407.8591,N,08329.9572,E,57.31,129.44,041016,,,A*51
$GPGGA,095213.000,5407.8493,N,08329.9779,E,1,11,0.8,381.3,M,-37.9,M,,0000*71
$GPGSA,A,3,21,15,18,20,13,57,10,24,29,16,30,,1.2,0.8,0.9*34
$GPRMC,095213.000,A,5407.8493,N,08329.9779,E,56.73,129.81,041016,,,A*54
$GPGGA,095214.000,5407.8394,N,08329.9983,E,1,11,0.8,380.3,M,-37.9,M,,0000*7C
$GPGSA,A,3,21,15,18,20,13,57,10,24,29,16,30,,1.2,0.8,0.9*34
$GPGSV,3,1,12,21,77,191,29,15,61,098,17,18,61,254,29,20,56,084,17*70
$GPGSV,3,2,12,13,39,057,19,57,38,098,15,10,24,257,20,24,08,134,19*70
$GPGSV,3,3,12,29,08,181,28,16,06,280,16,30,06,016,15,27,28,310,04*78
$GPRMC,095214.000,A,5407.8394,N,08329.9983,E,56.93,129.84,041016,,,A*53
$GPGGA,095215.000,5407.8294,N,08330.0187,E,1,11,0.8,379.5,M,-37.9,M,,0000*71
$GPGSA,A,3,21,15,18,20,13,57,10,24,29,16,30,,1.2,0.8,0.9*34
$GPRMC,095215.000,A,5407.8294,N,08330.0187,E,56.54,130.85,041016,,,A*5C
$GPGGA,095216.000,5407.8194,N,08330.0388,E,1,11,0.8,378.2,M,-37.9,M,,0000*7A
$GPGSA,A,3,21,15,18,20,13,57,10,24,29,16,30,,1.2,0.8,0.9*34
$GPRMC,095216.000,A,5407.8194,N,08330.0388,E,56.34,131.43,041016,,,A*5C
$GPGGA,095217.000,5407.8092,N,08330.0587,E,1,11,0.8,377.2,M,-37.9,M,,0000*7A
$GPGSA,A,3,21,15,18,20,13,57,10,24,29,16,30,,1.2,0.8,0.9*34
$GPRMC,095217.000,A,5407.8092,N,08330.0587,E,56.22,131.23,041016,,,A*52
$GPGGA,095218.000,5407.7994,N,08330.0788,E,1,11,0.8,375.9,M,-37.9,M,,0000*71
$GPGSA,A,3,21,15,18,20,13,57,10,24,29,16,30,,1.2,0.8,0.9*34
$GPRMC,095218.000,A,5407.7994,N,08330.0788,E,55.67,130.70,041016,,,A*55
$GPGGA,095219.000,5407.7896,N,08330.0988,E,1,11,0.8,374.8,M,-37.9,M,,0000*7D
$GPGSA,A,3,21,15,18,20,13,57,10,24,29,16,30,,1.2,0.8,0.9*34
$GPGSV,3,1,12,21,77,191,29,15,61,098,17,18,61,254,29,20,56,084,16*71
$GPGSV,3,2,12,13,39,057,21,57,38,098,14,10,24,257,21,24,08,134,19*7B
$GPGSV,3,3,12,29,08,181,28,16,06,280,17,30,06,016,16,27,28,310,06*78
$GPRMC,095219.000,A,5407.7896,N,08330.0988,E,55.33,130.73,041016,,,A*5B
$GPGGA,095220.000,5407.7797,N,08330.1184,E,1,11,0.8,373.9,M,-37.9,M,,0000*7A
$GPGSA,A,3,21,15,18,20,13,57,10,24,29,16,30,,1.2,0.8,0.9*34
$GPRMC,095220.000,A,5407.7797,N,08330.1184,E,54.79,131.09,041016,,,A*59
$GPGGA,095221.000,5407.7700,N,08330.1382,E,1,11,0.8,373.0,M,-37.9,M,,0000*78
$GPGSA,A,3,21,15,18,20,13,57,10,24,29,16,30,,1.2,0.8,0.9*34
$GPRMC,095221.000,A,5407.7700,N,08330.1382,E,54.87,130.62,041016,,,A*5F
$GPGGA,095222.000,5407.7604,N,08330.1581,E,1,11,0.8,371.9,M,-37.9,M,,0000*70
$GPGSA,A,3,21,15,18,20,13,57,10,24,29,16,30,,1.2,0.8,0.9*34
$GPRMC,095222.000,A,5407.7604,N,08330.1581,E,54.78,130.72,041016,,,A*5D
$GPGGA,095223.000,5407.7507,N,08330.1779,E,1,10,0.8,370.9,M,-37.9,M,,0000*74
$GPGSA,A,3,21,15,18,20,13,10,24,29,16,30,,,1.2,0.8,0.9*36
$GPRMC,095223.000,A,5407.7507,N,08330.1779,E,54.77,130.54,041016,,,A*52
$GPGGA,095224.000,5407.7412,N,08330.1975,E,1,10,0.8,369.6,M,-37.9,M,,0000*73
$GPGSA,A,3,21,15,18,20,13,10,24,29,16,30,,,1.2,0.8,0.9*36
$GPGSV,3,1,12,21,77,191,29,15,61,098,16,18,61,254,29,20,56,084,17*71
$GPGSV,3,2,12,13,39,057,22,10,24,257,22,24,08,134,19,29,08,181,29*76
$GPGSV,3,3,12,16,06,280,18,30,06,016,18,05,04,078,16,08,02,336,16*71
$GPRMC,095224.000,A,5407.7412,N,08330.1975,E,54.08,131.03,041016,,,A*59
$GPGGA,095225.000,5407.7316,N,08330.2168,E,1,10,0.8,368.6,M,-37.9,M,,0000*77
$GPGSA,A,3,21,15,18,20,13,10,24,29,16,30,,,1.2,0.8,0.9*36
$GPRMC,095225.000,A,5407.7316,N,08330.2168,E,53.99,130.36,041016,,,A*54
$GPGGA,095226.000,5407.7224,N,08330.2366,E,1,10,0.8,367.2,M,-37.9,M,,0000*73
$GPGSA,A,3,21,15,18,20,13,10,24,29,16,30,,,1.2,0.8,0.9*36
$GPRMC,095226.000,A,5407.7224,N,08330.2366,E,53.84,129.46,041016,,,A*58
$GPGGA,095227.000,5407.7130,N,08330.2562,E,1,10,0.8,366.1,M,-37.9,M,,0000*74
$GPGSA,A,3,21,15,18,20,13,10,24,29,16,30,,,1.2,0.8,0.9*36
$GPRMC,095227.000,A,5407.7130,N,08330.2562,E,53.41,129.69,041016,,,A*59
$GPGGA,095228.000,5407.7037,N,08330.2756,E,1,10,0.8,365.0,M,-37.9,M,,0000*7A
$GPGSA,A,3,21,15,18,20,13,10,24,29,16,30,,,1.2,0.8,0.9*36
$GPRMC,095228.000,A,5407.7037,N,08330.2756,E,53.49,130.02,041016,,,A*58
$GPGGA,095229.000,5407.6942,N,08330.2951,E,1,10,0.8,364.1,M,-37.9,M,,0000*78
$GPGSA,A,3,21,15,18,20,13,10,24,29,16,30,,,1.2,0.8,0.9*36
$GPGSV,3,1,12,21,77,191,29,15,61,098,16,18,61,254,29,20,56,084,16*70
$GPGSV,3,2,12,13,39,057,20,10,24,257,22,24,08,134,19,29,08,181,29*74
$GPGSV,3,3,12,16,06,280,19,30,06,016,18,05,04,078,16,08,02,336,17*71
$GPRMC,095229.000,A,5407.6942,N,08330.2951,E,53.72,129.46,041016,,,A*5A
$GPGGA,095230.000,5407.6848,N,08330.3146,E,1,10,0.8,363.1,M,-37.9,M,,0000*73
$GPGSA,A,3,21,15,18,20,13,10,24,29,16,30,,,1.2,0.8,0.9*36
$GPRMC,095230.000,A,5407.6848,N,08330.3146,E,53.40,129.70,041016,,,A*52
$GPGGA,095231.000,5407.6756,N,08330.3340,E,1,10,0.8,362.1,M,-37.9,M,,0000*77
$GPGSA,A,3,21,15,18,20,13,10,24,29,16,30,,,1.2,0.8,0.9*36
$GPRMC,095231.000,A,5407.6756,N,08330.3340,E,53.33,128.49,041016,,,A*58
$GPGGA,095232.000,5407.6665,N,08330.3537,E,1,10,0.8,361.1,M,-37.9,M,,0000*70
$GPGSA,A,3,21,15,18,20,13,10,24,29,16,30,,,1.2,0.8,0.9*36
$GPRMC,095232.000,A,5407.6665,N,08330.3537,E,53.07,128.08,041016,,,A*5E
$GPGGA,095233.000,5407.6575,N,08330.3732,E,1,10,0.8,360.2,M,-37.9,M,,0000*76
$GPGSA,A,3,21,15,18,20,13,10,24,29,16,30,,,1.2,0.8,0.9*36
$GPRMC,095233.000,A,5407.6575,N,08330.3732,E,52.71,127.86,041016,,,A*53
$GPGGA,095234.000,5407.6486,N,08330.3927,E,1,09,0.9,359.5,M,-37.9,M,,0000*72
$GPGSA,A,3,21,15,18,20,10,24,29,16,30,,,,1.3,0.9,0.9*34
$GPGSV,3,1,12,21,77,191,29,15,61,098,17,18,61,254,29,20,56,084,16*71
$GPGSV,3,2,12,10,24,257,21,24,08,134,18,29,08,181,28,16,06,280,18*7D
$GPGSV,3,3,12,30,06,016,17,05,04,078,17,08,02,336,16,13,39,057,*77
$GPRMC,095234.000,A,5407.6486,N,08330.3927,E,52.84,127.41,041016,,,A*52
$GPGGA,095235.000,5407.6395,N,08330.4123,E,1,10,0.8,359.1,M,-37.9,M,,0000*70
$GPGSA,A,3,21,15,18,20,13,10,24,29,16,30,,,1.2,0.8,0.9*36
$GPRMC,095235.000,A,5407.6395,N,08330.4123,E,53.31,127.18,041016,,,A*5E
$GPGGA,095236.000,5407.6303,N,08330.4319,E,1,10,0.8,358.8,M,-37.9,M,,0000*7F
$GPGSA,A,3,21,15,18,20,13,10,24,29,16,30,,,1.2,0.8,0.9*36
$GPRMC,095236.000,A,5407.6303,N,08330.4319,E,53.44,127.59,041016,,,A*5E
$GPGGA,095237.000,5407.6211,N,08330.4516,E,1,11,0.8,358.4,M,-37.9,M,,0000*78
$GPGSA,A,3,21,15,18,20,13,57,10,24,29,16,30,,1.2,0.8,0.9*34
$GPRMC,095237.000,A,5407.6211,N,08330.4516,E,53.60,127.59,041016,,,A*52
$GPGGA,095238.000,5407.6120,N,08330.4715,E,1,11,0.8,357.9,M,-37.9,M,,0000*75
$GPGSA,A,3,21,15,18,20,13,57,10,24,29,16,30,,1.2,0.8,0.9*34
$GPRMC,095238.000,A,5407.6120,N,08330.4715,E,53.80,127.40,041016,,,A*5B
$GPGGA,095239.000,5407.6028,N,08330.4914,E,1,11,0.8,357.5,M,-37.9,M,,0000*7E
$GPGSA,A,3,21,15,18,20,13,57,10,24,29,16,30,,1.2,0.8,0.9*34
$GPGSV,3,1,12,21,77,191,29,15,61,098,18,18,61,254,28,20,56,084,16*7F
$GPGSV,3,2,12,13,39,057,21,57,38,098,18,10,24,257,16,24,08,134,18*72
$GPGSV,3,3,12,29,08,181,28,16,06,280,16,30,06,016,16,05,04,078,17*7A
$GPRMC,095239.000,A,5407.6028,N,08330.4914,E,53.78,127.61,041016,,,A*58
$GPGGA,095240.000,5407.5934,N,08330.5114,E,1,11,0.8,357.4,M,-37.9,M,,0000*7F
$GPGSA,A,3,21,15,18,20,13,57,10,24,29,16,30,,1.2,0.8,0.9*34
$GPRMC,095240.000,A,5407.5934,N,08330.5114,E,54.32,127.69,041016,,,A*59
$GPGGA,095241.000,5407.5840,N,08330.5313,E,1,11,0.8,357.3,M,-37.9,M,,0000*7E
$GPGSA,A,3,21,15,18,20,13,57,10,24,29,16,30,,1.2,0.8,0.9*34
$GPRMC,095241.000,A,5407.5840,N,08330.5313,E,54.16,127.96,041016,,,A*59
$GPGGA,095242.000,5407.5744,N,08330.5512,E,1,11,0.8,357.0,M,-37.9,M,,0000*72
$GPGSA,A,3,21,15,18,20,13,57,10,24,29,16,30,,1.2,0.8,0.9*34
$GPRMC,095242.000,A,5407.5744,N,08330.5512,E,55.06,128.47,041016,,,A*55
$GPGGA,095243.000,5407.5647,N,08330.5713,E,1,11,0.8,356.7,M,-37.9,M,,0000*74
$GPGSA,A,3,21,15,18,20,13,57,10,24,29,16,30,,1.2,0.8,0.9*34
$GPRMC,095243.000,A,5407.5647,N,08330.5713,E,55.35,128.92,041016,,,A*5D
$GPGGA,095244.000,5407.5546,N,08330.5910,E,1,11,0.8,356.6,M,-37.9,M,,0000*7D
$GPGSA,A,3,21,15,18,20,13,57,10,24,29,16,30,,1.2,0.8,0.9*34
$GPGSV,3,1,12,21,77,191,29,15,61,098,18,18,61,254,28,20,56,084,17*7E
$GPGSV,3,2,12,13,39,057,21,57,38,098,17,10,24,257,19,24,08,134,18*72
$GPGSV,3,3,12,29,08,181,28,16,06,280,17,30,06,016,17,05,04,078,16*7B
$GPRMC,095244.000,A,5407.5546,N,08330.5910,E,55.09,129.71,041016,,,A*56
$GPGGA,095245.000,5407.5448,N,08330.6107,E,1,11,0.8,356.2,M,-37.9,M,,0000*7A
$GPGSA,A,3,21,15,18,20,13,57,10,24,29,16,30,,1.2,0.8,0.9*34
$GPRMC,095245.000,A,5407.5448,N,08330.6107,E,54.85,129.12,041016,,,A*55
$GPGGA,095246.000,5407.5351,N,08330.6306,E,1,11,0.8,356.1,M,-37.9,M,,0000*76
$GPGSA,A,3,21,15,18,20,13,57,10,24,29,16,30,,1.2,0.8,0.9*34
$GPRMC,095246.000,A,5407.5351,N,08330.6306,E,54.76,128.89,041016,,,A*55
$GPGGA,095247.000,5407.5253,N,08330.6504,E,1,11,0.8,356.2,M,-37.9,M,,0000*73
$GPGSA,A,3,21,15,18,20,13,57,10,24,29,16,30,,1.2,0.8,0.9*34
$GPRMC,095247.000,A,5407.5253,N,08330.6504,E,54.64,128.40,041016,,,A*55
$GPGGA,095248.000,5407.5157,N,08330.6703,E,1,11,0.8,356.4,M,-37.9,M,,0000*78
$GPGSA,A,3,21,15,18,20,13,57,10,24,29,16,30,,1.2,0.8,0.9*34
$GPRMC,095248.000,A,5407.5157,N,08330.6703,E,54.19,128.51,041016,,,A*52
$GPGGA,095249.000,5407.5062,N,08330.6901,E,1,11,0.8,356.6,M,-37.9,M,,0000*70
$GPGSA,A,3,21,15,18,20,13,57,10,24,29,16,30,,1.2,0.8,0.9*34
$GPGSV,3,1,12,21,77,191,29,15,61,098,18,18,61,254,29,20,56,084,17*7F
$GPGSV,3,2,12,13,39,057,21,57,38,098,16,10,24,257,21,24,08,134,18*78
$GPGSV,3,3,12,29,08,181,28,16,06,280,17,30,06,016,17,05,04,078,15*78
$GPRMC,095249.000,A,5407.5062,N,08330.6901,E,54.43,127.75,041016,,,A*5E
$GPGGA,095250.000,5407.4965,N,08330.7098,E,1,11,0.8,357.1,M,-37.9,M,,0000*79
$GPGSA,A,3,21,15,18,20,13,57,10,24,29,16,30,,1.2,0.8,0.9*34
$GPRMC,095250.000,A,5407.4965,N,08330.7098,E,54.13,128.13,041016,,,A*5B
$GPGGA,095251.000,5407.4867,N,08330.7293,E,1,11,0.8,357.7,M,-37.9,M,,0000*74
$GPGSA,A,3,21,15,18,20,13,57,10,24,29,16,30,,1.2,0.8,0.9*34
$GPRMC,095251.000,A,5407.4867,N,08330.7293,E,54.06,128.90,041016,,,A*5F
$GPGGA,095252.000,5407.4767,N,08330.7486,E,1,11,0.8,358.3,M,-37.9,M,,0000*71
$GPGSA,A,3,21,15,18,20,13,57,10,24,29,16,30,,1.2,0.8,0.9*34
$GPRMC,095252.000,A,5407.4767,N,08330.7486,E,54.70,130.03,041016,,,A*53
$GPGGA,095253.000,5407.4665,N,08330.7678,E,1,11,0.8,358.6,M,-37.9,M,,0000*75
$GPGSA,A,3,21,15,18,20,13,57,10,24,29,16,30,,1.2,0.8,0.9*34
$GPRMC,095253.000,A,5407.4665,N,08330.7678,E,54.73,131.50,041016,,,A*56
$GPGGA,095254.000,5407.4563,N,08330.7868,E,1,11,0.8,358.8,M,-37.9,M,,0000*76
$GPGSA,A,3,21,15,18,20,13,57,10,24,29,16,30,,1.2,0.8,0.9*34
$GPGSV,3,1,12,21,77,191,29,15,61,098,18,18,61,254,29,20,56,084,17*7F
$GPGSV,3,2,12,13,39,057,22,57,38,098,15,10,24,257,22,24,08,134,18*7B
$GPGSV,3,3,12,29,08,181,29,16,06,280,19,30,06,016,18,05,04,078,14*79
$GPRMC,095254.000,A,5407.4563,N,08330.7868,E,54.61,131.39,041016,,,A*57
$GPGGA,095255.000,5407.4461,N,08330.8059,E,1,11,0.8,359.2,M,-37.9,M,,0000*7A
$GPGSA,A,3,21,15,18,20,13,57,10,24,29,16,30,,1.2,0.8,0.9*34
$GPRMC,095255.000,A,5407.4461,N,08330.8059,E,54.45,131.23,041016,,,A*5D
$GPGGA,095256.000,5407.4358,N,08330.8247,E,1,11,0.8,359.6,M,-37.9,M,,0000*7D
$GPGSA,A,3,21,15,18,20,13,57,10,24,29,16,30,,1.2,0.8,0.9*34
$GPRMC,095256.000,A,5407.4358,N,08330.8247,E,54.26,131.57,041016,,,A*58
$GPGGA,095257.000,5407.4255,N,08330.8434,E,1,11,0.8,359.8,M,-37.9,M,,0000*7C
$GPGSA,A,3,21,15,18,20,13,57,10,24,29,16,30,,1.2,0.8,0.9*34
$GPRMC,095257.000,A,5407.4255,N,08330.8434,E,54.52,132.11,041016,,,A*55
$GPGGA,095258.000,5407.4150,N,08330.8623,E,1,11,0.8,360.1,M,-37.9,M,,0000*72
$GPGSA,A,3,21,15,18,20,13,57,10,24,29,16,30,,1.2,0.8,0.9*34
$GPRMC,095258.000,A,5407.4150,N,08330.8623,E,55.05,132.41,041016,,,A*5E
$GPGGA,095259.000,5407.4044,N,08330.8813,E,1,11,0.8,360.3,M,-37.9,M,,0000*78
$GPGSA,A,3,21,15,18,20,13,57,10,24,29,16,30,,1.2,0.8,0.9*34
$GPGSV,3,1,12,21,77,191,29,15,61,098,19,18,61,254,29,20,56,084,11*78
$GPGSV,3,2,12,13,39,057,22,57,38,098,13,10,24,257,22,24,08,134,17*72
$GPGSV,3,3,12,29,08,181,29,16,06,280,20,30,06,016,18,05,04,078,10*77
$GPRMC,095259.000,A,5407.4044,N,08330.8813,E,55.67,132.50,041016,,,A*52
$GPGGA,095300.000,5407.3938,N,08330.9002,E,1,11,0.8,360.1,M,-37.9,M,,0000*7B
$GPGSA,A,3,21,15,18,20,13,57,10,24,29,16,30,,1.2,0.8,0.9*34
$GPRMC,095300.000,A,5407.3938,N,08330.9002,E,55.79,133.17,041016,,,A*5E
$GPGGA,095301.000,5407.3832,N,08330.9193,E,1,11,0.8,359.7,M,-37.9,M,,0000*74
$GPGSA,A,3,21,15,18,20,13,57,10,24,29,16,30,,1.2,0.8,0.9*34
$GPRMC,095301.000,A,5407.3832,N,08330.9193,E,55.55,133.02,041016,,,A*57
$GPGGA,095302.000,5407.3731,N,08330.9384,E,1,11,0.8,358.9,M,-37.9,M,,0000*70
$GPGSA,A,3,21,15,18,20,13,57,10,24,29,16,30,,1.2,0.8,0.9*34
$GPRMC,095302.000,A,5407.3731,N,08330.9384,E,54.95,131.70,041016,,,A*56
$GPGGA,095303.000,5407.3632,N,08330.9578,E,1,11,0.8,358.4,M,-37.9,M,,0000*7B
$GPGSA,A,3,21,15,18,20,13,57,10,24,29,16,30,,1.2,0.8,0.9*34
$GPRMC,095303.000,A,5407.3632,N,08330.9578,E,54.43,130.47,041016,,,A*5E
$GPGGA,095304.000,5407.3537,N,08330.9776,E,1,11,0.8,357.6,M,-37.9,M,,0000*7B
$GPGSA,A,3,21,15,18,20,13,57,10,24,29,16,30,,1.2,0.8,0.9*34
$GPGSV,3,1,12,21,77,191,29,15,61,098,18,18,61,254,29,20,56,084,13*7B
$GPGSV,3,2,12,13,39,057,22,57,38,098,14,10,24,257,22,24,08,134,18*7A
$GPGSV,3,3,12,29,08,181,30,16,06,280,20,30,06,016,18,05,04,078,09*77
$GPRMC,095304.000,A,5407.3537,N,08330.9776,E,54.23,129.74,041016,,,A*5D
$GPGGA,095305.000,5407.3443,N,08330.9974,E,1,11,0.8,356.8,M,-37.9,M,,0000*7B
$GPGSA,A,3,21,15,18,20,13,57,10,24,29,16,30,,1.2,0.8,0.9*34
$GPRMC,095305.000,A,5407.3443,N,08330.9974,E,54.21,129.48,041016,,,A*5F
$GPGGA,095306.000,5407.3346,N,08331.0171,E,1,11,0.8,356.2,M,-37.9,M,,0000*75
$GPGSA,A,3,21,15,18,20,13,57,10,24,29,16,30,,1.2,0.8,0.9*34
$GPRMC,095306.000,A,5407.3346,N,08331.0171,E,54.49,129.74,041016,,,A*5A
$GPGGA,095307.000,5407.3249,N,08331.0370,E,1,11,0.8,355.5,M,-37.9,M,,0000*7D
$GPGSA,A,3,21,15,18,20,13,57,10,24,29,16,30,,1.2,0.8,0.9*34
$GPRMC,095307.000,A,5407.3249,N,08331.0370,E,54.59,130.06,041016,,,A*5A
$GPGGA,095308.000,5407.3152,N,08331.0568,E,1,11,0.8,354.7,M,-37.9,M,,0000*77
$GPGSA,A,3,21,15,18,20,13,57,10,24,29,16,30,,1.2,0.8,0.9*34
$GPRMC,095308.000,A,5407.3152,N,08331.0568,E,55.01,130.44,041016,,,A*59
$GPGGA,095309.000,5407.3052,N,08331.0766,E,1,11,0.8,353.8,M,-37.9,M,,0000*73
$GPGSA,A,3,21,15,18,20,13,57,10,24,29,16,30,,1.2,0.8,0.9*34
$GPGSV,3,1,12,21,77,191,29,15,61,098,18,18,61,254,29,20,56,084,14*7C
$GPGSV,3,2,12,13,39,057,21,57,38,098,14,10,24,257,22,24,08,134,18*79
$GPGSV,3,3,12,29,08,181,29,16,06,280,19,30,06,016,17,05,04,078,11*73
$GPRMC,095309.000,A,5407.3052,N,08331.0766,E,55.16,131.16,041016,,,A*55
$GPGGA,095310.000,5407.2952,N,08331.0963,E,1,10,0.9,352.8,M,-37.9,M,,0000*79
$GPGSA,A,3,21,15,18,20,13,57,10,29,16,30,,,1.4,0.9,1.1*3C
$GPRMC,095310.000,A,5407.2952,N,08331.0963,E,55.62,131.66,041016,,,A*5A
$GPGGA,095311.000,5407.2851,N,08331.1161,E,1,10,0.9,351.5,M,-37.9,M,,0000*7F
$GPGSA,A,3,21,15,18,20,13,57,10,29,16,30,,,1.4,0.9,1.1*3C
$GPRMC,095311.000,A,5407.2851,N,08331.1161,E,55.95,131.57,041016,,,A*58
$GPGGA,095312.000,5407.2747,N,08331.1358,E,1,10,0.9,350.5,M,-37.9,M,,0000*7D
$GPGSA,A,3,21,15,18,20,13,57,10,29,16,30,,,1.4,0.9,1.1*3C
$GPRMC,095312.000,A,5407.2747,N,08331.1358,E,56.25,132.41,041016,,,A*57
$GPGGA,095313.000,5407.2643,N,08331.1556,E,1,10,0.9,349.2,M,-37.9,M,,0000*7E
$GPGSA,A,3,21,15,18,20,13,57,10,29,16,30,,,1.4,0.9,1.1*3C
$GPRMC,095313.000,A,5407.2643,N,08331.1556,E,56.71,132.21,041016,,,A*5C
$GPGGA,095314.000,5407.2538,N,08331.1756,E,1,10,0.9,348.1,M,-37.9,M,,0000*76
$GPGSA,A,3,21,15,18,20,13,57,10,29,16,30,,,1.4,0.9,1.1*3C
$GPGSV,3,1,12,21,77,191,29,15,61,098,19,18,61,254,29,20,56,084,14*7D
$GPGSV,3,2,12,13,39,057,22,57,38,098,13,10,24,257,22,29,08,181,29*7C
$GPGSV,3,3,12,16,06,280,19,30,06,016,18,05,04,078,11,08,02,336,15*74
$GPRMC,095314.000,A,5407.2538,N,08331.1756,E,56.85,132.22,041016,,,A*5E
$GPGGA,095315.000,5407.2433,N,08331.1955,E,1,10,0.9,347.2,M,-37.9,M,,0000*7C
$GPGSA,A,3,21,15,18,20,13,57,10,29,16,30,,,1.4,0.9,1.1*3C
$GPRMC,095315.000,A,5407.2433,N,08331.1955,E,56.77,131.78,041016,,,A*59
$GPGGA,095316.000,5407.2328,N,08331.2156,E,1,10,0.9,346.5,M,-37.9,M,,0000*7C
$GPGSA,A,3,21,15,18,20,13,57,10,29,16,30,,,1.4,0.9,1.1*3C
$GPRMC,095316.000,A,5407.2328,N,08331.2156,E,57.07,130.93,041016,,,A*5D
$GPGGA,095317.000,5407.2226,N,08331.2361,E,1,10,0.9,346.0,M,-37.9,M,,0000*71
$GPGSA,A,3,21,15,18,20,13,57,10,29,16,30,,,1.4,0.9,1.1*3C
$GPRMC,095317.000,A,5407.2226,N,08331.2361,E,56.93,129.35,041016,,,A*5D
$GPGGA,095318.000,5407.2126,N,08331.2569,E,1,10,0.9,345.4,M,-37.9,M,,0000*74
$GPGSA,A,3,21,15,18,20,13,57,10,29,16,30,,,1.4,0.9,1.1*3C
$GPRMC,095318.000,A,5407.2126,N,08331.2569,E,57.45,128.69,041016,,,A*5D
$GPGGA,095319.000,5407.2026,N,08331.2779,E,1,10,0.9,344.8,M,-37.9,M,,0000*7A
$GPGSA,A,3,21,15,18,20,13,57,10,29,16,30,,,1.4,0.9,1.1*3C
$GPGSV,3,1,12,21,77,191,29,15,61,098,19,18,61,254,29,20,56,084,19*70
$GPGSV,3,2,12,13,39,057,22,57,38,098,13,10,24,257,22,29,08,181,29*7C
$GPGSV,3,3,12,16,06,280,20,30,06,016,18,05,04,078,12,24,08,134,21*7E
$GPRMC,095319.000,A,5407.2026,N,08331.2779,E,57.88,128.64,041016,,,A*52
$GPGGA,095320.000,5407.1925,N,08331.2990,E,1,10,0.9,344.5,M,-37.9,M,,0000*7D
$GPGSA,A,3,21,15,18,20,13,57,10,29,16,30,,,1.4,0.9,1.1*3C
$GPRMC,095320.000,A,5407.1925,N,08331.2990,E,57.83,128.42,041016,,,A*57
$GPGGA,095321.000,5407.1825,N,08331.3205,E,1,10,0.9,344.3,M,-37.9,M,,0000*7D
$GPGSA,A,3,21,15,18,20,13,57,10,29,16,30,,,1.4,0.9,1.1*3C
$GPRMC,095321.000,A,5407.1825,N,08331.3205,E,57.81,128.04,041016,,,A*51
$GPGGA,095322.000,5407.1727,N,08331.3419,E,1,10,0.9,344.0,M,-37.9,M,,0000*7B
$GPGSA,A,3,21,15,18,20,13,57,10,29,16,30,,,1.4,0.9,1.1*3C
$GPRMC,095322.000,A,5407.1727,N,08331.3419,E,57.80,127.22,041016,,,A*5E
$GPGGA,095323.000,5407.1629,N,08331.3634,E,1,10,0.9,343.9,M,-37.9,M,,0000*76
$GPGSA,A,3,21,15,18,20,13,57,10,29,16,30,,,1.4,0.9,1.1*3C
$GPRMC,095323.000,A,5407.1629,N,08331.3634,E,57.60,127.28,041016,,,A*59
$GPGGA,095324.000,5407.1533,N,08331.3851,E,1,10,0.9,343.8,M,-37.9,M,,0000*75
$GPGSA,A,3,21,15,18,20,13,57,10,29,16,30,,,1.4,0.9,1.1*3C
$GPGSV,3,1,12,21,77,191,30,15,61,098,19,18,61,254,30,20,56,084,18*71
$GPGSV,3,2,12,13,39,057,21,57,38,098,14,10,24,257,22,29,08,181,30*70
$GPGSV,3,3,12,16,06,280,21,30,06,016,18,05,04,078,12,24,08,134,18*75
$GPRMC,095324.000,A,5407.1533,N,08331.3851,E,57.19,126.25,041016,,,A*59
$GPGGA,095325.000,5407.1441,N,08331.4070,E,1,11,0.8,343.7,M,-37.9,M,,0000*73
$GPGSA,A,3,21,15,18,20,13,57,10,24,29,16,30,,1.2,0.8,0.9*34
$GPRMC,095325.000,A,5407.1441,N,08331.4070,E,56.55,125.76,041016,,,A*5C
$GPGGA,095326.000,5407.1350,N,08331.4287,E,1,09,0.9,343.5,M,-37.9,M,,0000*77
$GPGSA,A,3,21,15,18,13,57,10,29,16,30,,,,1.4,0.9,1.1*3E
$GPRMC,095326.000,A,5407.1350,N,08331.4287,E,56.25,125.67,041016,,,A*55
$GPGGA,095327.000,5407.1259,N,08331.4503,E,1,08,0.9,343.5,M,-37.9,M,,0000*74
$GPGSA,A,3,21,18,13,57,10,29,16,30,,,,,1.5,0.9,1.1*3B
$GPRMC,095327.000,A,5407.1259,N,08331.4503,E,55.66,125.43,041016,,,A*55
$GPGGA,095328.000,5407.1170,N,08331.4718,E,1,08,0.9,343.6,M,-37.9,M,,0000*78
$GPGSA,A,3,21,18,13,57,10,29,16,30,,,,,1.5,0.9,1.1*3B
$GPRMC,095328.000,A,5407.1170,N,08331.4718,E,55.48,124.89,041016,,,A*51
$GPGGA,095329.000,5407.1079,N,08331.4930,E,1,08,0.9,344.1,M,-37.9,M,,0000*75
$GPGSA,A,3,21,18,13,57,10,29,16,30,,,,,1.5,0.9,1.1*3B
$GPGSV,3,1,12,21,77,191,30,18,61,254,30,13,39,057,21,57,38,098,16*79
$GPGSV,3,2,12,10,24,257,14,29,08,181,29,16,06,280,21,30,06,016,18*7A
$GPGSV,3,3,12,05,04,078,13,08,02,336,13,20,56,084,18,15,61,098,*7E
$GPRMC,095329.000,A,5407.1079,N,08331.4930,E,55.13,125.81,041016,,,A*5B
$GPGGA,095330.000,5407.0991,N,08331.5141,E,1,08,0.9,344.1,M,-37.9,M,,0000*7C
$GPGSA,A,3,21,18,13,57,10,29,16,30,,,,,1.5,0.9,1.1*3B
$GPRMC,095330.000,A,5407.0991,N,08331.5141,E,55.39,125.14,041016,,,A*56
$GPGGA,095331.000,5407.0901,N,08331.5352,E,1,08,0.9,344.3,M,-37.9,M,,0000*76
$GPGSA,A,3,21,18,13,57,10,29,16,30,,,,,1.5,0.9,1.1*3B
$GPRMC,095331.000,A,5407.0901,N,08331.5352,E,54.99,125.45,041016,,,A*51
$GPGGA,095332.000,5407.0811,N,08331.5562,E,1,09,0.9,344.7,M,-37.9,M,,0000*75
$GPGSA,A,3,21,15,18,13,57,10,29,16,30,,,,1.4,0.9,1.1*3E
$GPRMC,095332.000,A,5407.0811,N,08331.5562,E,54.61,125.67,041016,,,A*50
$GPGGA,095333.000,5407.0719,N,08331.5768,E,1,11,0.8,345.3,M,-37.9,M,,0000*76
$GPGSA,A,3,21,15,18,20,13,57,10,24,29,16,30,,1.2,0.8,0.9*34
$GPRMC,095333.000,A,5407.0719,N,08331.5768,E,54.37,126.75,041016,,,A*5D
$GPGGA,095334.000,5407.0625,N,08331.5967,E,1,11,0.8,345.8,M,-37.9,M,,0000*75
$GPGSA,A,3,21,15,18,20,13,57,10,24,29,16,30,,1.2,0.8,0.9*34
$GPGSV,3,1,12,21,77,191,30,15,61,098,18,18,61,254,29,20,56,084,15*75
$GPGSV,3,2,12,13,39,057,21,57,38,098,16,10,24,257,22,24,08,134,20*70
$GPGSV,3,3,12,29,08,181,29,16,06,280,21,30,06,016,17,27,28,310,08*73
$GPRMC,095334.000,A,5407.0625,N,08331.5967,E,54.09,129.48,041016,,,A*59
$GPGGA,095335.000,5407.0524,N,08331.6157,E,1,09,0.9,346.4,M,-37.9,M,,0000*79
$GPGSA,A,3,21,15,18,13,57,10,29,16,30,,,,1.4,0.9,1.1*3E
$GPRMC,095335.000,A,5407.0524,N,08331.6157,E,53.92,132.40,041016,,,A*55
$GPGGA,095336.000,5407.0419,N,08331.6332,E,1,11,0.8,346.8,M,-37.9,M,,0000*70
$GPGSA,A,3,21,15,18,20,13,57,27,10,29,16,30,,1.3,0.8,1.0*3E
$GPRMC,095336.000,A,5407.0419,N,08331.6332,E,54.06,135.58,041016,,,A*5C
$GPGGA,095337.000,5407.0309,N,08331.6495,E,1,10,0.8,347.3,M,-37.9,M,,0000*76
$GPGSA,A,3,21,15,18,13,57,27,10,29,16,30,,,1.4,0.8,1.1*3A
$GPRMC,095337.000,A,5407.0309,N,08331.6495,E,53.94,139.06,041016,,,A*5A
$GPGGA,095338.000,5407.0195,N,08331.6651,E,1,10,0.8,347.7,M,-37.9,M,,0000*70
$GPGSA,A,3,21,15,18,13,57,27,10,29,16,30,,,1.4,0.8,1.1*3A
$GPRMC,095338.000,A,5407.0195,N,08331.6651,E,54.10,141.39,041016,,,A*50
$GPGGA,095339.000,5407.0076,N,08331.6801,E,1,10,0.8,348.4,M,-37.9,M,,0000*7A
$GPGSA,A,3,21,15,18,13,57,27,10,29,16,30,,,1.4,0.8,1.1*3A
$GPGSV,3,1,12,21,77,191,26,15,61,098,17,18,61,254,29,13,39,057,20*7C
$GPGSV,3,2,12,57,38,098,15,27,28,310,10,10,24,257,30,29,08,181,30*77
$GPGSV,3,3,12,16,06,280,15,30,06,016,18,20,56,084,12,24,08,134,05*7D
$GPRMC,095339.000,A,5407.0076,N,08331.6801,E,54.43,143.54,041016,,,A*59
$GPGGA,095340.000,5406.9950,N,08331.6944,E,1,10,0.8,349.2,M,-37.9,M,,0000*76
$GPGSA,A,3,21,15,18,13,57,27,10,29,16,30,,,1.4,0.8,1.1*3A
$GPRMC,095340.000,A,5406.9950,N,08331.6944,E,53.79,146.03,041016,,,A*5B
$GPGGA,095341.000,5406.9820,N,08331.7072,E,1,10,0.8,350.2,M,-37.9,M,,0000*74
$GPGSA,A,3,21,15,18,13,57,27,10,29,16,30,,,1.4,0.8,1.1*3A
$GPRMC,095341.000,A,5406.9820,N,08331.7072,E,53.13,149.02,041016,,,A*53
$GPGGA,095342.000,5406.9683,N,08331.7178,E,1,10,0.8,352.0,M,-37.9,M,,0000*7B
$GPGSA,A,3,21,15,18,13,57,27,10,29,16,30,,,1.4,0.8,1.1*3A
$GPRMC,095342.000,A,5406.9683,N,08331.7178,E,52.64,153.35,041016,,,A*52
$GPGGA,095343.000,5406.9544,N,08331.7272,E,1,10,0.8,353.6,M,-37.9,M,,0000*7C
$GPGSA,A,3,21,15,18,13,57,27,10,29,16,30,,,1.4,0.8,1.1*3A
$GPRMC,095343.000,A,5406.9544,N,08331.7272,E,52.66,156.84,041016,,,A*5F
$GPGGA,095344.000,5406.9402,N,08331.7349,E,1,11,0.8,355.0,M,-37.9,M,,0000*70
$GPGSA,A,3,21,15,18,20,13,57,27,10,29,16,30,,1.3,0.8,1.0*3E
$GPGSV,3,1,12,21,77,191,25,15,61,098,17,18,61,254,30,20,56,084,19*7A
$GPGSV,3,2,12,13,39,057,20,57,38,098,15,27,28,310,24,10,24,257,32*72
$GPGSV,3,3,12,29,08,181,30,16,06,280,26,30,06,016,17,24,08,134,04*75
$GPRMC,095344.000,A,5406.9402,N,08331.7349,E,52.52,160.28,041016,,,A*56
$GPGGA,095345.000,5406.9261,N,08331.7416,E,1,09,1.0,355.9,M,-37.9,M,,0000*76
$GPGSA,A,3,21,15,18,13,57,27,10,29,16,,,,1.6,1.0,1.3*30
$GPRMC,095345.000,A,5406.9261,N,08331.7416,E,52.41,163.95,041016,,,A*5E
$GPGGA,095346.000,5406.9117,N,08331.7471,E,1,09,1.0,357.1,M,-37.9,M,,0000*7C
$GPGSA,A,3,21,15,18,13,57,27,10,29,16,,,,1.6,1.0,1.3*30
$GPRMC,095346.000,A,5406.9117,N,08331.7471,E,51.88,166.72,041016,,,A*54
$GPGGA,095347.000,5406.8971,N,08331.7511,E,1,09,1.0,358.8,M,-37.9,M,,0000*75
$GPGSA,A,3,21,15,18,13,57,27,10,29,16,,,,1.6,1.0,1.3*30
$GPRMC,095347.000,A,5406.8971,N,08331.7511,E,51.80,170.43,041016,,,A*56
$GPGGA,095348.000,5406.8825,N,08331.7541,E,1,09,1.0,360.5,M,-37.9,M,,0000*79
$GPGSA,A,3,21,15,18,13,57,27,10,29,16,,,,1.6,1.0,1.3*30
$GPRMC,095348.000,A,5406.8825,N,08331.7541,E,51.39,171.03,041016,,,A*5B
$GPGGA,095349.000,5406.8679,N,08331.7569,E,1,09,1.0,362.5,M,-37.9,M,,0000*77
$GPGSA,A,3,21,15,18,13,57,27,10,29,16,,,,1.6,1.0,1.3*30
$GPGSV,3,1,12,21,77,191,25,15,61,098,18,18,61,254,30,13,39,057,19*72
$GPGSV,3,2,12,57,38,098,14,27,28,310,25,10,24,257,34,29,08,181,25*70
$GPGSV,3,3,12,16,06,280,27,20,56,084,14,24,08,134,05,30,06,016,12*70
$GPRMC,095349.000,A,5406.8679,N,08331.7569,E,51.26,172.34,041016,,,A*5E
$GPGGA,095350.000,5406.8535,N,08331.7588,E,1,09,1.0,363.7,M,-37.9,M,,0000*78
$GPGSA,A,3,21,15,18,13,57,27,10,29,16,,,,1.6,1.0,1.3*30
$GPRMC,095350.000,A,5406.8535,N,08331.7588,E,51.19,174.26,041016,,,A*5B
$GPGGA,095351.000,5406.8391,N,08331.7600,E,1,11,0.8,365.1,M,-37.9,M,,0000*72
$GPGSA,A,3,21,15,18,20,13,57,27,10,29,16,30,,1.3,0.8,1.0*3E
$GPRMC,095351.000,A,5406.8391,N,08331.7600,E,50.65,176.42,041016,,,A*5B
$GPGGA,095352.000,5406.8247,N,08331.7605,E,1,11,0.8,366.6,M,-37.9,M,,0000*7A
$GPGSA,A,3,21,15,18,20,13,57,27,10,29,16,30,,1.3,0.8,1.0*3E
$GPRMC,095352.000,A,5406.8247,N,08331.7605,E,51.02,177.53,041016,,,A*56
$GPGGA,095353.000,5406.8103,N,08331.7611,E,1,09,1.0,368.0,M,-37.9,M,,0000*75
$GPGSA,A,3,21,15,18,13,57,27,10,29,16,,,,1.6,1.0,1.3*30
$GPRMC,095353.000,A,5406.8103,N,08331.7611,E,50.79,178.13,041016,,,A*57
$GPGGA,095354.000,5406.7962,N,08331.7615,E,1,09,1.0,368.8,M,-37.9,M,,0000*7E
$GPGSA,A,3,21,15,18,13,57,27,10,29,16,,,,1.6,1.0,1.3*30
$GPGSV,3,1,12,21,77,191,25,15,61,098,18,18,61,254,32,13,39,057,18*71
$GPGSV,3,2,12,57,38,098,14,27,28,310,26,10,24,257,35,29,08,181,21*76
$GPGSV,3,3,12,16,06,280,27,05,04,078,20,24,08,134,04,20,56,084,*79
$GPRMC,095354.000,A,5406.7962,N,08331.7615,E,49.93,177.63,041016,,,A*50
$GPGGA,095355.000,5406.7825,N,08331.7623,E,1,09,1.0,369.6,M,-37.9,M,,0000*77
$GPGSA,A,3,21,15,18,13,57,27,10,29,16,,,,1.6,1.0,1.3*30
$GPRMC,095355.000,A,5406.7825,N,08331.7623,E,49.47,177.28,041016,,,A*50
$GPGGA,095356.000,5406.7688,N,08331.7635,E,1,09,1.0,370.5,M,-37.9,M,,0000*71
$GPGSA,A,3,21,15,18,13,57,27,10,29,16,,,,1.6,1.0,1.3*30
$GPRMC,095356.000,A,5406.7688,N,08331.7635,E,49.10,176.04,041016,,,A*50
$GPGGA,095357.000,5406.7555,N,08331.7653,E,1,09,1.0,371.2,M,-37.9,M,,0000*75
$GPGSA,A,3,21,15,18,13,57,27,10,29,16,,,,1.6,1.0,1.3*30
$GPRMC,095357.000,A,5406.7555,N,08331.7653,E,47.57,174.45,041016,,,A*58
$GPGGA,095358.000,5406.7422,N,08331.7680,E,1,08,1.1,371.7,M,-37.9,M,,0000*70
$GPGSA,A,3,21,15,18,13,57,10,29,16,,,,,1.7,1.1,1.3*35
$GPRMC,095358.000,A,5406.7422,N,08331.7680,E,48.55,171.83,041016,,,A*5A
$GPGGA,095359.000,5406.7286,N,08331.7715,E,1,09,1.0,372.5,M,-37.9,M,,0000*75
$GPGSA,A,3,21,15,18,13,57,27,10,29,16,,,,1.6,1.0,1.3*30
$GPGSV,3,1,12,21,77,191,26,15,61,098,26,18,61,254,34,13,39,057,18*79
$GPGSV,3,2,12,57,38,098,14,27,28,310,16,10,24,257,28,29,08,181,27*7F
$GPGSV,3,3,12,16,06,280,26,05,04,078,19,20,56,084,16,24,08,134,11*71
$GPRMC,095359.000,A,5406.7286,N,08331.7715,E,49.30,168.84,041016,,,A*53
$GPGGA,095400.000,5406.7151,N,08331.7760,E,1,09,1.0,373.1,M,-37.9,M,,0000*70
$GPGSA,A,3,21,15,18,13,57,27,10,29,16,,,,1.6,1.0,1.3*30
$GPRMC,095400.000,A,5406.7151,N,08331.7760,E,48.57,167.13,041016,,,A*52
$GPGGA,095401.000,5406.7019,N,08331.7819,E,1,09,1.0,374.1,M,-37.9,M,,0000*7A
$GPGSA,A,3,21,15,18,13,57,27,10,29,16,,,,1.6,1.0,1.3*30
$GPRMC,095401.000,A,5406.7019,N,08331.7819,E,48.21,164.00,041016,,,A*5F
$GPGGA,095402.000,5406.6891,N,08331.7896,E,1,09,1.0,375.1,M,-37.9,M,,0000*76
$GPGSA,A,3,21,15,18,13,57,27,10,29,16,,,,1.6,1.0,1.3*30
$GPRMC,095402.000,A,5406.6891,N,08331.7896,E,47.76,159.47,041016,,,A*52
$GPGGA,095403.000,5406.6773,N,08331.8001,E,1,09,1.0,375.7,M,-37.9,M,,0000*7B
$GPGSA,A,3,21,15,18,13,57,27,10,29,16,,,,1.6,1.0,1.3*30
$GPRMC,095403.000,A,5406.6773,N,08331.8001,E,47.67,152.51,041016,,,A*55
$GPGGA,095404.000,5406.6662,N,08331.8123,E,1,09,1.0,376.0,M,-37.9,M,,0000*78
$GPGSA,A,3,21,15,18,13,57,27,10,29,16,,,,1.6,1.0,1.3*30
$GPGSV,3,1,12,21,77,191,28,15,61,098,25,18,61,254,34,13,39,057,18*74
$GPGSV,3,2,12,57,38,098,14,27,28,310,19,10,24,257,29,29,08,181,29*7F
$GPGSV,3,3,12,16,06,280,26,05,04,078,19,24,08,134,04,30,06,016,12*7E
$GPRMC,095404.000,A,5406.6662,N,08331.8123,E,47.45,146.98,041016,,,A*52
$PSRF156,23,1,0*09
$GPGGA,095405.000,5406.6558,N,08331.8261,E,1,09,1.0,376.3,M,-37.9,M,,0000*75
$GPGSA,A,3,21,18,15,57,13,27,10,29,16,,,,1.6,1.0,1.3*30
$GPRMC,095405.000,A,5406.6558,N,08331.8261,E,47.50,142.38,041016,,,A*56
$GPGGA,095406.000,5406.6457,N,08331.8410,E,1,09,1.0,376.8,M,-37.9,M,,0000*73
$GPGSA,A,3,21,18,15,57,13,27,10,29,16,,,,1.6,1.0,1.3*30
$GPRMC,095406.000,A,5406.6457,N,08331.8410,E,47.70,137.94,041016,,,A*5D
$GPGGA,095407.000,5406.6367,N,08331.8578,E,1,10,1.0,376.6,M,-37.9,M,,0000*7F
$GPGSA,A,3,21,18,15,20,57,13,27,10,29,16,,,1.6,1.0,1.3*32
$GPRMC,095407.000,A,5406.6367,N,08331.8578,E,48.33,133.90,041016,,,A*5F
$GPGGA,095408.000,5406.6277,N,08331.8751,E,1,10,1.0,376.9,M,-37.9,M,,0000*76
$GPGSA,A,3,21,18,15,20,57,13,27,10,29,16,,,1.6,1.0,1.3*32
$GPRMC,095408.000,A,5406.6277,N,08331.8751,E,49.85,133.04,041016,,,A*58
$GPGGA,095409.000,5406.6192,N,08331.8935,E,1,11,1.0,377.3,M,-37.9,M,,0000*79
$GPGSA,A,3,21,18,15,20,57,13,27,10,24,29,16,,1.5,1.0,1.1*35
$GPGSV,3,1,12,21,76,187,29,18,62,255,33,15,61,095,25,20,55,084,22*76
$GPGSV,3,2,12,57,38,098,24,13,38,056,18,27,29,309,18,10,26,258,26*75
$GPGSV,3,3,12,24,09,134,26,29,06,181,29,16,05,279,18,30,05,015,14*79
$GPRMC,095409.000,A,5406.6192,N,08331.8935,E,50.40,130.24,041016,,,A*5D
$GPGGA,095410.000,5406.6113,N,08331.9123,E,1,11,1.0,378.5,M,-37.9,M,,0000*7F
$GPGSA,A,3,21,18,15,20,57,13,27,10,24,29,16,,1.5,1.0,1.1*35
$GPRMC,095410.000,A,5406.6113,N,08331.9123,E,49.71,126.78,041016,,,A*56
$GPGGA,095411.000,5406.6053,N,08331.9322,E,1,11,1.0,380.2,M,-37.9,M,,0000*78
$GPGSA,A,3,21,18,15,20,57,13,27,10,24,29,16,,1.5,1.0,1.1*35
$GPRMC,095411.000,A,5406.6053,N,08331.9322,E,48.43,121.06,041016,,,A*5F
$GPGGA,095412.000,5406.6016,N,08331.9534,E,1,11,1.0,382.2,M,-37.9,M,,0000*79
$GPGSA,A,3,21,18,15,20,57,13,27,10,24,29,16,,1.5,1.0,1.1*35
$GPRMC,095412.000,A,5406.6016,N,08331.9534,E,47.63,114.24,041016,,,A*57
$GPGGA,095413.000,5406.5989,N,08331.9753,E,1,11,1.0,384.4,M,-37.9,M,,0000*77
$GPGSA,A,3,21,18,15,20,57,13,27,10,24,29,16,,1.5,1.0,1.1*35
$GPRMC,095413.000,A,5406.5989,N,08331.9753,E,46.93,109.38,041016,,,A*56
$GPGGA,095414.000,5406.5975,N,08331.9978,E,1,11,1.0,386.5,M,-37.9,M,,0000*77
$GPGSA,A,3,21,18,15,20,57,13,27,10,24,29,16,,1.5,1.0,1.1*35
$GPGSV,3,1,12,21,76,187,29,18,62,255,27,15,61,095,26,20,55,084,22*70
$GPGSV,3,2,12,57,38,098,24,13,38,056,17,27,29,309,16,10,26,258,21*73
$GPGSV,3,3,12,24,09,134,29,29,06,181,29,16,05,279,17,05,03,078,10*76
$GPRMC,095414.000,A,5406.5975,N,08331.9978,E,46.99,105.00,041016,,,A*58
$GPGGA,095415.000,5406.5971,N,08332.0207,E,1,11,1.0,388.7,M,-37.9,M,,0000*77
$GPGSA,A,3,21,18,15,20,57,13,27,10,24,29,16,,1.5,1.0,1.1*35
$GPRMC,095415.000,A,5406.5971,N,08332.0207,E,46.37,99.50,041016,,,A*61
$GPGGA,095416.000,5406.5973,N,08332.0432,E,1,11,1.0,391.2,M,-37.9,M,,0000*7B
$GPGSA,A,3,21,18,15,20,57,13,27,10,24,29,16,,1.5,1.0,1.1*35
$GPRMC,095416.000,A,5406.5973,N,08332.0432,E,46.36,94.18,041016,,,A*60
$GPGGA,095417.000,5406.5982,N,08332.0659,E,1,10,1.1,393.7,M,-37.9,M,,0000*7C
$GPGSA,A,3,21,18,15,20,57,27,10,24,29,16,,,1.6,1.1,1.2*36
$GPRMC,095417.000,A,5406.5982,N,08332.0659,E,46.70,90.31,041016,,,A*6D
$GPGGA,095418.000,5406.5999,N,08332.0892,E,1,10,1.1,395.9,M,-37.9,M,,0000*78
$GPGSA,A,3,21,18,15,20,57,27,10,24,29,16,,,1.6,1.1,1.2*36
$GPRMC,095418.000,A,5406.5999,N,08332.0892,E,46.86,87.15,041016,,,A*68
$GPGGA,095419.000,5406.6027,N,08332.1121,E,1,10,1.0,398.2,M,-37.9,M,,0000*71
$GPGSA,A,3,21,18,15,20,57,13,27,24,29,16,,,1.5,1.0,1.1*34
$GPGSV,3,1,12,21,76,187,29,18,62,255,25,15,61,095,26,20,55,084,29*79
$GPGSV,3,2,12,57,38,098,21,13,38,056,23,27,29,309,16,24,09,134,29*7A
$GPGSV,3,3,12,29,06,181,29,16,05,279,15,10,26,258,11,30,05,015,13*74
$GPRMC,095419.000,A,5406.6027,N,08332.1121,E,47.20,84.21,041016,,,A*6F
$GPGGA,095420.000,5406.6067,N,08332.1340,E,1,11,1.0,400.2,M,-37.9,M,,0000*7D
$GPGSA,A,3,21,18,15,20,57,13,27,10,24,29,16,,1.5,1.0,1.1*35
$GPRMC,095420.000,A,5406.6067,N,08332.1340,E,45.94,78.60,041016,,,A*6F
$GPGGA,095421.000,5406.6115,N,08332.1548,E,1,11,1.0,402.2,M,-37.9,M,,0000*74
$GPGSA,A,3,21,18,15,20,57,13,27,10,24,29,16,,1.5,1.0,1.1*35
$GPRMC,095421.000,A,5406.6115,N,08332.1548,E,46.10,72.67,041016,,,A*66
$GPGGA,095422.000,5406.6178,N,08332.1761,E,1,11,1.0,403.2,M,-37.9,M,,0000*74
$GPGSA,A,3,21,18,15,20,57,13,27,10,24,29,16,,1.5,1.0,1.1*35
$GPRMC,095422.000,A,5406.6178,N,08332.1761,E,46.01,68.22,041016,,,A*6D
$GPGGA,095423.000,5406.6241,N,08332.1961,E,1,11,1.0,404.7,M,-37.9,M,,0000*70
$GPGSA,A,3,21,18,15,20,57,13,27,10,24,29,16,,1.5,1.0,1.1*35
$GPRMC,095423.000,A,5406.6241,N,08332.1961,E,46.11,63.50,041016,,,A*64
$GPGGA,095424.000,5406.6314,N,08332.2160,E,1,11,1.0,405.3,M,-37.9,M,,0000*79
$GPGSA,A,3,21,18,15,20,57,13,27,10,24,29,16,,1.5,1.0,1.1*35
$GPGSV,3,1,12,21,76,187,24,18,62,255,21,15,61,095,34,20,55,084,31*7A
$GPGSV,3,2,12,57,38,098,29,13,38,056,27,27,29,309,16,10,26,258,12*7D
$GPGSV,3,3,12,24,09,134,23,29,06,181,28,16,05,279,15,05,03,078,27*7B
$GPRMC,095424.000,A,5406.6314,N,08332.2160,E,46.43,60.34,041016,,,A*6E
$GPGGA,095425.000,5406.6391,N,08332.2349,E,1,10,1.0,406.5,M,-37.9,M,,0000*78
$GPGSA,A,3,21,18,15,20,57,13,27,24,29,16,,,1.5,1.0,1.1*34
$GPRMC,095425.000,A,5406.6391,N,08332.2349,E,46.62,56.74,041016,,,A*69
$GPGGA,095426.000,5406.6480,N,08332.2530,E,1,10,1.0,407.1,M,-37.9,M,,0000*71
$GPGSA,A,3,21,18,15,20,57,13,27,24,29,16,,,1.5,1.0,1.1*34
$GPRMC,095426.000,A,5406.6480,N,08332.2530,E,46.78,52.28,041016,,,A*63
$GPGGA,095427.000,5406.6574,N,08332.2709,E,1,11,1.0,407.0,M,-37.9,M,,0000*72
$GPGSA,A,3,21,18,15,20,57,13,27,10,24,29,16,,1.5,1.0,1.1*35
$GPRMC,095427.000,A,5406.6574,N,08332.2709,E,48.28,49.47,041016,,,A*68
$GPGGA,095428.000,5406.6675,N,08332.2875,E,1,11,1.0,407.1,M,-37.9,M,,0000*7A
$GPGSA,A,3,21,18,15,20,57,13,27,10,24,29,16,,1.5,1.0,1.1*35
$GPRMC,095428.000,A,5406.6675,N,08332.2875,E,48.27,45.84,041016,,,A*6D
$GPGGA,095429.000,5406.6787,N,08332.3030,E,1,11,1.0,407.9,M,-37.9,M,,0000*77
$GPGSA,A,3,21,18,15,20,57,13,27,10,24,29,16,,1.5,1.0,1.1*35
$GPGSV,3,1,12,21,76,187,24,18,62,255,19,15,61,095,35,20,55,084,37*76
$GPGSV,3,2,12,57,38,098,30,13,38,056,27,27,29,309,18,10,26,258,08*70
$GPGSV,3,3,12,24,09,134,30,29,06,181,23,16,05,279,16,30,05,015,10*7E
$GPRMC,095429.000,A,5406.6787,N,08332.3030,E,49.76,41.45,041016,,,A*64
$GPGGA,095430.000,5406.6911,N,08332.3173,E,1,12,0.8,407.3,M,-37.9,M,,0000*78
$GPGSA,A,3,21,18,15,20,57,13,27,10,24,29,16,30,1.2,0.8,0.9*31
$GPRMC,095430.000,A,5406.6911,N,08332.3173,E,50.13,37.10,041016,,,A*61
$GPGGA,095431.000,5406.7040,N,08332.3305,E,1,11,0.8,406.7,M,-37.9,M,,0000*70
$GPGSA,A,3,21,18,15,20,57,13,27,24,29,16,30,,1.2,0.8,0.9*30
$GPRMC,095431.000,A,5406.7040,N,08332.3305,E,50.78,33.70,041016,,,A*60
$GPGGA,095432.000,5406.7180,N,08332.3426,E,1,11,0.8,405.1,M,-37.9,M,,0000*7D
$GPGSA,A,3,21,18,15,20,57,13,27,24,29,16,30,,1.2,0.8,0.9*30
$GPRMC,095432.000,A,5406.7180,N,08332.3426,E,52.60,30.02,041016,,,A*65
$GPGGA,095433.000,5406.7323,N,08332.3532,E,1,11,0.8,403.5,M,-37.9,M,,0000*71
$GPGSA,A,3,21,18,15,20,57,13,27,24,29,16,30,,1.2,0.8,0.9*30
$GPRMC,095433.000,A,5406.7323,N,08332.3532,E,52.48,26.20,041016,,,A*66
$GPGGA,095434.000,5406.7469,N,08332.3618,E,1,12,0.8,401.9,M,-37.9,M,,0000*79
$GPGSA,A,3,21,18,15,20,57,13,27,10,24,29,16,30,1.2,0.8,0.9*31
$GPGSV,3,1,12,21,76,187,24,18,62,255,16,15,61,095,35,20,55,084,37*79
$GPGSV,3,2,12,57,38,098,31,13,38,056,27,27,29,309,18,10,26,258,21*7A
$GPGSV,3,3,12,24,09,134,27,29,06,181,15,16,05,279,15,30,05,015,11*7F
$GPRMC,095434.000,A,5406.7469,N,08332.3618,E,52.58,21.66,041016,,,A*67
$GPGGA,095435.000,5406.7618,N,08332.3696,E,1,12,0.8,401.1,M,-37.9,M,,0000*72
$GPGSA,A,3,21,18,15,20,57,13,27,10,24,29,16,30,1.2,0.8,0.9*31
$GPRMC,095435.000,A,5406.7618,N,08332.3696,E,53.25,18.05,041016,,,A*60
$GPGGA,095436.000,5406.7765,N,08332.3762,E,1,12,0.8,400.7,M,-37.9,M,,0000*77
$GPGSA,A,3,21,18,15,20,57,13,27,10,24,29,16,30,1.2,0.8,0.9*31
$GPRMC,095436.000,A,5406.7765,N,08332.3762,E,53.18,13.98,041016,,,A*63
$GPGGA,095437.000,5406.7912,N,08332.3806,E,1,12,0.8,400.4,M,-37.9,M,,0000*76
$GPGSA,A,3,21,18,15,20,57,13,27,10,24,29,16,30,1.2,0.8,0.9*31
$GPRMC,095437.000,A,5406.7912,N,08332.3806,E,53.22,10.34,041016,,,A*6D
$GPGGA,095438.000,5406.8064,N,08332.3827,E,1,11,0.9,400.3,M,-37.9,M,,0000*78
$GPGSA,A,3,21,18,15,20,57,13,27,10,24,16,30,,1.4,0.9,1.0*35
$GPRMC,095438.000,A,5406.8064,N,08332.3827,E,53.35,5.32,041016,,,A*52
$GPGGA,095439.000,5406.8216,N,08332.3830,E,1,11,0.9,400.5,M,-37.9,M,,0000*7E
$GPGSA,A,3,21,18,15,20,57,13,27,10,24,16,30,,1.4,0.9,1.0*35
$GPGSV,3,1,12,21,76,187,24,18,62,255,15,15,61,095,35,20,55,084,36*7B
$GPGSV,3,2,12,57,38,098,31,13,38,056,33,27,29,309,18,10,26,258,20*7E
$GPGSV,3,3,12,24,09,134,26,16,05,279,16,30,05,015,16,29,06,181,07*79
$GPRMC,095439.000,A,5406.8216,N,08332.3830,E,53.51,1.04,041016,,,A*51
$GPGGA,095440.000,5406.8368,N,08332.3806,E,1,11,0.9,400.5,M,-37.9,M,,0000*7D
$GPGSA,A,3,21,18,15,20,57,13,27,10,24,16,30,,1.4,0.9,1.0*35
$GPRMC,095440.000,A,5406.8368,N,08332.3806,E,53.74,355.93,041016,,,A*59
$GPGGA,095441.000,5406.8520,N,08332.3753,E,1,11,0.9,399.9,M,-37.9,M,,0000*72
$GPGSA,A,3,21,18,15,20,57,13,27,10,24,16,30,,1.4,0.9,1.0*35
$GPRMC,095441.000,A,5406.8520,N,08332.3753,E,53.99,351.03,041016,,,A*53
$GPGGA,095442.000,5406.8673,N,08332.3680,E,1,11,0.9,399.7,M,-37.9,M,,0000*75
$GPGSA,A,3,21,18,15,20,57,13,27,10,24,16,30,,1.4,0.9,1.0*35
$GPRMC,095442.000,A,5406.8673,N,08332.3680,E,54.96,346.40,041016,,,A*53
$GPGGA,095443.000,5406.8823,N,08332.3581,E,1,12,0.8,399.8,M,-37.9,M,,0000*70
$GPGSA,A,3,21,18,15,20,57,13,27,10,24,29,16,30,1.2,0.8,0.9*31
$GPRMC,095443.000,A,5406.8823,N,08332.3581,E,54.81,341.19,041016,,,A*56
$GPGGA,095444.000,5406.8968,N,08332.3470,E,1,11,0.8,400.4,M,-37.9,M,,0000*7E
$GPGSA,A,3,21,18,15,20,57,13,27,24,29,16,30,,1.2,0.8,0.9*30
$GPGSV,3,1,12,21,76,187,23,18,62,255,16,15,61,095,35,20,55,084,35*7C
$GPGSV,3,2,12,57,38,098,26,13,38,056,34,27,29,309,18,24,09,134,19*76
$GPGSV,3,3,12,29,06,181,13,16,05,279,16,30,05,015,25,10,26,258,05*7E
$GPRMC,095444.000,A,5406.8968,N,08332.3470,E,53.93,338.56,041016,,,A*51
$GPGGA,095445.000,5406.9112,N,08332.3353,E,1,11,0.8,400.9,M,-37.9,M,,0000*70
$GPGSA,A,3,21,18,15,20,57,13,27,24,29,16,30,,1.2,0.8,0.9*30
$GPRMC,095445.000,A,5406.9112,N,08332.3353,E,53.94,336.27,041016,,,A*5D
$GPGGA,095446.000,5406.9252,N,08332.3223,E,1,11,0.8,401.2,M,-37.9,M,,0000*78
$GPGSA,A,3,21,18,15,20,57,13,27,24,29,16,30,,1.2,0.8,0.9*30
$GPRMC,095446.000,A,5406.9252,N,08332.3223,E,54.37,333.91,041016,,,A*59
$GPGGA,095447.000,5406.9390,N,08332.3088,E,1,11,0.8,401.6,M,-37.9,M,,0000*71
$GPGSA,A,3,21,18,15,20,57,13,27,24,29,16,30,,1.2,0.8,0.9*30
$GPRMC,095447.000,A,5406.9390,N,08332.3088,E,55.12,332.08,041016,,,A*53
$GPGGA,095448.000,5406.9531,N,08332.2944,E,1,11,0.8,402.7,M,-37.9,M,,0000*79
$GPGSA,A,3,21,18,15,20,57,13,27,24,29,16,30,,1.2,0.8,0.9*30
$GPRMC,095448.000,A,5406.9531,N,08332.2944,E,56.17,330.73,041016,,,A*51
$GPGGA,095449.000,5406.9673,N,08332.2795,E,1,11,0.8,404.3,M,-37.9,M,,0000*7D
$GPGSA,A,3,21,18,15,20,57,13,27,24,29,16,30,,1.2,0.8,0.9*30
$GPGSV,3,1,12,21,76,187,16,18,62,255,17,15,61,095,34,20,55,084,35*7A
$GPGSV,3,2,12,57,38,098,27,13,38,056,35,27,29,309,19,24,09,134,18*76
$GPGSV,3,3,12,29,06,181,20,16,05,279,15,30,05,015,26,10,26,258,04*7F
$GPRMC,095449.000,A,5406.9673,N,08332.2795,E,57.25,329.79,041016,,,A*55
$GPGGA,095450.000,5406.9818,N,08332.2643,E,1,11,0.8,406.0,M,-37.9,M,,0000*7D
$GPGSA,A,3,21,18,15,20,57,13,27,24,29,16,30,,1.2,0.8,0.9*30
$GPRMC,095450.000,A,5406.9818,N,08332.2643,E,57.84,329.26,041016,,,A*55
$GPGGA,095451.000,5406.9961,N,08332.2489,E,1,11,0.8,407.8,M,-37.9,M,,0000*7E
$GPGSA,A,3,21,18,15,20,57,13,27,24,29,16,30,,1.2,0.8,0.9*30
$GPRMC,095451.000,A,5406.9961,N,08332.2489,E,59.01,328.01,041016,,,A*58
$GPGGA,095452.000,5407.0106,N,08332.2331,E,1,11,0.8,409.3,M,-37.9,M,,0000*7D
$GPGSA,A,3,21,18,15,20,57,13,27,24,29,16,30,,1.2,0.8,0.9*30
$GPRMC,095452.000,A,5407.0106,N,08332.2331,E,60.31,328.14,041016,,,A*53
$GPGGA,095453.000,5407.0251,N,08332.2171,E,1,12,0.8,410.6,M,-37.9,M,,0000*75
$GPGSA,A,3,21,18,15,20,57,13,27,10,24,29,16,30,1.2,0.8,0.9*31
$GPRMC,095453.000,A,5407.0251,N,08332.2171,E,60.71,327.15,041016,,,A*5F
$GPGGA,095454.000,5407.0394,N,08332.2007,E,1,12,0.8,411.1,M,-37.9,M,,0000*7C
$GPGSA,A,3,21,18,15,20,57,13,27,10,24,29,16,30,1.2,0.8,0.9*31
$GPGSV,3,1,12,21,76,187,17,18,62,255,18,15,61,095,33,20,55,084,35*73
$GPGSV,3,2,12,57,38,098,28,13,38,056,36,27,29,309,20,10,26,258,22*7A
$GPGSV,3,3,12,24,09,134,19,29,06,181,20,16,05,279,15,30,05,015,27*71
$GPRMC,095454.000,A,5407.0394,N,08332.2007,E,60.63,326.19,041016,,,A*5E
$GPGGA,095455.000,5407.0534,N,08332.1832,E,1,12,0.8,411.5,M,-37.9,M,,0000*78
$GPGSA,A,3,21,18,15,20,57,13,27,10,24,29,16,30,1.2,0.8,0.9*31
$GPRMC,095455.000,A,5407.0534,N,08332.1832,E,61.56,324.09,041016,,,A*5A
$GPGGA,095456.000,5407.0670,N,08332.1644,E,1,12,0.8,411.8,M,-37.9,M,,0000*7A
$GPGSA,A,3,21,18,15,20,57,13,27,10,24,29,16,30,1.2,0.8,0.9*31
$GPRMC,095456.000,A,5407.0670,N,08332.1644,E,61.89,321.70,041016,,,A*5C
$GPGGA,095457.000,5407.0804,N,08332.1450,E,1,12,0.8,411.7,M,-37.9,M,,0000*7E
$GPGSA,A,3,21,18,15,20,57,13,27,10,24,29,16,30,1.2,0.8,0.9*31
$GPRMC,095457.000,A,5407.0804,N,08332.1450,E,63.06,320.01,041016,,,A*55
