$GPGGA,013600.000,5410.5827,N,08330.2156,E,1,10,0.9,998.6,M,-37.9,M,,0000*7E
$GPGSA,A,3,17,19,28,24,06,01,22,03,11,12,,,1.6,0.9,1.3*3B
$GPRMC,013600.000,A,5410.5827,N,08330.2156,E,47.66,25.24,051016,,,A*6B
$GPGGA,013601.000,5410.5948,N,08330.2253,E,1,10,0.9,1002.2,M,-37.9,M,,0000*4E
$GPGSA,A,3,17,19,28,24,06,01,22,03,11,12,,,1.6,0.9,1.3*3B
$GPRMC,013601.000,A,5410.5948,N,08330.2253,E,47.39,24.62,051016,,,A*6D
$GPGGA,013602.000,5410.6069,N,08330.2348,E,1,11,0.9,1006.2,M,-37.9,M,,0000*4A
$GPGSA,A,3,17,19,28,24,06,01,57,22,03,11,12,,1.5,0.9,1.2*3B
$GPGSV,3,1,12,17,89,081,28,19,66,247,14,28,46,123,35,24,36,296,18*79
$GPGSV,3,2,12,06,27,190,18,01,25,047,31,57,21,111,26,22,20,066,27*7D
$GPGSV,3,3,12,03,20,087,28,11,08,053,31,12,05,299,17,32,04,359,16*7D
$GPRMC,013602.000,A,5410.6069,N,08330.2348,E,47.71,24.27,051016,,,A*61
$GPGGA,013603.000,5410.6194,N,08330.2442,E,1,11,0.9,1010.2,M,-37.9,M,,0000*42
$GPGSA,A,3,17,19,28,24,06,01,57,22,03,11,12,,1.5,0.9,1.2*3B
$GPRMC,013603.000,A,5410.6194,N,08330.2442,E,48.21,24.06,051016,,,A*67
$GPGGA,013604.000,5410.6320,N,08330.2532,E,1,10,0.9,1013.6,M,-37.9,M,,0000*48
$GPGSA,A,3,17,28,24,06,01,57,22,03,11,12,,,1.6,0.9,1.4*36
$GPRMC,013604.000,A,5410.6320,N,08330.2532,E,48.83,23.46,051016,,,A*60
$GPGGA,013605.000,5410.6446,N,08330.2623,E,1,10,0.9,1016.8,M,-37.9,M,,0000*46
$GPGSA,A,3,17,28,24,06,01,57,22,03,11,12,,,1.6,0.9,1.4*36
$GPRMC,013605.000,A,5410.6446,N,08330.2623,E,49.47,23.23,051016,,,A*6F
$GPGGA,013606.000,5410.6576,N,08330.2717,E,1,10,0.9,1020.2,M,-37.9,M,,0000*4E
$GPGSA,A,3,17,28,24,06,01,57,22,03,11,12,,,1.6,0.9,1.4*36
$GPRMC,013606.000,A,5410.6576,N,08330.2717,E,50.38,23.15,051016,,,A*6D
$GPGGA,013607.000,5410.6707,N,08330.2809,E,1,10,0.9,1023.5,M,-37.9,M,,0000*4F
$GPGSA,A,3,17,28,24,06,01,57,22,03,11,12,,,1.6,0.9,1.4*36
$GPGSV,3,1,12,17,89,081,28,28,46,123,35,24,36,296,18,06,27,190,17*78
$GPGSV,3,2,12,01,25,047,31,57,21,111,30,22,20,066,29,03,20,087,30*7B
$GPGSV,3,3,12,11,08,053,31,12,05,299,21,19,66,247,14,32,04,359,*77
$GPRMC,013607.000,A,5410.6707,N,08330.2809,E,51.06,22.91,051016,,,A*69
$GPGGA,013608.000,5410.6840,N,08330.2900,E,1,10,0.9,1026.7,M,-37.9,M,,0000*43
$GPGSA,A,3,17,28,24,06,01,57,22,03,11,12,,,1.6,0.9,1.4*36
$GPRMC,013608.000,A,5410.6840,N,08330.2900,E,51.97,22.59,051016,,,A*6E
$GPGGA,013609.000,5410.6974,N,08330.2989,E,1,10,0.9,1029.4,M,-37.9,M,,0000*49
$GPGSA,A,3,17,28,24,06,01,57,22,03,11,12,,,1.6,0.9,1.4*36
$GPRMC,013609.000,A,5410.6974,N,08330.2989,E,52.33,22.06,051016,,,A*6F
$GPGGA,013610.000,5410.7109,N,08330.3078,E,1,10,0.9,1031.9,M,-37.9,M,,0000*40
$GPGSA,A,3,17,28,24,06,01,57,22,03,11,12,,,1.6,0.9,1.4*36
$GPRMC,013610.000,A,5410.7109,N,08330.3078,E,52.47,21.37,051016,,,A*60
$GPGGA,013611.000,5410.7245,N,08330.3161,E,1,11,0.9,1034.2,M,-37.9,M,,0000*4C
$GPGSA,A,3,17,19,28,24,06,01,57,22,03,11,12,,1.5,0.9,1.2*3B
$GPRMC,013611.000,A,5410.7245,N,08330.3161,E,52.38,20.48,051016,,,A*62
$GPGGA,013612.000,5410.7382,N,08330.3241,E,1,11,0.9,1036.1,M,-37.9,M,,0000*45
$GPGSA,A,3,17,19,28,24,06,01,57,22,03,11,12,,1.5,0.9,1.2*3B
$GPGSV,3,1,12,17,89,081,29,19,66,247,14,28,46,123,36,24,36,296,18*7B
$GPGSV,3,2,12,06,27,190,16,01,25,047,32,57,21,111,31,22,20,066,29*78
$GPGSV,3,3,12,03,20,087,31,11,08,053,32,12,05,299,20,32,04,359,*75
$GPRMC,013612.000,A,5410.7382,N,08330.3241,E,52.10,19.60,051016,,,A*60
$GPGGA,013613.000,5410.7518,N,08330.3316,E,1,11,0.9,1037.8,M,-37.9,M,,0000*4A
$GPGSA,A,3,17,19,28,24,06,01,57,22,03,11,12,,1.5,0.9,1.2*3B
$GPRMC,013613.000,A,5410.7518,N,08330.3316,E,51.90,18.72,051016,,,A*6E
$GPGGA,013614.000,5410.7655,N,08330.3386,E,1,11,0.9,1039.3,M,-37.9,M,,0000*4B
$GPGSA,A,3,17,19,28,24,06,01,57,22,03,11,12,,1.5,0.9,1.2*3B
$GPRMC,013614.000,A,5410.7655,N,08330.3386,E,51.78,17.64,051016,,,A*64
$GPGGA,013615.000,5410.7792,N,08330.3455,E,1,11,0.9,1040.8,M,-37.9,M,,0000*4C
$GPGSA,A,3,17,19,28,24,06,01,57,22,03,11,12,,1.5,0.9,1.2*3B
$GPRMC,013615.000,A,5410.7792,N,08330.3455,E,51.79,16.87,051016,,,A*6B
$GPGGA,013616.000,5410.7931,N,08330.3520,E,1,11,0.9,1042.2,M,-37.9,M,,0000*43
$GPGSA,A,3,17,19,28,24,06,01,57,22,03,11,12,,1.5,0.9,1.2*3B
$GPRMC,013616.000,A,5410.7931,N,08330.3520,E,51.93,15.98,051016,,,A*65
$GPGGA,013617.000,5410.8070,N,08330.3581,E,1,11,0.9,1043.5,M,-37.9,M,,0000*4C
$GPGSA,A,3,17,19,28,24,06,01,57,22,03,11,12,,1.5,0.9,1.2*3B
$GPGSV,3,1,12,17,89,081,28,19,66,247,14,28,46,123,35,24,36,296,18*79
$GPGSV,3,2,12,06,27,190,15,01,25,047,32,57,21,111,30,22,20,066,30*72
$GPGSV,3,3,12,03,20,087,31,11,08,053,32,12,05,299,17,32,04,359,*71
$GPRMC,013617.000,A,5410.8070,N,08330.3581,E,51.97,14.90,051016,,,A*61
$GPGGA,013618.000,5410.8211,N,08330.3639,E,1,11,0.9,1044.7,M,-37.9,M,,0000*43
$GPGSA,A,3,17,19,28,24,06,01,57,22,03,11,12,,1.5,0.9,1.2*3B
$GPRMC,013618.000,A,5410.8211,N,08330.3639,E,52.24,14.15,051016,,,A*6D
$GPGGA,013619.000,5410.8353,N,08330.3694,E,1,11,0.9,1045.9,M,-37.9,M,,0000*4D
$GPGSA,A,3,17,19,28,24,06,01,57,22,03,11,12,,1.5,0.9,1.2*3B
$GPRMC,013619.000,A,5410.8353,N,08330.3694,E,52.55,13.23,051016,,,A*68
$GPGGA,013620.000,5410.8496,N,08330.3743,E,1,11,0.9,1046.4,M,-37.9,M,,0000*4C
$GPGSA,A,3,17,19,28,24,06,01,57,22,03,11,12,,1.5,0.9,1.2*3B
$GPRMC,013620.000,A,5410.8496,N,08330.3743,E,52.75,12.30,051016,,,A*66
$GPGGA,013621.000,5410.8640,N,08330.3790,E,1,11,0.9,1047.2,M,-37.9,M,,0000*4D
$GPGSA,A,3,17,19,28,24,06,01,57,22,03,11,12,,1.5,0.9,1.2*3B
$GPRMC,013621.000,A,5410.8640,N,08330.3790,E,53.02,11.24,051016,,,A*67
$GPGGA,013622.000,5410.8786,N,08330.3834,E,1,11,0.9,1048.2,M,-37.9,M,,0000*4B
$GPGSA,A,3,17,19,28,24,06,01,57,22,03,11,12,,1.5,0.9,1.2*3B
$GPGSV,3,1,12,17,89,081,28,19,66,247,15,28,46,123,34,24,36,296,18*79
$GPGSV,3,2,12,06,27,190,15,01,25,047,31,57,21,111,29,22,20,066,30*79
$GPGSV,3,3,12,03,20,087,32,11,08,053,32,12,05,299,25,32,04,359,16*74
$GPRMC,013622.000,A,5410.8786,N,08330.3834,E,53.31,10.11,051016,,,A*69
$GPGGA,013623.000,5410.8932,N,08330.3873,E,1,11,0.9,1048.9,M,-37.9,M,,0000*43
$GPGSA,A,3,17,19,28,24,06,01,57,22,03,11,12,,1.5,0.9,1.2*3B
$GPRMC,013623.000,A,5410.8932,N,08330.3873,E,53.67,9.13,051016,,,A*53
$GPGGA,013624.000,5410.9080,N,08330.3909,E,1,11,0.9,1049.6,M,-37.9,M,,0000*47
$GPGSA,A,3,17,19,28,24,06,01,57,22,03,11,12,,1.5,0.9,1.2*3B
$GPRMC,013624.000,A,5410.9080,N,08330.3909,E,53.79,8.44,051016,,,A*55
$GPGGA,013625.000,5410.9228,N,08330.3940,E,1,11,0.9,1050.0,M,-37.9,M,,0000*45
$GPGSA,A,3,17,19,28,24,06,01,57,22,03,11,12,,1.5,0.9,1.2*3B
$GPRMC,013625.000,A,5410.9228,N,08330.3940,E,53.87,7.49,051016,,,A*5A
$GPGGA,013626.000,5410.9377,N,08330.3967,E,1,11,0.9,1050.2,M,-37.9,M,,0000*4A
$GPGSA,A,3,17,19,28,24,06,01,57,22,03,11,12,,1.5,0.9,1.2*3B
$GPRMC,013626.000,A,5410.9377,N,08330.3967,E,54.08,6.36,051016,,,A*5E
$GPGGA,013627.000,5410.9527,N,08330.3989,E,1,11,0.9,1050.4,M,-37.9,M,,0000*4E
$GPGSA,A,3,17,19,28,24,06,01,57,22,03,11,12,,1.5,0.9,1.2*3B
$GPGSV,3,1,12,17,89,081,28,19,66,247,13,28,46,123,34,24,36,296,17*70
$GPGSV,3,2,12,06,27,190,09,01,25,047,31,57,21,111,29,22,20,066,30*74
$GPGSV,3,3,12,03,20,087,33,11,08,053,27,12,05,299,17,32,04,359,*77
$GPRMC,013627.000,A,5410.9527,N,08330.3989,E,54.41,5.49,051016,,,A*5A
$GPGGA,013628.000,5410.9677,N,08330.4008,E,1,11,0.9,1050.4,M,-37.9,M,,0000*40
$GPGSA,A,3,17,19,28,24,06,01,57,22,03,11,12,,1.5,0.9,1.2*3B
$GPRMC,013628.000,A,5410.9677,N,08330.4008,E,54.59,4.91,051016,,,A*59
$GPGGA,013629.000,5410.9829,N,08330.4023,E,1,11,0.9,1050.1,M,-37.9,M,,0000*48
$GPGSA,A,3,17,19,28,24,06,01,57,22,03,11,12,,1.5,0.9,1.2*3B
$GPRMC,013629.000,A,5410.9829,N,08330.4023,E,54.78,4.20,051016,,,A*5D
$GPGGA,013630.000,5410.9980,N,08330.4034,E,1,11,0.9,1049.7,M,-37.9,M,,0000*4A
$GPGSA,A,3,17,19,28,24,06,01,57,22,03,11,12,,1.5,0.9,1.2*3B
$GPRMC,013630.000,A,5410.9980,N,08330.4034,E,54.93,3.44,051016,,,A*51
$GPGGA,013631.000,5411.0132,N,08330.4043,E,1,11,0.9,1049.5,M,-37.9,M,,0000*40
$GPGSA,A,3,17,19,28,24,06,01,57,22,03,11,12,,1.5,0.9,1.2*3B
$GPRMC,013631.000,A,5411.0132,N,08330.4043,E,55.09,2.67,051016,,,A*5B
$GPGGA,013632.000,5411.0285,N,08330.4048,E,1,11,0.9,1049.3,M,-37.9,M,,0000*41
$GPGSA,A,3,17,19,28,24,06,01,57,22,03,11,12,,1.5,0.9,1.2*3B
$GPGSV,3,1,12,17,89,081,28,19,66,247,14,28,46,123,33,24,36,296,17*70
$GPGSV,3,2,12,06,27,190,15,01,25,047,32,57,21,111,28,22,20,066,30*7B
$GPGSV,3,3,12,03,20,087,33,11,08,053,29,12,05,299,25,32,04,359,*78
$GPRMC,013632.000,A,5411.0285,N,08330.4048,E,55.10,1.89,051016,,,A*57
$GPGGA,013633.000,5411.0438,N,08330.4052,E,1,11,0.9,1049.3,M,-37.9,M,,0000*4B
$GPGSA,A,3,17,19,28,24,06,01,57,22,03,11,12,,1.5,0.9,1.2*3B
$GPRMC,013633.000,A,5411.0438,N,08330.4052,E,55.15,1.18,051016,,,A*50
$GPGGA,013634.000,5411.0592,N,08330.4053,E,1,10,1.0,1049.7,M,-37.9,M,,0000*41
$GPGSA,A,3,17,19,28,24,06,01,57,22,03,11,,,1.9,1.0,1.6*38
$GPRMC,013634.000,A,5411.0592,N,08330.4053,E,55.23,0.18,051016,,,A*53
$GPGGA,013635.000,5411.0746,N,08330.4053,E,1,09,1.5,1050.4,M,-37.9,M,,0000*4D
$GPGSA,A,3,17,19,28,24,01,57,22,03,11,,,,2.6,1.5,2.1*33
$GPRMC,013635.000,A,5411.0746,N,08330.4053,E,55.23,359.65,051016,,,A*5C
$GPGGA,013636.000,5411.0899,N,08330.4049,E,1,10,1.3,1050.7,M,-37.9,M,,0000*45
$GPGSA,A,3,17,19,28,24,01,57,22,03,11,12,,,1.9,1.3,1.4*3C
$GPRMC,013636.000,A,5411.0899,N,08330.4049,E,55.31,358.89,051016,,,A*59
$GPGGA,013637.000,5411.1053,N,08330.4042,E,1,10,1.3,1051.6,M,-37.9,M,,0000*40
$GPGSA,A,3,17,19,28,24,01,57,22,03,11,12,,,1.9,1.3,1.4*3C
$GPGSV,3,1,12,17,89,081,28,19,66,247,16,28,46,123,33,24,36,296,18*7D
$GPGSV,3,2,12,01,25,047,32,57,21,111,28,22,20,066,30,03,20,087,33*7A
$GPGSV,3,3,12,11,08,053,30,12,05,299,17,06,27,190,04,32,04,359,*70
$GPRMC,013637.000,A,5411.1053,N,08330.4042,E,55.47,358.05,051016,,,A*59
$GPGGA,013638.000,5411.1208,N,08330.4034,E,1,10,1.3,1052.8,M,-37.9,M,,0000*4F
$GPGSA,A,3,17,19,28,24,01,57,22,03,11,12,,,1.9,1.3,1.4*3C
$GPRMC,013638.000,A,5411.1208,N,08330.4034,E,55.63,357.60,051016,,,A*51
$GPGGA,013639.000,5411.1363,N,08330.4022,E,1,10,1.3,1053.9,M,-37.9,M,,0000*45
$GPGSA,A,3,17,19,28,24,01,57,22,03,11,12,,,1.9,1.3,1.4*3C
$GPRMC,013639.000,A,5411.1363,N,08330.4022,E,55.78,356.86,051016,,,A*58
$GPGGA,013640.000,5411.1517,N,08330.4006,E,1,11,0.9,1054.8,M,-37.9,M,,0000*44
$GPGSA,A,3,17,19,28,24,06,01,57,22,03,11,12,,1.5,0.9,1.2*3B
$GPRMC,013640.000,A,5411.1517,N,08330.4006,E,55.88,356.09,051016,,,A*5D
$GPGGA,013641.000,5411.1672,N,08330.3987,E,1,11,0.9,1055.8,M,-37.9,M,,0000*43
$GPGSA,A,3,17,19,28,24,06,01,57,22,03,11,12,,1.5,0.9,1.2*3B
$GPRMC,013641.000,A,5411.1672,N,08330.3987,E,56.17,355.22,051016,,,A*54
$GPGGA,013642.000,5411.1828,N,08330.3966,E,1,11,0.9,1056.7,M,-37.9,M,,0000*42
$GPGSA,A,3,17,19,28,24,06,01,57,22,03,11,12,,1.5,0.9,1.2*3B
$GPGSV,3,1,12,17,89,081,28,19,66,247,17,28,46,123,33,24,36,296,17*73
$GPGSV,3,2,12,06,27,190,09,01,25,047,33,57,21,111,26,22,20,066,31*78
$GPGSV,3,3,12,03,20,087,32,11,08,053,31,12,05,299,18,32,04,359,*7E
$GPRMC,013642.000,A,5411.1828,N,08330.3966,E,56.47,354.93,051016,,,A*57
$GPGGA,013643.000,5411.1985,N,08330.3939,E,1,11,0.9,1057.1,M,-37.9,M,,0000*48
$GPGSA,A,3,17,19,28,24,06,01,57,22,03,11,12,,1.5,0.9,1.2*3B
$GPRMC,013643.000,A,5411.1985,N,08330.3939,E,57.12,354.02,051016,,,A*53
$GPGGA,013644.000,5411.2143,N,08330.3910,E,1,11,0.9,1057.6,M,-37.9,M,,0000*42
$GPGSA,A,3,17,19,28,24,06,01,57,22,03,11,12,,1.5,0.9,1.2*3B
$GPRMC,013644.000,A,5411.2143,N,08330.3910,E,57.69,353.77,051016,,,A*57
$GPGGA,013645.000,5411.2303,N,08330.3879,E,1,11,0.9,1058.0,M,-37.9,M,,0000*42
$GPGSA,A,3,17,19,28,24,06,01,57,22,03,11,12,,1.5,0.9,1.2*3B
$GPRMC,013645.000,A,5411.2303,N,08330.3879,E,58.14,352.86,051016,,,A*54
$GPGGA,013646.000,5411.2463,N,08330.3844,E,1,11,0.9,1058.3,M,-37.9,M,,0000*4D
$GPGSA,A,3,17,19,28,24,06,01,57,22,03,11,12,,1.5,0.9,1.2*3B
$GPRMC,013646.000,A,5411.2463,N,08330.3844,E,58.65,352.39,051016,,,A*5A
$GPGGA,013647.000,5411.2626,N,08330.3809,E,1,10,1.3,1058.9,M,-37.9,M,,0000*46
$GPGSA,A,3,17,19,28,24,01,57,22,03,11,12,,,1.9,1.3,1.4*3C
$GPGSV,3,1,12,17,89,081,28,19,66,247,17,28,46,123,33,24,36,296,16*72
$GPGSV,3,2,12,01,25,047,33,57,21,111,28,22,20,066,32,03,20,087,32*78
$GPGSV,3,3,12,11,08,053,31,12,05,299,22,06,27,190,05,32,04,359,23*77
$GPRMC,013647.000,A,5411.2626,N,08330.3809,E,59.06,352.26,051016,,,A*5B
$GPGGA,013648.000,5411.2790,N,08330.3774,E,1,10,1.3,1059.6,M,-37.9,M,,0000*4E
$GPGSA,A,3,17,19,28,24,01,57,22,03,11,12,,,1.9,1.3,1.4*3C
$GPRMC,013648.000,A,5411.2790,N,08330.3774,E,59.65,351.83,051016,,,A*54
$GPGGA,013649.000,5411.2955,N,08330.3735,E,1,10,1.3,1060.2,M,-37.9,M,,0000*43
$GPGSA,A,3,17,19,28,24,01,57,22,03,11,12,,,1.9,1.3,1.4*3C
$GPRMC,013649.000,A,5411.2955,N,08330.3735,E,60.27,351.14,051016,,,A*55
$GPGGA,013650.000,5411.3121,N,08330.3688,E,1,10,1.3,1060.2,M,-37.9,M,,0000*46
$GPGSA,A,3,17,19,28,24,01,57,22,03,11,12,,,1.9,1.3,1.4*3C
$GPRMC,013650.000,A,5411.3121,N,08330.3688,E,60.77,350.60,051016,,,A*57
$GPGGA,013651.000,5411.3288,N,08330.3636,E,1,10,1.3,1059.9,M,-37.9,M,,0000*43
$GPGSA,A,3,17,19,28,24,01,57,22,03,11,12,,,1.9,1.3,1.4*3C
$GPRMC,013651.000,A,5411.3288,N,08330.3636,E,61.09,349.60,051016,,,A*53
$GPGGA,013652.000,5411.3455,N,08330.3579,E,1,10,1.3,1059.5,M,-37.9,M,,0000*42
$GPGSA,A,3,17,19,28,24,01,57,22,03,11,12,,,1.9,1.3,1.4*3C
$GPGSV,3,1,12,17,89,081,29,19,66,247,16,28,46,123,29,24,36,296,16*79
$GPGSV,3,2,12,01,25,047,33,57,21,111,29,22,20,066,32,03,20,087,32*79
$GPGSV,3,3,12,11,08,053,30,12,05,299,11,06,27,190,07,32,04,359,22*75
$GPRMC,013652.000,A,5411.3455,N,08330.3579,E,61.36,348.63,051016,,,A*50
$GPGGA,013653.000,5411.3622,N,08330.3519,E,1,10,1.3,1059.2,M,-37.9,M,,0000*40
$GPGSA,A,3,17,19,28,24,01,57,22,03,11,12,,,1.9,1.3,1.4*3C
$GPRMC,013653.000,A,5411.3622,N,08330.3519,E,61.61,348.17,051016,,,A*54
$GPGGA,013654.000,5411.3789,N,08330.3456,E,1,11,0.9,1058.9,M,-37.9,M,,0000*4D
$GPGSA,A,3,17,19,28,24,06,01,57,22,03,11,12,,1.5,0.9,1.2*3B
$GPRMC,013654.000,A,5411.3789,N,08330.3456,E,61.77,347.86,051016,,,A*59
$GPGGA,013655.000,5411.3957,N,08330.3391,E,1,11,0.9,1058.4,M,-37.9,M,,0000*40
$GPGSA,A,3,17,19,28,24,06,01,57,22,03,11,12,,1.5,0.9,1.2*3B
$GPRMC,013655.000,A,5411.3957,N,08330.3391,E,62.01,347.39,051016,,,A*5F
$GPGGA,013656.000,5411.4125,N,08330.3323,E,1,11,0.9,1058.0,M,-37.9,M,,0000*44
$GPGSA,A,3,17,19,28,24,06,01,57,22,03,11,12,,1.5,0.9,1.2*3B
$GPRMC,013656.000,A,5411.4125,N,08330.3323,E,62.04,347.07,051016,,,A*57
$GPGGA,013657.000,5411.4293,N,08330.3254,E,1,10,1.0,1057.8,M,-37.9,M,,0000*44
$GPGSA,A,3,17,19,28,24,06,01,57,22,03,11,,,1.9,1.0,1.6*38
$GPGSV,3,1,12,17,89,081,29,19,66,247,18,28,46,123,28,24,36,296,16*76
$GPGSV,3,2,12,06,27,190,12,01,25,047,33,57,21,111,28,22,20,066,33*7E
$GPGSV,3,3,12,03,20,087,32,11,08,053,30,32,04,359,21,12,05,299,*75
$GPRMC,013657.000,A,5411.4293,N,08330.3254,E,62.51,346.43,051016,,,A*58
$GPGGA,013658.000,5411.4461,N,08330.3183,E,1,10,1.0,1057.6,M,-37.9,M,,0000*47
$GPGSA,A,3,17,19,28,24,06,01,57,22,03,11,,,1.9,1.0,1.6*38
$GPRMC,013658.000,A,5411.4461,N,08330.3183,E,62.67,345.87,051016,,,A*5B
$GPGGA,013659.000,5411.4630,N,08330.3111,E,1,10,1.0,1057.6,M,-37.9,M,,0000*4B
$GPGSA,A,3,17,19,28,24,06,01,57,03,22,11,,,1.9,1.0,1.6*38
$GPRMC,013659.000,A,5411.4630,N,08330.3111,E,62.82,345.68,051016,,,A*5D
$GPGGA,013700.000,5411.4798,N,08330.3038,E,1,10,1.0,1057.7,M,-37.9,M,,0000*4E
$GPGSA,A,3,17,19,28,24,06,01,57,03,22,11,,,1.9,1.0,1.6*38
$GPRMC,013700.000,A,5411.4798,N,08330.3038,E,62.95,345.40,051016,,,A*55
$GPGGA,013701.000,5411.4968,N,08330.2964,E,1,10,1.0,1058.0,M,-37.9,M,,0000*47
$GPGSA,A,3,17,19,28,24,06,01,57,03,22,11,,,1.9,1.0,1.6*38
$GPRMC,013701.000,A,5411.4968,N,08330.2964,E,63.02,345.17,051016,,,A*59
$GPGGA,013702.000,5411.5137,N,08330.2890,E,1,10,1.0,1058.2,M,-37.9,M,,0000*4F
$GPGSA,A,3,17,19,28,24,06,01,57,03,22,11,,,1.9,1.0,1.6*38
$GPGSV,3,1,12,17,87,072,29,19,67,248,19,28,44,124,28,24,36,294,16*7C
$GPGSV,3,2,12,06,28,190,22,01,24,047,33,57,21,111,22,03,20,086,31*76
$GPGSV,3,3,12,22,20,064,34,11,06,053,30,12,06,300,16,32,04,358,21*77
$GPRMC,013702.000,A,5411.5137,N,08330.2890,E,63.11,345.33,051016,,,A*57
$GPGGA,013703.000,5411.5307,N,08330.2812,E,1,11,0.9,1057.9,M,-37.9,M,,0000*48
$GPGSA,A,3,17,19,28,24,06,01,57,03,22,11,12,,1.5,0.9,1.2*3B
$GPRMC,013703.000,A,5411.5307,N,08330.2812,E,63.32,345.51,051016,,,A*58
$GPGGA,013704.000,5411.5478,N,08330.2738,E,1,11,0.9,1057.8,M,-37.9,M,,0000*46
$GPGSA,A,3,17,19,28,24,06,01,57,03,22,11,12,,1.5,0.9,1.2*3B
$GPRMC,013704.000,A,5411.5478,N,08330.2738,E,63.35,346.16,051016,,,A*50
$GPGGA,013705.000,5411.5649,N,08330.2667,E,1,10,0.9,1057.6,M,-37.9,M,,0000*43
$GPGSA,A,3,17,28,24,06,01,57,03,22,11,12,,,1.6,0.9,1.4*36
$GPRMC,013705.000,A,5411.5649,N,08330.2667,E,63.47,346.56,051016,,,A*5B
$GPGGA,013706.000,5411.5820,N,08330.2597,E,1,10,1.3,1057.2,M,-37.9,M,,0000*42
$GPGSA,A,3,17,19,28,24,01,57,03,22,11,12,,,1.9,1.3,1.4*3C
$GPRMC,013706.000,A,5411.5820,N,08330.2597,E,63.52,347.23,051016,,,A*52
$GPGGA,013707.000,5411.5992,N,08330.2533,E,1,10,1.3,1057.1,M,-37.9,M,,0000*46
$GPGSA,A,3,17,19,28,24,01,57,03,22,11,12,,,1.9,1.3,1.4*3C
$GPGSV,3,1,12,17,87,072,29,19,67,248,18,28,44,124,28,24,36,294,16*7D
$GPGSV,3,2,12,01,24,047,33,57,21,111,26,03,20,086,32,22,20,064,34*72
$GPGSV,3,3,12,11,06,053,30,12,06,300,18,06,28,190,07,32,04,358,21*7D
$GPRMC,013707.000,A,5411.5992,N,08330.2533,E,63.30,348.20,051016,,,A*5D
$GPGGA,013708.000,5411.6164,N,08330.2474,E,1,11,0.9,1056.8,M,-37.9,M,,0000*4B
$GPGSA,A,3,17,19,28,24,06,01,57,03,22,11,12,,1.5,0.9,1.2*3B
$GPRMC,013708.000,A,5411.6164,N,08330.2474,E,63.16,349.11,051016,,,A*55
$GPGGA,013709.000,5411.6336,N,08330.2418,E,1,11,0.9,1056.6,M,-37.9,M,,0000*4B
$GPGSA,A,3,17,19,28,24,06,01,57,03,22,11,12,,1.5,0.9,1.2*3B
$GPRMC,013709.000,A,5411.6336,N,08330.2418,E,63.17,349.92,051016,,,A*51
$GPGGA,013710.000,5411.6510,N,08330.2370,E,1,11,0.9,1056.6,M,-37.9,M,,0000*48
$GPGSA,A,3,17,19,28,24,06,01,57,03,22,11,12,,1.5,0.9,1.2*3B
$GPRMC,013710.000,A,5411.6510,N,08330.2370,E,63.13,351.07,051016,,,A*53
$GPGGA,013711.000,5411.6683,N,08330.2325,E,1,11,0.9,1056.5,M,-37.9,M,,0000*43
$GPGSA,A,3,17,19,28,24,06,01,57,03,22,11,12,,1.5,0.9,1.2*3B
$GPRMC,013711.000,A,5411.6683,N,08330.2325,E,63.16,351.99,051016,,,A*59
$GPGGA,013712.000,5411.6857,N,08330.2280,E,1,10,1.3,1055.9,M,-37.9,M,,0000*4C
$GPGSA,A,3,17,19,28,24,01,57,03,22,11,12,,,1.9,1.3,1.4*3C
$GPGSV,3,1,12,17,87,072,29,19,67,248,16,28,44,124,30,24,36,294,25*7A
$GPGSV,3,2,12,01,24,047,34,57,21,111,27,03,20,086,32,22,20,064,35*75
$GPGSV,3,3,12,11,06,053,30,12,06,300,19,06,28,190,07,32,04,358,20*7D
$GPRMC,013712.000,A,5411.6857,N,08330.2280,E,63.02,352.91,051016,,,A*5D
$GPGGA,013713.000,5411.7029,N,08330.2237,E,1,10,1.3,1054.9,M,-37.9,M,,0000*40
$GPGSA,A,3,17,19,28,24,01,57,03,22,11,12,,,1.9,1.3,1.4*3C
$GPRMC,013713.000,A,5411.7029,N,08330.2237,E,62.93,353.65,051016,,,A*53
$GPGGA,013714.000,5411.7202,N,08330.2199,E,1,10,1.3,1054.0,M,-37.9,M,,0000*42
$GPGSA,A,3,17,19,28,24,01,57,03,22,11,12,,,1.9,1.3,1.4*3C
$GPRMC,013714.000,A,5411.7202,N,08330.2199,E,62.75,354.46,051016,,,A*56
$GPGGA,013715.000,5411.7375,N,08330.2169,E,1,10,1.3,1053.4,M,-37.9,M,,0000*4E
$GPGSA,A,3,17,19,28,24,01,57,03,22,11,12,,,1.9,1.3,1.4*3C
$GPRMC,013715.000,A,5411.7375,N,08330.2169,E,62.62,355.11,051016,,,A*5C
$GPGGA,013716.000,5411.7548,N,08330.2145,E,1,10,1.3,1053.2,M,-37.9,M,,0000*4D
$GPGSA,A,3,17,19,28,24,01,57,03,22,11,12,,,1.9,1.3,1.4*3C
$GPRMC,013716.000,A,5411.7548,N,08330.2145,E,62.37,356.05,051016,,,A*5F
$GPGGA,013717.000,5411.7721,N,08330.2126,E,1,10,1.3,1053.1,M,-37.9,M,,0000*47
$GPGSA,A,3,17,19,28,24,01,57,03,22,11,12,,,1.9,1.3,1.4*3C
$GPGSV,3,1,12,17,87,072,29,19,67,248,17,28,44,124,31,24,36,294,17*7B
$GPGSV,3,2,12,01,24,047,34,57,21,111,26,03,20,086,33,22,20,064,35*75
$GPGSV,3,3,12,11,06,053,30,12,06,300,19,06,28,190,04,32,04,358,11*7C
$GPRMC,013717.000,A,5411.7721,N,08330.2126,E,62.29,356.90,051016,,,A*55
$GPGGA,013718.000,5411.7893,N,08330.2110,E,1,10,1.3,1052.8,M,-37.9,M,,0000*43
$GPGSA,A,3,17,19,28,24,01,57,03,22,11,12,,,1.9,1.3,1.4*3C
$GPRMC,013718.000,A,5411.7893,N,08330.2110,E,62.06,357.66,051016,,,A*5C
$GPGGA,013719.000,5411.8064,N,08330.2098,E,1,10,1.3,1052.6,M,-37.9,M,,0000*42
$GPGSA,A,3,17,19,28,24,01,57,03,22,11,12,,,1.9,1.3,1.4*3C
$GPRMC,013719.000,A,5411.8064,N,08330.2098,E,61.80,358.05,051016,,,A*54
$GPGGA,013720.000,5411.8235,N,08330.2089,E,1,09,1.3,1052.7,M,-37.9,M,,0000*47
$GPGSA,A,3,17,28,24,01,57,03,22,11,12,,,,2.0,1.3,1.5*3F
$GPRMC,013720.000,A,5411.8235,N,08330.2089,E,61.58,358.56,051016,,,A*5B
$GPGGA,013721.000,5411.8406,N,08330.2083,E,1,09,1.3,1052.9,M,-37.9,M,,0000*44
$GPGSA,A,3,17,28,24,01,57,03,22,11,12,,,,2.0,1.3,1.5*3F
$GPRMC,013721.000,A,5411.8406,N,08330.2083,E,61.31,358.93,051016,,,A*50
$GPGGA,013722.000,5411.8576,N,08330.2081,E,1,09,1.3,1053.4,M,-37.9,M,,0000*4F
$GPGSA,A,3,17,28,24,01,57,03,22,11,12,,,,2.0,1.3,1.5*3F
$GPGSV,3,1,12,17,87,072,28,28,44,124,31,24,36,294,15,01,24,047,33*7D
$GPGSV,3,2,12,57,21,111,26,03,20,086,33,22,20,064,34,11,06,053,30*74
$GPGSV,3,3,12,12,06,300,18,06,28,190,04,19,67,248,15,32,04,358,17*7B
$GPRMC,013722.000,A,5411.8576,N,08330.2081,E,61.12,359.33,051016,,,A*5D
$GPGGA,013723.000,5411.8746,N,08330.2080,E,1,09,1.3,1054.0,M,-37.9,M,,0000*4D
$GPGSA,A,3,17,28,24,01,57,03,22,11,12,,,,2.0,1.3,1.5*3F
$GPRMC,013723.000,A,5411.8746,N,08330.2080,E,60.90,359.74,051016,,,A*54
$GPGGA,013724.000,5411.8916,N,08330.2082,E,1,09,1.3,1054.7,M,-37.9,M,,0000*44
$GPGSA,A,3,17,28,24,01,57,03,22,11,12,,,,2.0,1.3,1.5*3F
$GPRMC,013724.000,A,5411.8916,N,08330.2082,E,60.76,0.08,051016,,,A*56
$GPGGA,013725.000,5411.9085,N,08330.2087,E,1,09,1.3,1055.4,M,-37.9,M,,0000*40
$GPGSA,A,3,17,28,24,01,57,03,22,11,12,,,,2.0,1.3,1.5*3F
$GPRMC,013725.000,A,5411.9085,N,08330.2087,E,60.53,1.29,051016,,,A*55
$GPGGA,013726.000,5411.9253,N,08330.2095,E,1,09,1.3,1055.8,M,-37.9,M,,0000*45
$GPGSA,A,3,17,28,24,01,57,03,22,11,12,,,,2.0,1.3,1.5*3F
$GPRMC,013726.000,A,5411.9253,N,08330.2095,E,60.42,1.91,051016,,,A*5F
$GPGGA,013727.000,5411.9420,N,08330.2107,E,1,09,1.3,1056.4,M,-37.9,M,,0000*43
$GPGSA,A,3,17,28,24,01,57,03,22,11,12,,,,2.0,1.3,1.5*3F
$GPGSV,3,1,12,17,87,072,28,28,44,124,32,24,36,294,16,01,24,047,32*7C
$GPGSV,3,2,12,57,21,111,26,03,20,086,33,22,20,064,33,11,06,053,29*7B
$GPGSV,3,3,12,12,06,300,27,06,28,190,04,19,67,248,12,32,04,358,18*7F
$GPRMC,013727.000,A,5411.9420,N,08330.2107,E,60.28,2.44,051016,,,A*51
$GPGGA,013728.000,5411.9587,N,08330.2121,E,1,09,1.3,1056.9,M,-37.9,M,,0000*49
$GPGSA,A,3,17,28,24,01,57,03,22,11,12,,,,2.0,1.3,1.5*3F
$GPRMC,013728.000,A,5411.9587,N,08330.2121,E,60.11,2.94,051016,,,A*51
$GPGGA,013729.000,5411.9753,N,08330.2138,E,1,10,1.3,1057.5,M,-37.9,M,,0000*4E
$GPGSA,A,3,17,19,28,24,01,57,03,22,11,12,,,1.9,1.3,1.4*3C
$GPRMC,013729.000,A,5411.9753,N,08330.2138,E,59.74,3.54,051016,,,A*57
$GPGGA,013730.000,5411.9918,N,08330.2160,E,1,10,1.3,1058.1,M,-37.9,M,,0000*41
$GPGSA,A,3,17,19,28,24,01,57,03,22,11,12,,,1.9,1.3,1.4*3C
$GPRMC,013730.000,A,5411.9918,N,08330.2160,E,59.45,4.42,051016,,,A*51
$GPGGA,013731.000,5412.0081,N,08330.2186,E,1,10,1.3,1058.7,M,-37.9,M,,0000*4D
$GPGSA,A,3,17,19,28,24,01,57,03,22,11,12,,,1.9,1.3,1.4*3C
$GPRMC,013731.000,A,5412.0081,N,08330.2186,E,59.15,5.61,051016,,,A*5E
$GPGGA,013732.000,5412.0244,N,08330.2216,E,1,09,1.3,1059.4,M,-37.9,M,,0000*45
$GPGSA,A,3,17,19,28,01,57,03,22,11,12,,,,1.9,1.3,1.4*3A
$GPGSV,3,1,12,17,87,072,27,19,67,248,12,28,44,124,32,01,24,047,33*7D
$GPGSV,3,2,12,57,21,111,27,03,20,086,34,22,20,064,33,11,06,053,29*7D
$GPGSV,3,3,12,12,06,300,19,02,00,206,04,24,36,294,16,32,04,358,17*70
$GPRMC,013732.000,A,5412.0244,N,08330.2216,E,58.90,6.42,051016,,,A*52
$GPGGA,013733.000,5412.0406,N,08330.2250,E,1,10,1.3,1060.2,M,-37.9,M,,0000*42
$GPGSA,A,3,17,19,28,24,01,57,03,22,11,12,,,1.9,1.3,1.4*3C
$GPRMC,013733.000,A,5412.0406,N,08330.2250,E,58.69,7.28,051016,,,A*5A
$GPGGA,013734.000,5412.0567,N,08330.2285,E,1,10,1.3,1060.7,M,-37.9,M,,0000*4E
$GPGSA,A,3,17,19,28,24,01,57,03,22,11,12,,,1.9,1.3,1.4*3C
$GPRMC,013734.000,A,5412.0567,N,08330.2285,E,58.46,7.59,051016,,,A*58
$GPGGA,013735.000,5412.0727,N,08330.2325,E,1,10,1.3,1061.5,M,-37.9,M,,0000*41
$GPGSA,A,3,17,19,28,24,01,57,03,22,11,12,,,1.9,1.3,1.4*3C
$GPRMC,013735.000,A,5412.0727,N,08330.2325,E,58.34,8.63,051016,,,A*57
$GPGGA,013736.000,5412.0887,N,08330.2370,E,1,10,1.3,1062.3,M,-37.9,M,,0000*42
$GPGSA,A,3,17,19,28,24,01,57,03,22,11,12,,,1.9,1.3,1.4*3C
$GPRMC,013736.000,A,5412.0887,N,08330.2370,E,58.32,9.32,051016,,,A*52
$GPGGA,013737.000,5412.1046,N,08330.2415,E,1,10,1.3,1062.6,M,-37.9,M,,0000*46
$GPGSA,A,3,17,19,28,24,01,57,03,22,11,12,,,1.9,1.3,1.4*3C
$GPGSV,3,1,12,17,87,072,27,19,67,248,12,28,44,124,33,24,36,294,19*7C
$GPGSV,3,2,12,01,24,047,32,57,21,111,28,03,20,086,34,22,20,064,33*7C
$GPGSV,3,3,12,11,06,053,29,12,06,300,18,06,28,190,18,32,04,358,16*7F
$GPRMC,013737.000,A,5412.1046,N,08330.2415,E,58.29,9.50,051016,,,A*5D
$GPGGA,013738.000,5412.1205,N,08330.2464,E,1,10,1.3,1063.1,M,-37.9,M,,0000*4C
$GPGSA,A,3,17,19,28,24,01,57,03,22,11,12,,,1.9,1.3,1.4*3C
$GPRMC,013738.000,A,5412.1205,N,08330.2464,E,57.87,10.26,051016,,,A*63
$GPGGA,013739.000,5412.1361,N,08330.2514,E,1,10,1.3,1063.5,M,-37.9,M,,0000*4C
$GPGSA,A,3,17,19,28,24,01,57,03,22,11,12,,,1.9,1.3,1.4*3C
$GPRMC,013739.000,A,5412.1361,N,08330.2514,E,57.20,10.24,051016,,,A*68
$GPGGA,013740.000,5412.1516,N,08330.2563,E,1,11,0.9,1063.8,M,-37.9,M,,0000*43
$GPGSA,A,3,17,19,28,24,06,01,57,03,22,11,12,,1.5,0.9,1.2*3B
$GPRMC,013740.000,A,5412.1516,N,08330.2563,E,56.52,10.53,051016,,,A*64
$GPGGA,013741.000,5412.1668,N,08330.2613,E,1,11,0.9,1063.9,M,-37.9,M,,0000*4D
$GPGSA,A,3,17,19,28,24,06,01,57,03,22,11,12,,1.5,0.9,1.2*3B
$GPRMC,013741.000,A,5412.1668,N,08330.2613,E,55.63,10.90,051016,,,A*65
$GPGGA,013742.000,5412.1818,N,08330.2663,E,1,11,0.9,1063.9,M,-37.9,M,,0000*40
$GPGSA,A,3,17,19,28,24,06,01,57,03,22,11,12,,1.5,0.9,1.2*3B
$GPGSV,3,1,12,17,87,072,28,19,67,248,12,28,44,124,33,24,36,294,19*73
$GPGSV,3,2,12,06,28,190,12,01,24,047,32,57,21,111,28,03,20,086,33*7C
$GPGSV,3,3,12,22,20,064,33,11,06,053,30,12,06,300,19,32,04,358,15*78
$GPRMC,013742.000,A,5412.1818,N,08330.2663,E,54.67,11.19,051016,,,A*6D
$GPGGA,013743.000,5412.1965,N,08330.2715,E,1,11,0.9,1063.8,M,-37.9,M,,0000*4B
$GPGSA,A,3,17,19,28,24,06,01,57,03,22,11,12,,1.5,0.9,1.2*3B
$GPRMC,013743.000,A,5412.1965,N,08330.2715,E,53.82,11.84,051016,,,A*6F
$GPGGA,013744.000,5412.2109,N,08330.2767,E,1,11,0.9,1063.4,M,-37.9,M,,0000*44
$GPGSA,A,3,17,19,28,24,06,01,57,03,22,11,12,,1.5,0.9,1.2*3B
$GPRMC,013744.000,A,5412.2109,N,08330.2767,E,52.76,12.14,051016,,,A*6C
$GPGGA,013745.000,5412.2249,N,08330.2820,E,1,11,0.9,1062.9,M,-37.9,M,,0000*42
$GPGSA,A,3,17,19,28,24,06,01,57,03,22,11,12,,1.5,0.9,1.2*3B
$GPRMC,013745.000,A,5412.2249,N,08330.2820,E,51.72,12.86,051016,,,A*6A
$GPGGA,013746.000,5412.2387,N,08330.2876,E,1,11,0.9,1062.4,M,-37.9,M,,0000*4C
$GPGSA,A,3,17,19,28,24,06,01,57,03,22,11,12,,1.5,0.9,1.2*3B
$GPRMC,013746.000,A,5412.2387,N,08330.2876,E,50.79,14.23,051016,,,A*6A
$GPGGA,013747.000,5412.2521,N,08330.2936,E,1,11,0.9,1061.7,M,-37.9,M,,0000*42
$GPGSA,A,3,17,19,28,24,06,01,57,03,22,11,12,,1.5,0.9,1.2*3B
$GPGSV,3,1,12,17,87,072,28,19,67,248,10,28,44,124,33,24,36,294,18*70
$GPGSV,3,2,12,06,28,190,14,01,24,047,32,57,21,111,28,03,20,086,33*7A
$GPGSV,3,3,12,22,20,064,33,11,06,053,30,12,06,300,19,32,04,358,16*7B
$GPRMC,013747.000,A,5412.2521,N,08330.2936,E,49.88,15.67,051016,,,A*63
$GPGGA,013748.000,5412.2651,N,08330.3001,E,1,11,0.9,1060.9,M,-37.9,M,,0000*4A
$GPGSA,A,3,17,19,28,24,06,01,57,03,22,11,12,,1.5,0.9,1.2*3B
$GPRMC,013748.000,A,5412.2651,N,08330.3001,E,48.95,17.51,051016,,,A*6E
$GPGGA,013749.000,5412.2778,N,08330.3073,E,1,11,0.9,1060.0,M,-37.9,M,,0000*4D
$GPGSA,A,3,17,19,28,24,06,01,57,03,22,11,12,,1.5,0.9,1.2*3B
$GPRMC,013749.000,A,5412.2778,N,08330.3073,E,48.32,19.58,051016,,,A*6A
$GPGGA,013750.000,5412.2901,N,08330.3152,E,1,11,0.9,1059.2,M,-37.9,M,,0000*4F
$GPGSA,A,3,17,19,28,24,06,01,57,03,22,11,12,,1.5,0.9,1.2*3B
$GPRMC,013750.000,A,5412.2901,N,08330.3152,E,47.81,21.41,051016,,,A*64
$GPGGA,013751.000,5412.3022,N,08330.3236,E,1,11,0.9,1058.3,M,-37.9,M,,0000*46
$GPGSA,A,3,17,19,28,24,06,01,57,03,22,11,12,,1.5,0.9,1.2*3B
$GPRMC,013751.000,A,5412.3022,N,08330.3236,E,46.97,22.98,051016,,,A*6C
$GPGGA,013752.000,5412.3138,N,08330.3323,E,1,11,0.9,1057.1,M,-37.9,M,,0000*47
$GPGSA,A,3,17,19,28,24,06,01,57,03,22,11,12,,1.5,0.9,1.2*3B
$GPGSV,3,1,12,17,87,072,28,19,67,248,12,28,44,124,34,24,36,294,19*74
$GPGSV,3,2,12,06,28,190,15,01,24,047,32,57,21,111,30,03,20,086,34*75
$GPGSV,3,3,12,22,20,064,28,11,06,053,31,12,06,300,19,32,04,358,15*73
$GPRMC,013752.000,A,5412.3138,N,08330.3323,E,46.23,24.63,051016,,,A*6D
$GPGGA,013753.000,5412.3252,N,08330.3414,E,1,11,0.9,1056.0,M,-37.9,M,,0000*4A
$GPGSA,A,3,17,19,28,24,06,01,57,03,22,11,12,,1.5,0.9,1.2*3B
$GPRMC,013753.000,A,5412.3252,N,08330.3414,E,45.56,25.90,051016,,,A*6C
$GPGGA,013754.000,5412.3364,N,08330.3506,E,1,11,0.9,1054.8,M,-37.9,M,,0000*41
$GPGSA,A,3,17,19,28,24,06,01,57,03,22,11,12,,1.5,0.9,1.2*3B
$GPRMC,013754.000,A,5412.3364,N,08330.3506,E,45.02,26.17,051016,,,A*60
$GPGGA,013755.000,5412.3474,N,08330.3600,E,1,11,0.9,1053.7,M,-37.9,M,,0000*4B
$GPGSA,A,3,17,19,28,24,06,01,57,03,22,11,12,,1.5,0.9,1.2*3B
$GPRMC,013755.000,A,5412.3474,N,08330.3600,E,44.60,26.86,051016,,,A*6F
$GPGGA,013756.000,5412.3582,N,08330.3695,E,1,11,0.9,1052.7,M,-37.9,M,,0000*4D
$GPGSA,A,3,17,19,28,24,06,01,57,03,22,11,12,,1.5,0.9,1.2*3B
$GPRMC,013756.000,A,5412.3582,N,08330.3695,E,43.97,27.31,051016,,,A*6A
$GPGGA,013757.000,5412.3688,N,08330.3789,E,1,11,0.9,1051.5,M,-37.9,M,,0000*48
$GPGSA,A,3,17,19,28,24,06,01,57,03,22,11,12,,1.5,0.9,1.2*3B
$GPGSV,3,1,12,17,87,072,28,19,67,248,11,28,44,124,35,24,36,294,13*7C
$GPGSV,3,2,12,06,28,190,17,01,24,047,32,57,21,111,30,03,20,086,29*7B
$GPGSV,3,3,12,22,20,064,27,11,06,053,30,12,06,300,19,32,04,358,14*7C
$GPRMC,013757.000,A,5412.3688,N,08330.3789,E,43.52,27.60,051016,,,A*63
$GPGGA,013758.000,5412.3793,N,08330.3882,E,1,11,0.9,1050.3,M,-37.9,M,,0000*4F
$GPGSA,A,3,17,19,28,24,06,01,57,03,22,11,12,,1.5,0.9,1.2*3B
$GPRMC,013758.000,A,5412.3793,N,08330.3882,E,43.21,27.46,051016,,,A*63
$GPGGA,013759.000,5412.3898,N,08330.3974,E,1,11,0.9,1048.7,M,-37.9,M,,0000*4F
$GPGSA,A,3,17,19,28,24,06,01,57,03,22,11,12,,1.5,0.9,1.2*3B
$GPRMC,013759.000,A,5412.3898,N,08330.3974,E,43.20,27.39,051016,,,A*67
$GPGGA,013800.000,5412.4003,N,08330.4068,E,1,11,0.9,1047.2,M,-37.9,M,,0000*48
$GPGSA,A,3,17,19,28,24,06,01,57,03,22,11,12,,1.5,0.9,1.2*3B
$GPRMC,013800.000,A,5412.4003,N,08330.4068,E,43.45,27.49,051016,,,A*6E
$GPGGA,013801.000,5412.4109,N,08330.4162,E,1,11,0.9,1045.6,M,-37.9,M,,0000*4F
$GPGSA,A,3,17,19,28,24,06,01,57,03,22,11,12,,1.5,0.9,1.2*3B
$GPRMC,013801.000,A,5412.4109,N,08330.4162,E,43.79,27.65,051016,,,A*6E
$GPGGA,013802.000,5412.4216,N,08330.4257,E,1,11,0.9,1043.8,M,-37.9,M,,0000*4C
$GPGSA,A,3,17,19,28,24,06,01,57,03,22,11,12,,1.5,0.9,1.2*3B
$GPGSV,3,1,12,17,87,072,29,19,67,248,12,28,44,124,35,24,36,294,15*78
$GPGSV,3,2,12,06,28,190,17,01,24,047,31,57,21,111,30,03,20,086,30*70
$GPGSV,3,3,12,22,20,064,27,11,06,053,29,12,06,300,20,32,04,358,14*7E
$GPRMC,013802.000,A,5412.4216,N,08330.4257,E,43.91,27.54,051016,,,A*61
$GPGGA,013803.000,5412.4323,N,08330.4352,E,1,10,0.9,1042.1,M,-37.9,M,,0000*47
$GPGSA,A,3,17,19,28,06,01,57,03,22,11,12,,,1.6,0.9,1.2*3E
$GPRMC,013803.000,A,5412.4323,N,08330.4352,E,44.10,27.46,051016,,,A*6E
$GPGGA,013804.000,5412.4431,N,08330.4448,E,1,10,0.9,1040.5,M,-37.9,M,,0000*4E
$GPGSA,A,3,17,19,28,06,01,57,03,22,11,12,,,1.6,0.9,1.2*3E
$GPRMC,013804.000,A,5412.4431,N,08330.4448,E,44.22,27.40,051016,,,A*66
$GPGGA,013805.000,5412.4539,N,08330.4542,E,1,10,0.9,1038.7,M,-37.9,M,,0000*40
$GPGSA,A,3,17,19,28,06,01,57,03,22,11,12,,,1.6,0.9,1.2*3E
$GPRMC,013805.000,A,5412.4539,N,08330.4542,E,44.30,27.05,051016,,,A*67
$GPGGA,013806.000,5412.4648,N,08330.4636,E,1,10,0.9,1036.8,M,-37.9,M,,0000*47
$GPGSA,A,3,17,19,28,06,01,57,03,22,11,12,,,1.6,0.9,1.2*3E
$GPRMC,013806.000,A,5412.4648,N,08330.4636,E,44.39,26.91,051016,,,A*64
$GPGGA,013807.000,5412.4757,N,08330.4729,E,1,10,0.9,1034.8,M,-37.9,M,,0000*44
$GPGSA,A,3,17,19,28,06,01,57,03,22,11,12,,,1.6,0.9,1.2*3E
$GPGSV,3,1,12,17,87,072,29,19,67,248,15,28,44,124,35,06,28,190,18*7A
$GPGSV,3,2,12,01,24,047,32,57,21,111,30,03,20,086,30,22,20,064,27*74
$GPGSV,3,3,12,11,06,053,29,12,06,300,17,24,36,294,15,32,04,358,16*75
$GPRMC,013807.000,A,5412.4757,N,08330.4729,E,44.53,26.95,051016,,,A*6D
$GPGGA,013808.000,5412.4866,N,08330.4824,E,1,10,0.9,1033.0,M,-37.9,M,,0000*4B
$GPGSA,A,3,17,19,28,06,01,57,03,22,11,12,,,1.6,0.9,1.2*3E
$GPRMC,013808.000,A,5412.4866,N,08330.4824,E,44.85,27.17,051016,,,A*6D
$GPGGA,013809.000,5412.4976,N,08330.4918,E,1,10,0.9,1030.9,M,-37.9,M,,0000*4E
$GPGSA,A,3,17,19,28,06,01,57,03,22,11,12,,,1.6,0.9,1.2*3E
$GPRMC,013809.000,A,5412.4976,N,08330.4918,E,44.95,26.71,051016,,,A*62
$GPGGA,013810.000,5412.5087,N,08330.5010,E,1,10,0.9,1028.8,M,-37.9,M,,0000*48
$GPGSA,A,3,17,19,28,06,01,57,03,22,11,12,,,1.6,0.9,1.2*3E
$GPRMC,013810.000,A,5412.5087,N,08330.5010,E,44.89,26.45,051016,,,A*66
$GPGGA,013811.000,5412.5197,N,08330.5102,E,1,10,0.9,1026.7,M,-37.9,M,,0000*4A
$GPGSA,A,3,17,19,28,06,01,57,03,22,11,12,,,1.6,0.9,1.2*3E
$GPRMC,013811.000,A,5412.5197,N,08330.5102,E,44.94,26.17,051016,,,A*6E
$GPGGA,013812.000,5412.5308,N,08330.5190,E,1,10,0.9,1024.3,M,-37.9,M,,0000*40
$GPGSA,A,3,17,19,28,06,01,57,03,22,11,12,,,1.6,0.9,1.2*3E
$GPGSV,3,1,12,17,87,072,28,19,67,248,13,28,44,124,35,06,28,190,19*7C
$GPGSV,3,2,12,01,24,047,32,57,21,111,30,03,20,086,31,22,20,064,27*75
$GPGSV,3,3,12,11,06,053,30,12,06,300,25,24,36,294,10,32,04,358,16*79
$GPRMC,013812.000,A,5412.5308,N,08330.5190,E,44.90,25.57,051016,,,A*61
$GPGGA,013813.000,5412.5420,N,08330.5280,E,1,10,0.9,1022.2,M,-37.9,M,,0000*49
$GPGSA,A,3,17,19,28,06,01,57,03,22,11,12,,,1.6,0.9,1.2*3E
$GPRMC,013813.000,A,5412.5420,N,08330.5280,E,45.01,25.31,051016,,,A*66
$GPGGA,013814.000,5412.5533,N,08330.5370,E,1,10,0.9,1020.3,M,-37.9,M,,0000*40
$GPGSA,A,3,17,19,28,06,01,57,03,22,11,12,,,1.6,0.9,1.2*3E
$GPRMC,013814.000,A,5412.5533,N,08330.5370,E,45.17,25.11,051016,,,A*69
$GPGGA,013815.000,5412.5646,N,08330.5461,E,1,10,0.9,1018.6,M,-37.9,M,,0000*49
$GPGSA,A,3,17,19,28,06,01,57,03,22,11,12,,,1.6,0.9,1.2*3E
$GPRMC,013815.000,A,5412.5646,N,08330.5461,E,45.24,24.76,051016,,,A*6E
$GPGGA,013816.000,5412.5760,N,08330.5550,E,1,10,0.9,1016.8,M,-37.9,M,,0000*4C
$GPGSA,A,3,17,19,28,06,01,57,03,22,11,12,,,1.6,0.9,1.2*3E
$GPRMC,013816.000,A,5412.5760,N,08330.5550,E,45.36,24.34,051016,,,A*6E
$GPGGA,013817.000,5412.5874,N,08330.5636,E,1,10,0.9,1014.7,M,-37.9,M,,0000*49
$GPGSA,A,3,17,19,28,06,01,57,03,22,11,12,,,1.6,0.9,1.2*3E
$GPGSV,3,1,12,17,87,072,29,19,67,248,14,28,44,124,35,06,28,190,19*7A
$GPGSV,3,2,12,01,24,047,32,57,21,111,31,03,20,086,31,22,20,064,28*7B
$GPGSV,3,3,12,11,06,053,30,12,06,300,18,24,36,294,09,32,04,358,16*7F
$GPRMC,013817.000,A,5412.5874,N,08330.5636,E,45.52,23.73,051016,,,A*60
$GPGGA,013818.000,5412.5989,N,08330.5719,E,1,10,0.9,1012.5,M,-37.9,M,,0000*4D
$GPGSA,A,3,17,19,28,06,01,57,03,22,11,12,,,1.6,0.9,1.2*3E
$GPRMC,013818.000,A,5412.5989,N,08330.5719,E,45.65,23.43,051016,,,A*67
$GPGGA,013819.000,5412.6105,N,08330.5802,E,1,11,0.9,1010.3,M,-37.9,M,,0000*43
$GPGSA,A,3,17,19,28,24,06,01,57,03,22,11,12,,1.5,0.9,1.2*3B
$GPRMC,013819.000,A,5412.6105,N,08330.5802,E,45.67,22.95,051016,,,A*64
$GPGGA,013820.000,5412.6221,N,08330.5882,E,1,11,0.9,1008.1,M,-37.9,M,,0000*4F
$GPGSA,A,3,17,19,28,24,06,01,57,03,22,11,12,,1.5,0.9,1.2*3B
$GPRMC,013820.000,A,5412.6221,N,08330.5882,E,45.75,22.35,051016,,,A*6A
$GPGGA,013821.000,5412.6338,N,08330.5959,E,1,11,0.9,1005.6,M,-37.9,M,,0000*4A
$GPGSA,A,3,17,19,28,24,06,01,57,03,22,11,12,,1.5,0.9,1.2*3B
$GPRMC,013821.000,A,5412.6338,N,08330.5959,E,45.84,21.90,051016,,,A*67
$GPGGA,013822.000,5412.6455,N,08330.6036,E,1,11,0.9,1003.2,M,-37.9,M,,0000*44
$GPGSA,A,3,17,19,28,24,06,01,57,03,22,11,12,,1.5,0.9,1.2*3B
$GPGSV,3,1,12,17,87,072,28,19,67,248,14,28,44,124,36,24,36,294,15*7C
$GPGSV,3,2,12,06,28,190,19,01,24,047,31,57,21,111,30,03,20,086,31*7F
$GPGSV,3,3,12,22,20,064,28,11,06,053,30,12,06,300,19,32,04,358,15*72
$GPRMC,013822.000,A,5412.6455,N,08330.6036,E,45.82,21.31,051016,,,A*66
$GPGGA,013823.000,5412.6573,N,08330.6112,E,1,11,0.9,1001.1,M,-37.9,M,,0000*46
$GPGSA,A,3,17,19,28,24,06,01,57,03,22,11,12,,1.5,0.9,1.2*3B
$GPRMC,013823.000,A,5412.6573,N,08330.6112,E,45.93,20.72,051016,,,A*63
$GPGGA,013824.000,5412.6692,N,08330.6188,E,1,11,0.9,999.1,M,-37.9,M,,0000*77
$GPGSA,A,3,17,19,28,24,06,01,57,03,22,11,12,,1.5,0.9,1.2*3B
$GPRMC,013824.000,A,5412.6692,N,08330.6188,E,46.25,20.56,051016,,,A*63
$GPGGA,013825.000,5412.6812,N,08330.6262,E,1,11,0.9,996.9,M,-37.9,M,,0000*70
$GPGSA,A,3,17,19,28,24,06,01,57,03,22,11,12,,1.5,0.9,1.2*3B
$GPRMC,013825.000,A,5412.6812,N,08330.6262,E,46.33,20.29,051016,,,A*6C
$GPGGA,013826.000,5412.6932,N,08330.6335,E,1,11,0.9,994.6,M,-37.9,M,,0000*7E
$GPGSA,A,3,17,19,28,24,06,01,57,03,22,11,12,,1.5,0.9,1.2*3B
$GPRMC,013826.000,A,5412.6932,N,08330.6335,E,46.48,20.27,051016,,,A*6D
$GPGGA,013827.000,5412.7053,N,08330.6408,E,1,11,0.9,992.1,M,-37.9,M,,0000*78
$GPGSA,A,3,17,19,28,24,06,01,57,03,22,11,12,,1.5,0.9,1.2*3B
$GPGSV,3,1,12,17,87,072,28,19,67,248,15,28,44,124,35,24,36,294,17*7C
$GPGSV,3,2,12,06,28,190,19,01,24,047,31,57,21,111,31,03,20,086,32*7D
$GPGSV,3,3,12,22,20,064,29,11,06,053,30,12,06,300,24,32,04,358,13*7B
$GPRMC,013827.000,A,5412.7053,N,08330.6408,E,46.83,20.29,051016,,,A*63
$GPGGA,013828.000,5412.7174,N,08330.6484,E,1,11,0.9,990.0,M,-37.9,M,,0000*74
$GPGSA,A,3,17,19,28,24,06,01,57,03,22,11,12,,1.5,0.9,1.2*3B
$GPRMC,013828.000,A,5412.7174,N,08330.6484,E,47.15,20.52,051016,,,A*6E
$GPGGA,013829.000,5412.7297,N,08330.6562,E,1,11,0.9,987.9,M,-37.9,M,,0000*7D
$GPGSA,A,3,17,19,28,24,06,01,57,03,22,11,12,,1.5,0.9,1.2*3B
$GPRMC,013829.000,A,5412.7297,N,08330.6562,E,47.55,20.68,051016,,,A*65
$GPGGA,013830.000,5412.7421,N,08330.6641,E,1,10,0.9,985.7,M,-37.9,M,,0000*71
$GPGSA,A,3,17,28,24,06,01,57,03,22,11,12,,,1.6,0.9,1.4*36
$GPRMC,013830.000,A,5412.7421,N,08330.6641,E,47.89,20.74,051016,,,A*68
$GPGGA,013831.000,5412.7545,N,08330.6719,E,1,10,0.9,983.3,M,-37.9,M,,0000*7D
$GPGSA,A,3,17,28,24,06,01,57,03,22,11,12,,,1.6,0.9,1.4*36
$GPRMC,013831.000,A,5412.7545,N,08330.6719,E,48.31,20.57,051016,,,A*6B
$GPGGA,013832.000,5412.7671,N,08330.6799,E,1,11,0.9,981.0,M,-37.9,M,,0000*72
$GPGSA,A,3,17,19,28,24,06,01,57,03,22,11,12,,1.5,0.9,1.2*3B
$GPGSV,3,1,12,17,87,072,28,19,67,248,08,28,44,124,35,24,36,294,13*74
$GPGSV,3,2,12,06,28,190,18,01,24,047,32,57,21,111,31,03,20,086,32*7F
$GPGSV,3,3,12,22,20,064,30,11,06,053,30,12,06,300,24,02,00,206,10*7D
$GPRMC,013832.000,A,5412.7671,N,08330.6799,E,48.70,20.87,051016,,,A*6C
$GPGGA,013833.000,5412.7797,N,08330.6879,E,1,10,0.9,978.6,M,-37.9,M,,0000*7A
$GPGSA,A,3,17,19,28,06,01,57,03,22,11,12,,,1.6,0.9,1.2*3E
$GPRMC,013833.000,A,5412.7797,N,08330.6879,E,49.04,21.06,051016,,,A*6F
$GPGGA,013834.000,5412.7924,N,08330.6964,E,1,10,0.9,976.5,M,-37.9,M,,0000*7B
$GPGSA,A,3,17,19,28,06,01,57,03,22,11,12,,,1.6,0.9,1.2*3E
$GPRMC,013834.000,A,5412.7924,N,08330.6964,E,49.41,21.26,051016,,,A*60
$GPGGA,013835.000,5412.8053,N,08330.7051,E,1,10,0.9,974.5,M,-37.9,M,,0000*70
$GPGSA,A,3,17,19,28,06,01,57,03,22,11,12,,,1.6,0.9,1.2*3E
$GPRMC,013835.000,A,5412.8053,N,08330.7051,E,49.80,21.43,051016,,,A*67
$GPGGA,013836.000,5412.8182,N,08330.7138,E,1,10,0.9,972.4,M,-37.9,M,,0000*77
$GPGSA,A,3,17,19,28,06,01,57,03,22,11,12,,,1.6,0.9,1.2*3E
$GPRMC,013836.000,A,5412.8182,N,08330.7138,E,50.13,21.41,051016,,,A*67
$GPGGA,013837.000,5412.8312,N,08330.7225,E,1,10,0.9,970.1,M,-37.9,M,,0000*75
$GPGSA,A,3,17,19,28,06,01,57,03,22,11,12,,,1.6,0.9,1.2*3E
$GPGSV,3,1,12,17,87,072,28,19,67,248,09,28,44,124,35,06,28,190,17*79
$GPGSV,3,2,12,01,24,047,32,57,21,111,31,03,20,086,32,22,20,064,30*71
$GPGSV,3,3,12,11,06,053,31,12,06,300,18,02,00,206,14,24,36,294,05*7D
$GPRMC,013837.000,A,5412.8312,N,08330.7225,E,50.52,21.51,051016,,,A*66
$GPGGA,013838.000,5412.8443,N,08330.7314,E,1,10,0.9,967.9,M,-37.9,M,,0000*74
$GPGSA,A,3,17,19,28,06,01,57,03,22,11,12,,,1.6,0.9,1.2*3E
$GPRMC,013838.000,A,5412.8443,N,08330.7314,E,50.93,21.74,051016,,,A*63
$GPGGA,013839.000,5412.8574,N,08330.7404,E,1,10,0.9,965.5,M,-37.9,M,,0000*78
$GPGSA,A,3,17,19,28,06,01,57,03,22,11,12,,,1.6,0.9,1.2*3E
$GPRMC,013839.000,A,5412.8574,N,08330.7404,E,51.26,21.92,051016,,,A*66
$GPGGA,013840.000,5412.8706,N,08330.7493,E,1,10,0.9,962.9,M,-37.9,M,,0000*74
$GPGSA,A,3,17,19,28,06,01,57,03,22,11,12,,,1.6,0.9,1.2*3E
$GPRMC,013840.000,A,5412.8706,N,08330.7493,E,51.59,21.67,051016,,,A*63
$GPGGA,013841.000,5412.8840,N,08330.7582,E,1,10,0.9,960.4,M,-37.9,M,,0000*76
$GPGSA,A,3,17,19,28,06,01,57,03,22,11,12,,,1.6,0.9,1.2*3E
$GPRMC,013841.000,A,5412.8840,N,08330.7582,E,52.17,21.64,051016,,,A*64
$GPGGA,013842.000,5412.8974,N,08330.7671,E,1,10,0.9,957.7,M,-37.9,M,,0000*7B
$GPGSA,A,3,17,19,28,06,01,57,03,22,11,12,,,1.6,0.9,1.2*3E
$GPGSV,3,1,12,17,87,072,27,19,67,248,11,28,44,124,35,06,28,190,17*7F
$GPGSV,3,2,12,01,24,047,32,57,21,111,31,03,20,086,32,22,20,064,30*71
$GPGSV,3,3,12,11,06,053,31,12,06,300,19,02,00,206,07,24,36,294,12*78
$GPRMC,013842.000,A,5412.8974,N,08330.7671,E,52.39,21.57,051016,,,A*62
$GPGGA,013843.000,5412.9109,N,08330.7761,E,1,10,0.9,955.0,M,-37.9,M,,0000*7C
$GPGSA,A,3,17,19,28,06,01,57,03,22,11,12,,,1.6,0.9,1.2*3E
$GPRMC,013843.000,A,5412.9109,N,08330.7761,E,52.62,21.75,051016,,,A*6E
$GPGGA,013844.000,5412.9244,N,08330.7851,E,1,10,0.9,952.2,M,-37.9,M,,0000*78
$GPGSA,A,3,17,19,28,06,01,57,03,22,11,12,,,1.6,0.9,1.2*3E
$GPRMC,013844.000,A,5412.9244,N,08330.7851,E,52.88,21.99,051016,,,A*69
$GPGGA,013845.000,5412.9380,N,08330.7944,E,1,10,0.9,949.6,M,-37.9,M,,0000*7B
$GPGSA,A,3,17,19,28,06,01,57,03,22,11,12,,,1.6,0.9,1.2*3E
$GPRMC,013845.000,A,5412.9380,N,08330.7944,E,53.14,22.22,051016,,,A*63
$GPGGA,013846.000,5412.9516,N,08330.8036,E,1,10,0.9,946.9,M,-37.9,M,,0000*72
$GPGSA,A,3,17,19,28,06,01,57,03,22,11,12,,,1.6,0.9,1.2*3E
$GPRMC,013846.000,A,5412.9516,N,08330.8036,E,53.20,22.06,051016,,,A*6B
$GPGGA,013847.000,5412.9653,N,08330.8132,E,1,11,0.9,944.6,M,-37.9,M,,0000*78
$GPGSA,A,3,17,19,28,24,06,01,57,03,22,11,12,,1.5,0.9,1.2*3B
$GPGSV,3,1,12,17,87,072,28,19,67,248,16,28,44,124,35,24,36,294,14*7C
$GPGSV,3,2,12,06,28,190,18,01,24,047,32,57,21,111,31,03,20,086,32*7F
$GPGSV,3,3,12,22,20,064,31,11,06,053,31,12,06,300,20,02,00,206,08*70
$GPRMC,013847.000,A,5412.9653,N,08330.8132,E,53.15,22.37,051016,,,A*69
$GPGGA,013848.000,5412.9789,N,08330.8229,E,1,11,0.9,942.5,M,-37.9,M,,0000*7D
$GPGSA,A,3,17,19,28,24,06,01,57,03,22,11,12,,1.5,0.9,1.2*3B
$GPRMC,013848.000,A,5412.9789,N,08330.8229,E,52.88,22.63,051016,,,A*6D
$GPGGA,013849.000,5412.9924,N,08330.8324,E,1,11,0.9,940.4,M,-37.9,M,,0000*7A
$GPGSA,A,3,17,19,28,24,06,01,57,03,22,11,12,,1.5,0.9,1.2*3B
$GPRMC,013849.000,A,5412.9924,N,08330.8324,E,52.39,22.64,051016,,,A*64
$GPGGA,013850.000,5413.0058,N,08330.8419,E,1,11,0.9,938.5,M,-37.9,M,,0000*7F
$GPGSA,A,3,17,19,28,24,06,01,57,03,22,11,12,,1.5,0.9,1.2*3B
$GPRMC,013850.000,A,5413.0058,N,08330.8419,E,51.97,22.58,051016,,,A*67
$GPGGA,013851.000,5413.0190,N,08330.8512,E,1,11,0.9,936.5,M,-37.9,M,,0000*7F
$GPGSA,A,3,17,19,28,24,06,01,57,03,22,11,12,,1.5,0.9,1.2*3B
$GPRMC,013851.000,A,5413.0190,N,08330.8512,E,51.48,22.70,051016,,,A*61
$GPGGA,013852.000,5413.0321,N,08330.8607,E,1,11,0.9,935.0,M,-37.9,M,,0000*75
$GPGSA,A,3,17,19,28,24,06,01,57,03,22,11,12,,1.5,0.9,1.2*3B
$GPGSV,3,1,12,17,87,072,28,19,67,248,15,28,44,124,36,24,36,294,14*7C
$GPGSV,3,2,12,06,28,190,19,01,24,047,32,57,21,111,31,03,20,086,32*7E
$GPGSV,3,3,12,22,20,064,30,11,06,053,31,12,06,300,20,02,00,206,06*7F
$GPRMC,013852.000,A,5413.0321,N,08330.8607,E,51.21,23.09,051016,,,A*6D
$GPGGA,013853.000,5413.0451,N,08330.8701,E,1,11,0.9,933.5,M,-37.9,M,,0000*70
$GPGSA,A,3,17,19,28,24,06,01,57,03,22,11,12,,1.5,0.9,1.2*3B
$GPRMC,013853.000,A,5413.0451,N,08330.8701,E,50.92,23.38,051016,,,A*60
$GPGGA,013854.000,5413.0580,N,08330.8796,E,1,11,0.9,931.9,M,-37.9,M,,0000*7A
$GPGSA,A,3,17,19,28,24,06,01,57,03,22,11,12,,1.5,0.9,1.2*3B
$GPRMC,013854.000,A,5413.0580,N,08330.8796,E,50.47,23.35,051016,,,A*61
$GPGGA,013855.000,5413.0708,N,08330.8890,E,1,11,0.9,930.4,M,-37.9,M,,0000*7C
$GPGSA,A,3,17,19,28,24,06,01,57,03,22,11,12,,1.5,0.9,1.2*3B
$GPRMC,013855.000,A,5413.0708,N,08330.8890,E,50.18,23.35,051016,,,A*61
$GPGGA,013856.000,5413.0836,N,08330.8984,E,1,11,0.9,929.1,M,-37.9,M,,0000*74
$GPGSA,A,3,17,19,28,24,06,01,57,03,22,11,12,,1.5,0.9,1.2*3B
$GPRMC,013856.000,A,5413.0836,N,08330.8984,E,50.05,23.31,051016,,,A*6C
$GPGGA,013857.000,5413.0962,N,08330.9076,E,1,10,1.0,927.5,M,-37.9,M,,0000*73
$GPGSA,A,3,17,19,28,24,06,01,57,03,22,11,,,1.9,1.0,1.6*38
$GPGSV,3,1,12,17,87,072,29,19,67,248,16,28,44,124,36,24,36,294,15*7F
$GPGSV,3,2,12,06,28,190,20,01,24,047,32,57,21,111,31,03,20,086,32*74
$GPGSV,3,3,12,22,20,064,29,11,06,053,31,02,00,206,09,12,06,300,07*7D
$GPRMC,013857.000,A,5413.0962,N,08330.9076,E,49.78,23.17,051016,,,A*6E
$GPGGA,013858.000,5413.1088,N,08330.9165,E,1,11,0.9,925.7,M,-37.9,M,,0000*7A
$GPGSA,A,3,17,19,28,24,06,01,57,03,22,11,12,,1.5,0.9,1.2*3B
$GPRMC,013858.000,A,5413.1088,N,08330.9165,E,49.49,23.05,051016,,,A*6F
$GPGGA,013859.000,5413.1213,N,08330.9252,E,1,11,0.9,923.7,M,-37.9,M,,0000*7A
$GPGSA,A,3,17,19,28,24,06,01,57,03,22,12,11,,1.5,0.9,1.2*3B
$GPRMC,013859.000,A,5413.1213,N,08330.9252,E,49.35,22.86,051016,,,A*68
$GPGGA,013900.000,5413.1338,N,08330.9341,E,1,11,0.9,922.0,M,-37.9,M,,0000*7A
$GPGSA,A,3,17,19,28,24,06,01,57,03,22,12,11,,1.5,0.9,1.2*3B
$GPRMC,013900.000,A,5413.1338,N,08330.9341,E,49.15,23.20,051016,,,A*61
$GPGGA,013901.000,5413.1463,N,08330.9431,E,1,11,0.9,920.3,M,-37.9,M,,0000*73
$GPGSA,A,3,17,19,28,24,06,01,57,03,22,12,11,,1.5,0.9,1.2*3B
$GPRMC,013901.000,A,5413.1463,N,08330.9431,E,48.93,22.92,051016,,,A*6E
$GPGGA,013902.000,5413.1587,N,08330.9519,E,1,11,0.9,918.6,M,-37.9,M,,0000*7E
$GPGSA,A,3,17,19,28,24,06,01,57,03,22,12,11,,1.5,0.9,1.2*3B
$GPGSV,3,1,12,17,86,071,29,19,68,248,17,28,44,125,36,24,36,293,17*77
$GPGSV,3,2,12,06,29,190,20,01,23,047,32,57,22,111,31,03,21,085,32*73
$GPGSV,3,3,12,22,20,064,30,12,06,300,18,11,06,053,32,02,01,206,08*78
$GPRMC,013902.000,A,5413.1587,N,08330.9519,E,48.82,22.88,051016,,,A*66
$GPGGA,013903.000,5413.1711,N,08330.9607,E,1,11,0.9,917.0,M,-37.9,M,,0000*77
$GPGSA,A,3,17,19,28,24,06,01,57,03,22,12,11,,1.5,0.9,1.2*3B
$GPRMC,013903.000,A,5413.1711,N,08330.9607,E,48.46,22.84,051016,,,A*62
$GPGGA,013904.000,5413.1834,N,08330.9695,E,1,11,0.9,915.5,M,-37.9,M,,0000*74
$GPGSA,A,3,17,19,28,24,06,01,57,03,22,12,11,,1.5,0.9,1.2*3B
$GPRMC,013904.000,A,5413.1834,N,08330.9695,E,48.36,22.98,051016,,,A*6C
$GPGGA,013905.000,5413.1958,N,08330.9784,E,1,11,0.9,913.9,M,-37.9,M,,0000*75
$GPGSA,A,3,17,19,28,24,06,01,57,03,22,12,11,,1.5,0.9,1.2*3B
$GPRMC,013905.000,A,5413.1958,N,08330.9784,E,48.24,22.94,051016,,,A*68
$GPGGA,013906.000,5413.2080,N,08330.9872,E,1,11,0.9,912.2,M,-37.9,M,,0000*75
$GPGSA,A,3,17,19,28,24,06,01,57,03,22,12,11,,1.5,0.9,1.2*3B
$GPRMC,013906.000,A,5413.2080,N,08330.9872,E,48.17,22.97,051016,,,A*61
$GPGGA,013907.000,5413.2203,N,08330.9959,E,1,11,0.9,910.5,M,-37.9,M,,0000*70
$GPGSA,A,3,17,19,28,24,06,01,57,03,22,12,11,,1.5,0.9,1.2*3B
$GPGSV,3,1,12,17,86,071,29,19,68,248,16,28,44,125,36,24,36,293,17*76
$GPGSV,3,2,12,06,29,190,20,01,23,047,32,57,22,111,32,03,21,085,32*70
$GPGSV,3,3,12,22,20,064,30,12,06,300,19,11,06,053,32,02,01,206,08*79
$GPRMC,013907.000,A,5413.2203,N,08330.9959,E,48.03,22.96,051016,,,A*65
$GPGGA,013908.000,5413.2324,N,08331.0044,E,1,11,0.9,908.4,M,-37.9,M,,0000*7E
$GPGSA,A,3,17,19,28,24,06,01,57,03,22,12,11,,1.5,0.9,1.2*3B
$GPRMC,013908.000,A,5413.2324,N,08331.0044,E,47.91,22.93,051016,,,A*62
$GPGGA,013909.000,5413.2446,N,08331.0132,E,1,11,0.9,906.8,M,-37.9,M,,0000*7E
$GPGSA,A,3,17,19,28,24,06,01,57,03,22,12,11,,1.5,0.9,1.2*3B
$GPRMC,013909.000,A,5413.2446,N,08331.0132,E,47.87,23.19,051016,,,A*64
$GPGGA,013910.000,5413.2568,N,08331.0221,E,1,11,0.9,905.2,M,-37.9,M,,0000*73
$GPGSA,A,3,17,19,28,24,06,01,57,03,22,12,11,,1.5,0.9,1.2*3B
$GPRMC,013910.000,A,5413.2568,N,08331.0221,E,47.66,23.57,051016,,,A*65
$GPGGA,013911.000,5413.2688,N,08331.0312,E,1,11,0.9,903.9,M,-37.9,M,,0000*73
$GPGSA,A,3,17,19,28,24,06,01,57,03,22,12,11,,1.5,0.9,1.2*3B
$GPRMC,013911.000,A,5413.2688,N,08331.0312,E,47.49,23.70,051016,,,A*60
$GPGGA,013912.000,5413.2809,N,08331.0404,E,1,11,0.9,902.6,M,-37.9,M,,0000*79
$GPGSA,A,3,17,19,28,24,06,01,57,03,22,12,11,,1.5,0.9,1.2*3B
$GPGSV,3,1,12,17,86,071,29,19,68,248,15,28,44,125,36,24,36,293,18*7A
$GPGSV,3,2,12,06,29,190,21,01,23,047,32,57,22,111,32,03,21,085,33*70
$GPGSV,3,3,12,22,20,064,30,12,06,300,20,11,06,053,32,02,01,206,07*7C
$GPRMC,013912.000,A,5413.2809,N,08331.0404,E,47.30,23.88,051016,,,A*6D
$GPGGA,013913.000,5413.2928,N,08331.0497,E,1,11,0.9,901.5,M,-37.9,M,,0000*70
$GPGSA,A,3,17,19,28,24,06,01,57,03,22,12,11,,1.5,0.9,1.2*3B
$GPRMC,013913.000,A,5413.2928,N,08331.0497,E,47.22,24.08,051016,,,A*68
$GPGGA,013914.000,5413.3048,N,08331.0589,E,1,11,0.9,900.1,M,-37.9,M,,0000*72
$GPGSA,A,3,17,19,28,24,06,01,57,03,22,12,11,,1.5,0.9,1.2*3B
$GPRMC,013914.000,A,5413.3048,N,08331.0589,E,47.19,24.23,051016,,,A*6E
$GPGGA,013915.000,5413.3167,N,08331.0682,E,1,11,0.9,898.8,M,-37.9,M,,0000*7E
$GPGSA,A,3,17,19,28,24,06,01,57,03,22,12,11,,1.5,0.9,1.2*3B
$GPRMC,013915.000,A,5413.3167,N,08331.0682,E,47.24,24.54,051016,,,A*65
$GPGGA,013916.000,5413.3286,N,08331.0776,E,1,11,0.9,897.5,M,-37.9,M,,0000*79
$GPGSA,A,3,17,19,28,24,06,01,57,03,22,12,11,,1.5,0.9,1.2*3B
$GPRMC,013916.000,A,5413.3286,N,08331.0776,E,47.19,24.96,051016,,,A*60
$GPGGA,013917.000,5413.3404,N,08331.0868,E,1,11,0.9,895.7,M,-37.9,M,,0000*74
$GPGSA,A,3,17,19,28,24,06,01,57,03,22,12,11,,1.5,0.9,1.2*3B
$GPGSV,3,1,12,17,86,071,29,19,68,248,16,28,44,125,36,24,36,293,17*76
$GPGSV,3,2,12,06,29,190,20,01,23,047,32,57,22,111,33,03,21,085,33*70
$GPGSV,3,3,12,22,20,064,30,12,06,300,20,11,06,053,31,02,01,206,04*7C
$GPRMC,013917.000,A,5413.3404,N,08331.0868,E,47.15,24.76,051016,,,A*6F
$GPGGA,013918.000,5413.3522,N,08331.0960,E,1,11,0.9,894.0,M,-37.9,M,,0000*71
$GPGSA,A,3,17,19,28,24,06,01,57,03,22,12,11,,1.5,0.9,1.2*3B
$GPRMC,013918.000,A,5413.3522,N,08331.0960,E,47.08,24.88,051016,,,A*61
$GPGGA,013919.000,5413.3639,N,08331.1053,E,1,11,0.9,892.2,M,-37.9,M,,0000*75
$GPGSA,A,3,17,19,28,24,06,01,57,03,22,12,11,,1.5,0.9,1.2*3B
$GPRMC,013919.000,A,5413.3639,N,08331.1053,E,47.05,25.13,051016,,,A*6F
$GPGGA,013920.000,5413.3757,N,08331.1148,E,1,11,0.9,890.6,M,-37.9,M,,0000*7B
$GPGSA,A,3,17,19,28,24,06,01,57,03,22,12,11,,1.5,0.9,1.2*3B
$GPRMC,013920.000,A,5413.3757,N,08331.1148,E,47.07,25.50,051016,,,A*62
$GPGGA,013921.000,5413.3874,N,08331.1242,E,1,11,0.9,888.9,M,-37.9,M,,0000*7B
$GPGSA,A,3,17,19,28,24,06,01,57,03,22,12,11,,1.5,0.9,1.2*3B
$GPRMC,013921.000,A,5413.3874,N,08331.1242,E,47.07,25.50,051016,,,A*64
$GPGGA,013922.000,5413.3991,N,08331.1336,E,1,11,0.9,887.1,M,-37.9,M,,0000*77
$GPGSA,A,3,17,19,28,24,06,01,57,03,22,12,11,,1.5,0.9,1.2*3B
$GPGSV,3,1,12,17,86,071,29,19,68,248,15,28,44,125,36,24,36,293,18*7A
$GPGSV,3,2,12,06,29,190,20,01,23,047,32,57,22,111,32,03,21,085,33*71
$GPGSV,3,3,12,22,20,064,29,12,06,300,21,11,06,053,31,02,01,206,14*74
$GPRMC,013922.000,A,5413.3991,N,08331.1336,E,46.93,25.51,051016,,,A*62
$GPGGA,013923.000,5413.4108,N,08331.1432,E,1,11,0.9,885.4,M,-37.9,M,,0000*7D
$GPGSA,A,3,17,19,28,24,06,01,57,03,22,12,11,,1.5,0.9,1.2*3B
$GPRMC,013923.000,A,5413.4108,N,08331.1432,E,46.88,25.57,051016,,,A*63
$GPGGA,013924.000,5413.4225,N,08331.1527,E,1,11,0.9,883.9,M,-37.9,M,,0000*78
$GPGSA,A,3,17,19,28,24,06,01,57,03,22,12,11,,1.5,0.9,1.2*3B
$GPRMC,013924.000,A,5413.4225,N,08331.1527,E,46.52,25.39,051016,,,A*62
$GPGGA,013925.000,5413.4341,N,08331.1621,E,1,11,0.9,882.3,M,-37.9,M,,0000*74
$GPGSA,A,3,17,19,28,24,06,01,57,03,22,12,11,,1.5,0.9,1.2*3B
$GPRMC,013925.000,A,5413.4341,N,08331.1621,E,46.23,24.96,051016,,,A*67
$GPGGA,013926.000,5413.4457,N,08331.1713,E,1,11,0.9,880.9,M,-37.9,M,,0000*7F
$GPGSA,A,3,17,19,28,24,06,01,57,03,22,12,11,,1.5,0.9,1.2*3B
$GPRMC,013926.000,A,5413.4457,N,08331.1713,E,46.04,25.02,051016,,,A*6D
$GPGGA,013927.000,5413.4572,N,08331.1805,E,1,11,0.9,879.4,M,-37.9,M,,0000*7B
$GPGSA,A,3,17,19,28,24,06,01,57,03,22,12,11,,1.5,0.9,1.2*3B
$GPGSV,3,1,12,17,86,071,30,19,68,248,16,28,44,125,36,24,36,293,18*71
$GPGSV,3,2,12,06,29,190,20,01,23,047,32,57,22,111,32,03,21,085,33*71
$GPGSV,3,3,12,22,20,064,29,12,06,300,22,11,06,053,31,02,01,206,14*77
$GPRMC,013927.000,A,5413.4572,N,08331.1805,E,45.91,25.11,051016,,,A*6F
$GPGGA,013928.000,5413.4688,N,08331.1897,E,1,11,0.9,878.0,M,-37.9,M,,0000*7C
$GPGSA,A,3,17,19,28,24,06,01,57,03,22,12,11,,1.5,0.9,1.2*3B
$GPRMC,013928.000,A,5413.4688,N,08331.1897,E,45.94,24.78,051016,,,A*66
$GPGGA,013929.000,5413.4803,N,08331.1985,E,1,11,0.9,876.3,M,-37.9,M,,0000*7F
$GPGSA,A,3,17,19,28,24,06,01,57,03,22,12,11,,1.5,0.9,1.2*3B
$GPRMC,013929.000,A,5413.4803,N,08331.1985,E,45.65,24.64,051016,,,A*6B
$GPGGA,013930.000,5413.4917,N,08331.2074,E,1,11,0.9,874.7,M,-37.9,M,,0000*71
$GPGSA,A,3,17,19,28,24,06,01,57,03,22,12,11,,1.5,0.9,1.2*3B
$GPRMC,013930.000,A,5413.4917,N,08331.2074,E,45.47,24.56,051016,,,A*62
$GPGGA,013931.000,5413.5032,N,08331.2163,E,1,11,0.9,873.3,M,-37.9,M,,0000*7B
$GPGSA,A,3,17,19,28,24,06,01,57,03,22,12,11,,1.5,0.9,1.2*3B
$GPRMC,013931.000,A,5413.5032,N,08331.2163,E,45.49,24.47,051016,,,A*65
$GPGGA,013932.000,5413.5146,N,08331.2252,E,1,11,0.9,871.7,M,-37.9,M,,0000*7D
$GPGSA,A,3,17,19,28,24,06,01,57,03,22,12,11,,1.5,0.9,1.2*3B
$GPGSV,3,1,12,17,86,071,30,19,68,248,17,28,44,125,35,24,36,293,17*7C
$GPGSV,3,2,12,06,29,190,19,01,23,047,32,57,22,111,32,03,21,085,32*7A
$GPGSV,3,3,12,22,20,064,29,12,06,300,10,11,06,053,31,02,01,206,04*77
$GPRMC,013932.000,A,5413.5146,N,08331.2252,E,45.52,24.41,051016,,,A*69
$GPGGA,013933.000,5413.5260,N,08331.2338,E,1,11,0.9,869.8,M,-37.9,M,,0000*70
$GPGSA,A,3,17,19,28,24,06,01,57,03,22,12,11,,1.5,0.9,1.2*3B
$GPRMC,013933.000,A,5413.5260,N,08331.2338,E,45.70,24.29,051016,,,A*6C
$GPGGA,013934.000,5413.5376,N,08331.2426,E,1,11,0.9,867.8,M,-37.9,M,,0000*77
$GPGSA,A,3,17,19,28,24,06,01,57,03,22,12,11,,1.5,0.9,1.2*3B
$GPRMC,013934.000,A,5413.5376,N,08331.2426,E,46.28,24.64,051016,,,A*62
$GPGGA,013935.000,5413.5492,N,08331.2518,E,1,11,0.9,865.9,M,-37.9,M,,0000*74
$GPGSA,A,3,17,19,28,24,06,01,57,03,22,12,11,,1.5,0.9,1.2*3B
$GPRMC,013935.000,A,5413.5492,N,08331.2518,E,46.64,25.15,051016,,,A*6D
$GPGGA,013936.000,5413.5608,N,08331.2609,E,1,11,0.9,863.7,M,-37.9,M,,0000*7D
$GPGSA,A,3,17,19,28,24,06,01,57,03,22,12,11,,1.5,0.9,1.2*3B
$GPRMC,013936.000,A,5413.5608,N,08331.2609,E,46.72,25.01,051016,,,A*6E
$GPGGA,013937.000,5413.5726,N,08331.2700,E,1,11,0.9,861.5,M,-37.9,M,,0000*79
$GPGSA,A,3,17,19,28,24,06,01,57,03,22,12,11,,1.5,0.9,1.2*3B
$GPGSV,3,1,12,17,86,071,30,19,68,248,18,28,44,125,35,24,36,293,17*73
$GPGSV,3,2,12,06,29,190,19,01,23,047,32,57,22,111,32,03,21,085,32*7A
$GPGSV,3,3,12,22,20,064,29,12,06,300,21,11,06,053,31,02,01,206,04*75
$GPRMC,013937.000,A,5413.5726,N,08331.2700,E,47.02,25.14,051016,,,A*68
$GPGGA,013938.000,5413.5843,N,08331.2794,E,1,11,0.9,859.2,M,-37.9,M,,0000*7B
$GPGSA,A,3,17,19,28,24,06,01,57,03,22,12,11,,1.5,0.9,1.2*3B
$GPRMC,013938.000,A,5413.5843,N,08331.2794,E,47.24,25.34,051016,,,A*60
$GPGGA,013939.000,5413.5962,N,08331.2890,E,1,11,0.9,857.1,M,-37.9,M,,0000*7E
$GPGSA,A,3,17,19,28,24,06,01,57,03,22,12,11,,1.5,0.9,1.2*3B
$GPRMC,013939.000,A,5413.5962,N,08331.2890,E,47.77,25.48,051016,,,A*65
$GPGGA,013940.000,5413.6082,N,08331.2986,E,1,11,0.9,855.0,M,-37.9,M,,0000*71
$GPGSA,A,3,17,19,28,24,06,01,57,03,22,12,11,,1.5,0.9,1.2*3B
$GPRMC,013940.000,A,5413.6082,N,08331.2986,E,48.08,25.39,051016,,,A*68
$GPGGA,013941.000,5413.6202,N,08331.3083,E,1,11,0.9,852.8,M,-37.9,M,,0000*78
$GPGSA,A,3,17,19,28,24,06,01,57,03,22,12,11,,1.5,0.9,1.2*3B
$GPRMC,013941.000,A,5413.6202,N,08331.3083,E,48.44,25.33,051016,,,A*6C
$GPGGA,013942.000,5413.6324,N,08331.3180,E,1,11,0.9,850.7,M,-37.9,M,,0000*71
$GPGSA,A,3,17,19,28,24,06,01,57,03,22,12,11,,1.5,0.9,1.2*3B
$GPGSV,3,1,12,17,86,071,29,19,68,248,17,28,44,125,35,24,36,293,17*74
$GPGSV,3,2,12,06,29,190,17,01,23,047,32,57,22,111,31,03,21,085,32*77
$GPGSV,3,3,12,22,20,064,30,12,06,300,21,11,06,053,31,02,01,206,12*7A
$GPRMC,013942.000,A,5413.6324,N,08331.3180,E,48.56,25.22,051016,,,A*6B
$GPGGA,013943.000,5413.6446,N,08331.3276,E,1,11,0.9,848.5,M,-37.9,M,,0000*72
$GPGSA,A,3,17,19,28,24,06,01,57,03,22,12,11,,1.5,0.9,1.2*3B
$GPRMC,013943.000,A,5413.6446,N,08331.3276,E,48.56,25.00,051016,,,A*63
$GPGGA,013944.000,5413.6567,N,08331.3371,E,1,11,0.9,846.0,M,-37.9,M,,0000*7A
$GPGSA,A,3,17,19,28,24,06,01,57,03,22,12,11,,1.5,0.9,1.2*3B
$GPRMC,013944.000,A,5413.6567,N,08331.3371,E,48.42,25.17,051016,,,A*63
$GPGGA,013945.000,5413.6688,N,08331.3463,E,1,11,0.9,843.2,M,-37.9,M,,0000*7A
$GPGSA,A,3,17,19,28,24,06,01,57,03,22,12,11,,1.5,0.9,1.2*3B
$GPRMC,013945.000,A,5413.6688,N,08331.3463,E,48.38,25.12,051016,,,A*6C
$GPGGA,013946.000,5413.6809,N,08331.3556,E,1,11,0.9,840.2,M,-37.9,M,,0000*7A
$GPGSA,A,3,17,19,28,24,06,01,57,03,22,12,11,,1.5,0.9,1.2*3B
$GPRMC,013946.000,A,5413.6809,N,08331.3556,E,48.53,25.31,051016,,,A*63
$GPGGA,013947.000,5413.6930,N,08331.3649,E,1,11,0.9,837.0,M,-37.9,M,,0000*7F
$GPGSA,A,3,17,19,28,24,06,01,57,03,22,12,11,,1.5,0.9,1.2*3B
$GPGSV,3,1,12,17,86,071,29,19,68,248,11,28,44,125,35,24,36,293,17*72
$GPGSV,3,2,12,06,29,190,17,01,23,047,32,57,22,111,32,03,21,085,32*74
$GPGSV,3,3,12,22,20,064,31,12,06,300,21,11,06,053,31,32,04,357,16*7C
$GPRMC,013947.000,A,5413.6930,N,08331.3649,E,48.53,25.33,051016,,,A*66
$GPGGA,013948.000,5413.7050,N,08331.3740,E,1,11,0.9,833.6,M,-37.9,M,,0000*74
$GPGSA,A,3,17,19,28,24,06,01,57,03,22,12,11,,1.5,0.9,1.2*3B
$GPRMC,013948.000,A,5413.7050,N,08331.3740,E,48.54,25.16,051016,,,A*6F
$GPGGA,013949.000,5413.7171,N,08331.3829,E,1,11,0.9,829.9,M,-37.9,M,,0000*73
$GPGSA,A,3,17,19,28,24,06,01,57,03,22,12,11,,1.5,0.9,1.2*3B
$GPRMC,013949.000,A,5413.7171,N,08331.3829,E,48.32,25.03,051016,,,A*68
$GPGGA,013950.000,5413.7291,N,08331.3920,E,1,11,0.9,826.2,M,-37.9,M,,0000*7A
$GPGSA,A,3,17,19,28,24,06,01,57,03,22,12,11,,1.5,0.9,1.2*3B
$GPRMC,013950.000,A,5413.7291,N,08331.3920,E,48.17,25.26,051016,,,A*65
$GPGGA,013951.000,5413.7410,N,08331.4005,E,1,11,0.9,821.7,M,-37.9,M,,0000*7F
$GPGSA,A,3,17,19,28,24,06,01,57,03,22,12,11,,1.5,0.9,1.2*3B
$GPRMC,013951.000,A,5413.7410,N,08331.4005,E,47.86,24.87,051016,,,A*6F
$GPGGA,013952.000,5413.7529,N,08331.4093,E,1,11,0.9,817.7,M,-37.9,M,,0000*7D
$GPGSA,A,3,17,19,28,24,06,01,57,03,22,12,11,,1.5,0.9,1.2*3B
$GPGSV,3,1,12,17,86,071,29,19,68,248,15,28,44,125,35,24,36,293,16*77
$GPGSV,3,2,12,06,29,190,18,01,23,047,33,57,22,111,32,03,21,085,31*79
$GPGSV,3,3,12,22,20,064,31,12,06,300,20,11,06,053,32,32,04,357,13*7B
$GPRMC,013952.000,A,5413.7529,N,08331.4093,E,47.75,24.79,051016,,,A*65
$GPGGA,013953.000,5413.7648,N,08331.4176,E,1,11,0.9,813.1,M,-37.9,M,,0000*70
$GPGSA,A,3,17,19,28,24,06,01,57,03,22,12,11,,1.5,0.9,1.2*3B
$GPRMC,013953.000,A,5413.7648,N,08331.4176,E,47.47,24.56,051016,,,A*66
$GPGGA,013954.000,5413.7766,N,08331.4263,E,1,11,0.9,809.0,M,-37.9,M,,0000*77
$GPGSA,A,3,17,19,28,24,06,01,57,03,22,12,11,,1.5,0.9,1.2*3B
$GPRMC,013954.000,A,5413.7766,N,08331.4263,E,47.44,24.72,051016,,,A*6E
$GPGGA,013955.000,5413.7885,N,08331.4353,E,1,11,0.9,805.3,M,-37.9,M,,0000*79
$GPGSA,A,3,17,19,28,24,06,01,57,03,22,12,11,,1.5,0.9,1.2*3B
$GPRMC,013955.000,A,5413.7885,N,08331.4353,E,47.56,24.87,051016,,,A*66
$GPGGA,013956.000,5413.8004,N,08331.4443,E,1,10,0.9,801.5,M,-37.9,M,,0000*71
$GPGSA,A,3,17,28,24,06,01,57,03,22,12,11,,,1.7,0.9,1.4*37
$GPRMC,013956.000,A,5413.8004,N,08331.4443,E,47.50,24.96,051016,,,A*6B
$GPGGA,013957.000,5413.8123,N,08331.4533,E,1,10,0.9,797.6,M,-37.9,M,,0000*71
$GPGSA,A,3,17,28,24,06,01,57,03,22,12,11,,,1.7,0.9,1.4*37
$GPGSV,3,1,12,17,86,071,29,28,44,125,35,24,36,293,16,06,29,190,19*76
$GPGSV,3,2,12,01,23,047,33,57,22,111,32,03,21,085,32,22,20,064,32*77
$GPGSV,3,3,12,12,06,300,20,11,06,053,32,19,68,248,04,32,04,357,16*70
$GPRMC,013957.000,A,5413.8123,N,08331.4533,E,47.57,24.91,051016,,,A*68
$GPGGA,013958.000,5413.8242,N,08331.4626,E,1,11,0.9,793.9,M,-37.9,M,,0000*77
$GPGSA,A,3,17,19,28,24,06,01,57,03,22,12,11,,1.5,0.9,1.3*3A
$GPRMC,013958.000,A,5413.8242,N,08331.4626,E,47.87,25.05,051016,,,A*65
$GPGGA,013959.000,5413.8362,N,08331.4719,E,1,11,0.9,790.2,M,-37.9,M,,0000*70
$GPGSA,A,3,17,19,28,24,06,01,57,03,22,12,11,,1.5,0.9,1.3*3A
$GPRMC,013959.000,A,5413.8362,N,08331.4719,E,48.04,25.12,051016,,,A*68
$GPGGA,014000.000,5413.8482,N,08331.4813,E,1,11,0.9,786.5,M,-37.9,M,,0000*7E
$GPGSA,A,3,17,19,28,24,06,01,57,03,22,12,11,,1.5,0.9,1.3*3A
