$GPGSA,A,3,02,25,12,06,05,29,09,19,31,23,,,1.7,0.9,1.5*35
$GPRMC,050830.000,A,5410.4676,N,08326.6640,E,0.00,151.08,061016,,,A*65
$GPGGA,050831.000,5410.4676,N,08326.6640,E,1,10,0.9,246.9,M,-37.9,M,,0000*7A
$GPGSA,A,3,02,25,12,06,05,29,09,19,31,23,,,1.7,0.9,1.5*35
$GPRMC,050831.000,A,5410.4676,N,08326.6640,E,0.00,151.08,061016,,,A*64
$GPGGA,050832.000,5410.4676,N,08326.6640,E,1,10,0.9,246.9,M,-37.9,M,,0000*79
$GPGSA,A,3,02,25,12,06,05,29,09,19,31,23,,,1.7,0.9,1.5*35
$GPGSV,3,1,11,02,81,090,29,25,48,277,27,12,47,214,27,06,40,071,36*7D
$GPGSV,3,2,11,05,36,176,29,29,28,294,25,09,17,062,29,19,15,115,29*78
$GPGSV,3,3,11,31,12,323,23,23,12,031,15,57,48,100,38*4B
$GPRMC,050832.000,A,5410.4676,N,08326.6640,E,0.00,151.08,061016,,,A*67
$GPGGA,050833.000,5410.4677,N,08326.6640,E,1,10,0.9,246.9,M,-37.9,M,,0000*79
$GPGSA,A,3,02,25,12,06,05,29,09,19,31,23,,,1.7,0.9,1.5*35
$GPRMC,050833.000,A,5410.4677,N,08326.6640,E,0.00,151.08,061016,,,A*67
$GPGGA,050834.000,5410.4677,N,08326.6640,E,1,09,0.9,246.9,M,-37.9,M,,0000*76
$GPGSA,A,3,02,25,12,06,05,29,09,19,31,,,,1.8,0.9,1.5*3B
$GPRMC,050834.000,A,5410.4677,N,08326.6640,E,0.00,151.08,061016,,,A*60
$GPGGA,050835.000,5410.4677,N,08326.6640,E,1,09,0.9,246.9,M,-37.9,M,,0000*77
$GPGSA,A,3,02,25,12,06,05,29,09,19,31,,,,1.8,0.9,1.5*3B
$GPRMC,050835.000,A,5410.4677,N,08326.6640,E,0.00,151.08,061016,,,A*61
$GPGGA,050836.000,5410.4677,N,08326.6640,E,1,09,0.9,246.9,M,-37.9,M,,0000*74
$GPGSA,A,3,02,25,12,06,05,29,09,19,31,,,,1.8,0.9,1.5*3B
$GPRMC,050836.000,A,5410.4677,N,08326.6640,E,0.00,151.08,061016,,,A*62
$GPGGA,050837.000,5410.4677,N,08326.6640,E,1,09,0.9,246.9,M,-37.9,M,,0000*75
$GPGSA,A,3,02,25,12,06,05,29,09,19,31,,,,1.8,0.9,1.5*3B
$GPGSV,3,1,11,02,81,090,29,25,48,277,27,12,47,214,27,06,40,071,36*7D
$GPGSV,3,2,11,05,36,176,29,29,28,294,17,09,17,062,29,19,15,115,30*71
$GPGSV,3,3,11,31,12,323,24,23,12,031,04,57,48,100,38*4C
$GPRMC,050837.000,A,5410.4677,N,08326.6640,E,0.00,151.08,061016,,,A*63
$GPGGA,050838.000,5410.4677,N,08326.6640,E,1,09,0.9,246.9,M,-37.9,M,,0000*7A
$GPGSA,A,3,02,25,12,06,05,29,09,19,31,,,,1.8,0.9,1.5*3B
$GPRMC,050838.000,A,5410.4677,N,08326.6640,E,0.00,151.08,061016,,,A*6C
$GPGGA,050839.000,5410.4677,N,08326.6640,E,1,09,0.9,246.9,M,-37.9,M,,0000*7B
$GPGSA,A,3,02,25,12,06,05,29,09,19,31,,,,1.8,0.9,1.5*3B
$GPRMC,050839.000,A,5410.4677,N,08326.6640,E,0.00,151.08,061016,,,A*6D
$GPGGA,050840.000,5410.4677,N,08326.6640,E,1,10,0.9,246.9,M,-37.9,M,,0000*7D
$GPGSA,A,3,02,25,12,06,05,29,09,19,31,23,,,1.7,0.9,1.5*35
$GPRMC,050840.000,A,5410.4677,N,08326.6640,E,0.00,151.08,061016,,,A*63
$GPGGA,050841.000,5410.4677,N,08326.6640,E,1,10,0.9,246.9,M,-37.9,M,,0000*7C
$GPGSA,A,3,02,25,12,06,05,29,09,19,31,23,,,1.7,0.9,1.5*35
$GPRMC,050841.000,A,5410.4677,N,08326.6640,E,0.00,151.08,061016,,,A*62
$GPGGA,050842.000,5410.4677,N,08326.6640,E,1,10,0.9,246.9,M,-37.9,M,,0000*7F
$GPGSA,A,3,02,25,12,06,05,29,09,19,31,23,,,1.7,0.9,1.5*35
$GPGSV,3,1,11,02,81,090,29,25,48,277,27,12,47,214,27,06,40,071,36*7D
$GPGSV,3,2,11,05,36,176,29,29,28,294,19,09,17,062,30,19,15,115,30*77
$GPGSV,3,3,11,31,12,323,25,23,12,031,11,57,48,100,38*49
$GPRMC,050842.000,A,5410.4677,N,08326.6640,E,0.00,151.08,061016,,,A*61
$GPGGA,050843.000,5410.4677,N,08326.6640,E,1,10,0.9,246.9,M,-37.9,M,,0000*7E
$GPGSA,A,3,02,25,12,06,05,29,09,19,31,23,,,1.7,0.9,1.5*35
$GPRMC,050843.000,A,5410.4677,N,08326.6640,E,0.00,151.08,061016,,,A*60
$GPGGA,050844.000,5410.4677,N,08326.6640,E,1,10,0.9,246.9,M,-37.9,M,,0000*79
$GPGSA,A,3,02,25,12,06,05,29,09,19,31,23,,,1.7,0.9,1.5*35
$GPRMC,050844.000,A,5410.4677,N,08326.6640,E,0.00,151.08,061016,,,A*67
$GPGGA,050845.000,5410.4677,N,08326.6640,E,1,10,0.9,246.9,M,-37.9,M,,0000*78
$GPGSA,A,3,02,25,12,06,05,29,09,19,31,23,,,1.7,0.9,1.5*35
$GPRMC,050845.000,A,5410.4677,N,08326.6640,E,0.00,151.08,061016,,,A*66
$GPGGA,050846.000,5410.4677,N,08326.6640,E,1,10,0.9,246.9,M,-37.9,M,,0000*7B
$GPGSA,A,3,02,25,12,06,05,29,09,19,31,23,,,1.7,0.9,1.5*35
$GPRMC,050846.000,A,5410.4677,N,08326.6640,E,0.00,151.08,061016,,,A*65
$GPGGA,050847.000,5410.4677,N,08326.6640,E,1,10,0.9,246.8,M,-37.9,M,,0000*7B
$GPGSA,A,3,02,25,12,06,05,29,09,19,31,23,,,1.7,0.9,1.5*35
$GPGSV,3,1,11,02,81,090,29,25,48,277,27,12,47,214,23,06,40,071,36*79
$GPGSV,3,2,11,05,36,176,30,29,28,294,21,09,17,062,30,19,15,115,30*74
$GPGSV,3,3,11,31,12,323,31,23,12,031,11,57,48,100,38*4C
$GPRMC,050847.000,A,5410.4677,N,08326.6640,E,0.00,151.08,061016,,,A*64
$GPGGA,050848.000,5410.4677,N,08326.6640,E,1,10,0.9,246.8,M,-37.9,M,,0000*74
$GPGSA,A,3,02,25,12,06,05,29,09,19,31,23,,,1.7,0.9,1.5*35
$GPRMC,050848.000,A,5410.4677,N,08326.6640,E,0.00,151.08,061016,,,A*6B
$GPGGA,050849.000,5410.4677,N,08326.6640,E,1,10,0.9,246.8,M,-37.9,M,,0000*75
$GPGSA,A,3,02,25,12,06,05,29,09,19,31,23,,,1.7,0.9,1.5*35
$GPRMC,050849.000,A,5410.4677,N,08326.6640,E,0.00,151.08,061016,,,A*6A
$GPGGA,050850.000,5410.4677,N,08326.6640,E,1,10,0.9,246.8,M,-37.9,M,,0000*7D
$GPGSA,A,3,02,25,12,06,05,29,09,19,31,23,,,1.7,0.9,1.5*35
$GPRMC,050850.000,A,5410.4677,N,08326.6640,E,0.00,151.08,061016,,,A*62
$GPGGA,050851.000,5410.4677,N,08326.6640,E,1,10,0.9,246.8,M,-37.9,M,,0000*7C
$GPGSA,A,3,02,25,12,06,05,29,09,19,31,23,,,1.7,0.9,1.5*35
$GPRMC,050851.000,A,5410.4677,N,08326.6640,E,0.00,151.08,061016,,,A*63
$GPGGA,050852.000,5410.4677,N,08326.6640,E,1,10,0.9,246.8,M,-37.9,M,,0000*7F
$GPGSA,A,3,02,25,12,06,05,29,09,19,31,23,,,1.7,0.9,1.5*35
$GPGSV,3,1,11,02,81,090,29,25,48,277,25,12,47,214,26,06,40,071,36*7E
$GPGSV,3,2,11,05,36,176,31,29,28,294,26,09,17,062,30,19,15,115,30*72
$GPGSV,3,3,11,31,12,323,27,23,12,031,12,57,48,100,37*47
$GPRMC,050852.000,A,5410.4677,N,08326.6640,E,0.00,151.08,061016,,,A*60
$GPGGA,050853.000,5410.4677,N,08326.6640,E,1,10,0.9,246.8,M,-37.9,M,,0000*7E
$GPGSA,A,3,02,25,12,06,05,29,09,19,31,23,,,1.7,0.9,1.5*35
$GPRMC,050853.000,A,5410.4677,N,08326.6640,E,0.00,151.08,061016,,,A*61
$GPGGA,050854.000,5410.4677,N,08326.6640,E,1,10,0.9,246.8,M,-37.9,M,,0000*79
$GPGSA,A,3,02,25,12,06,05,29,09,19,31,23,,,1.7,0.9,1.5*35
$GPRMC,050854.000,A,5410.4677,N,08326.6640,E,0.00,151.08,061016,,,A*66
$GPGGA,050855.000,5410.4677,N,08326.6640,E,1,10,0.9,246.8,M,-37.9,M,,0000*78
$GPGSA,A,3,02,25,12,06,05,29,09,19,31,23,,,1.7,0.9,1.5*35
$GPRMC,050855.000,A,5410.4677,N,08326.6640,E,0.00,151.08,061016,,,A*67
$GPGGA,050856.000,5410.4677,N,08326.6640,E,1,10,0.9,246.8,M,-37.9,M,,0000*7B
$GPGSA,A,3,02,25,12,06,05,29,09,19,31,23,,,1.7,0.9,1.5*35
$GPRMC,050856.000,A,5410.4677,N,08326.6640,E,0.00,151.08,061016,,,A*64
$GPGGA,050857.000,5410.4677,N,08326.6639,E,1,10,0.9,246.8,M,-37.9,M,,0000*74
$GPGSA,A,3,02,25,12,06,05,29,09,19,31,23,,,1.7,0.9,1.5*35
$GPGSV,3,1,11,02,81,090,29,25,48,277,25,12,47,214,28,06,40,071,37*71
$GPGSV,3,2,11,05,36,176,33,29,28,294,26,09,17,062,31,19,15,115,30*71
$GPGSV,3,3,11,31,12,323,27,23,12,031,11,57,48,100,37*44
$GPRMC,050857.000,A,5410.4677,N,08326.6639,E,0.00,151.08,061016,,,A*6B
$GPGGA,050858.000,5410.4677,N,08326.6639,E,1,10,0.9,246.8,M,-37.9,M,,0000*7B
$GPGSA,A,3,02,25,12,06,05,29,09,19,31,23,,,1.7,0.9,1.5*35
$GPRMC,050858.000,A,5410.4677,N,08326.6639,E,0.00,151.08,061016,,,A*64
$GPGGA,050859.000,5410.4677,N,08326.6639,E,1,10,0.9,246.8,M,-37.9,M,,0000*7A
$GPGSA,A,3,02,25,12,06,05,29,09,19,31,23,,,1.7,0.9,1.5*35
$GPRMC,050859.000,A,5410.4677,N,08326.6639,E,0.00,151.08,061016,,,A*65
$GPGGA,050900.000,5410.4677,N,08326.6639,E,1,10,0.9,246.8,M,-37.9,M,,0000*77
$GPGSA,A,3,02,25,12,06,05,29,09,19,31,23,,,1.7,0.9,1.5*35
$GPRMC,050900.000,A,5410.4677,N,08326.6639,E,0.00,151.08,061016,,,A*68
$GPGGA,050901.000,5410.4677,N,08326.6639,E,1,10,0.9,246.8,M,-37.9,M,,0000*76
$GPGSA,A,3,02,25,12,06,05,29,09,19,31,23,,,1.7,0.9,1.5*35
$GPRMC,050901.000,A,5410.4677,N,08326.6639,E,0.00,151.08,061016,,,A*69
$GPGGA,050902.000,5410.4677,N,08326.6639,E,1,10,0.9,246.8,M,-37.9,M,,0000*75
$GPGSA,A,3,02,25,12,06,05,29,09,19,31,23,,,1.7,0.9,1.5*35
$GPGSV,3,1,11,02,81,089,29,25,48,277,25,12,47,214,28,06,40,071,37*79
$GPGSV,3,2,11,05,36,176,34,29,29,294,25,09,18,062,32,19,15,115,31*79
$GPGSV,3,3,11,31,12,323,27,23,12,031,09,57,48,100,37*4D
$GPRMC,050902.000,A,5410.4677,N,08326.6639,E,0.00,151.08,061016,,,A*6A
$GPGGA,050903.000,5410.4677,N,08326.6639,E,1,09,0.9,246.8,M,-37.9,M,,0000*7C
$GPGSA,A,3,02,25,12,06,05,29,09,19,31,,,,1.8,0.9,1.5*3B
$GPRMC,050903.000,A,5410.4677,N,08326.6639,E,0.00,151.08,061016,,,A*6B
$GPGGA,050904.000,5410.4677,N,08326.6639,E,1,09,0.9,246.8,M,-37.9,M,,0000*7B
$GPGSA,A,3,02,25,12,06,05,29,09,19,31,,,,1.8,0.9,1.5*3B
$GPRMC,050904.000,A,5410.4677,N,08326.6639,E,0.00,151.08,061016,,,A*6C
$GPGGA,050905.000,5410.4677,N,08326.6639,E,1,10,0.9,246.8,M,-37.9,M,,0000*72
$GPGSA,A,3,02,25,12,06,05,29,09,19,31,23,,,1.7,0.9,1.5*35
$GPRMC,050905.000,A,5410.4677,N,08326.6639,E,0.00,151.08,061016,,,A*6D
$GPGGA,050906.000,5410.4677,N,08326.6639,E,1,10,0.9,246.8,M,-37.9,M,,0000*71
$GPGSA,A,3,02,25,12,06,05,29,09,19,31,23,,,1.7,0.9,1.5*35
$GPRMC,050906.000,A,5410.4677,N,08326.6639,E,0.00,151.08,061016,,,A*6E
$GPGGA,050907.000,5410.4677,N,08326.6639,E,1,10,0.9,246.8,M,-37.9,M,,0000*70
$GPGSA,A,3,02,25,12,06,05,29,09,19,31,23,,,1.7,0.9,1.5*35
$GPGSV,3,1,11,02,81,089,28,25,48,277,26,12,47,214,28,06,40,071,37*7B
$GPGSV,3,2,11,05,36,176,35,29,29,294,25,09,18,062,32,19,15,115,31*78
$GPGSV,3,3,11,31,12,323,27,23,12,031,09,57,48,100,37*4D
$GPRMC,050907.000,A,5410.4677,N,08326.6639,E,0.00,151.08,061016,,,A*6F
$GPGGA,050908.000,5410.4677,N,08326.6639,E,1,09,0.9,246.8,M,-37.9,M,,0000*77
$GPGSA,A,3,02,25,12,06,05,29,09,19,31,,,,1.8,0.9,1.5*3B
$GPRMC,050908.000,A,5410.4677,N,08326.6639,E,0.00,151.08,061016,,,A*60
$GPGGA,050909.000,5410.4677,N,08326.6639,E,1,09,0.9,246.8,M,-37.9,M,,0000*76
$GPGSA,A,3,02,25,12,06,05,29,09,19,31,,,,1.8,0.9,1.5*3B
$GPRMC,050909.000,A,5410.4677,N,08326.6639,E,0.00,151.08,061016,,,A*61
$GPGGA,050910.000,5410.4677,N,08326.6639,E,1,09,0.9,246.8,M,-37.9,M,,0000*7E
$GPGSA,A,3,02,25,12,06,05,29,09,19,31,,,,1.8,0.9,1.5*3B
$GPRMC,050910.000,A,5410.4677,N,08326.6639,E,0.00,151.08,061016,,,A*69
$GPGGA,050911.000,5410.4677,N,08326.6639,E,1,09,0.9,246.8,M,-37.9,M,,0000*7F
$GPGSA,A,3,02,25,12,06,05,29,09,19,31,,,,1.8,0.9,1.5*3B
$GPRMC,050911.000,A,5410.4677,N,08326.6639,E,0.00,151.08,061016,,,A*68
$GPGGA,050912.000,5410.4677,N,08326.6639,E,1,09,0.9,246.8,M,-37.9,M,,0000*7C
$GPGSA,A,3,02,25,12,06,05,29,09,19,31,,,,1.8,0.9,1.5*3B
$GPGSV,3,1,11,02,81,089,28,25,48,277,26,12,47,214,28,06,40,071,37*7B
$GPGSV,3,2,11,05,36,176,35,29,29,294,25,09,18,062,31,19,15,115,32*78
$GPGSV,3,3,11,31,12,323,28,57,48,100,36,23,12,031,*4A
$GPRMC,050912.000,A,5410.4677,N,08326.6639,E,0.00,151.08,061016,,,A*6B
$GPGGA,050913.000,5410.4677,N,08326.6639,E,1,09,0.9,246.8,M,-37.9,M,,0000*7D
$GPGSA,A,3,02,25,12,06,05,29,09,19,31,,,,1.8,0.9,1.5*3B
$GPRMC,050913.000,A,5410.4677,N,08326.6639,E,0.00,151.08,061016,,,A*6A
$GPGGA,050914.000,5410.4677,N,08326.6639,E,1,09,0.9,246.8,M,-37.9,M,,0000*7A
$GPGSA,A,3,02,25,12,06,05,29,09,19,31,,,,1.8,0.9,1.5*3B
$GPRMC,050914.000,A,5410.4677,N,08326.6639,E,0.00,151.08,061016,,,A*6D
$GPGGA,050915.000,5410.4677,N,08326.6639,E,1,09,0.9,246.8,M,-37.9,M,,0000*7B
$GPGSA,A,3,02,25,12,06,05,29,09,19,31,,,,1.8,0.9,1.5*3B
$GPRMC,050915.000,A,5410.4677,N,08326.6639,E,0.00,151.08,061016,,,A*6C
$GPGGA,050916.000,5410.4677,N,08326.6639,E,1,09,0.9,246.8,M,-37.9,M,,0000*78
$GPGSA,A,3,02,25,12,06,05,29,09,19,31,,,,1.8,0.9,1.5*3B
$GPRMC,050916.000,A,5410.4677,N,08326.6639,E,0.00,151.08,061016,,,A*6F
$GPGGA,050917.000,5410.4677,N,08326.6639,E,1,09,0.9,246.8,M,-37.9,M,,0000*79
$GPGSA,A,3,02,25,12,06,05,29,09,19,31,,,,1.8,0.9,1.5*3B
$GPGSV,3,1,11,02,81,089,28,25,48,277,26,12,47,214,28,06,40,071,37*7B
$GPGSV,3,2,11,05,36,176,36,29,29,294,26,09,18,062,31,19,15,115,33*79
$GPGSV,3,3,11,31,12,323,28,57,48,100,36,23,12,031,*4A
$GPRMC,050917.000,A,5410.4677,N,08326.6639,E,0.00,151.08,061016,,,A*6E
$GPGGA,050918.000,5410.4677,N,08326.6639,E,1,09,0.9,246.8,M,-37.9,M,,0000*76
$GPGSA,A,3,02,25,12,06,05,29,09,19,31,,,,1.8,0.9,1.5*3B
$GPRMC,050918.000,A,5410.4677,N,08326.6639,E,0.00,151.08,061016,,,A*61
$GPGGA,050919.000,5410.4677,N,08326.6639,E,1,09,0.9,246.8,M,-37.9,M,,0000*77
$GPGSA,A,3,02,25,12,06,05,29,09,19,31,,,,1.8,0.9,1.5*3B
$GPRMC,050919.000,A,5410.4677,N,08326.6639,E,0.00,151.08,061016,,,A*60
$GPGGA,050920.000,5410.4677,N,08326.6639,E,1,09,0.9,246.8,M,-37.9,M,,0000*7D
$GPGSA,A,3,02,25,12,06,05,29,09,19,31,,,,1.8,0.9,1.5*3B
$GPRMC,050920.000,A,5410.4677,N,08326.6639,E,0.00,151.08,061016,,,A*6A
$GPGGA,050921.000,5410.4677,N,08326.6639,E,1,09,0.9,246.8,M,-37.9,M,,0000*7C
$GPGSA,A,3,02,25,12,06,05,29,09,19,31,,,,1.8,0.9,1.5*3B
$GPRMC,050921.000,A,5410.4677,N,08326.6639,E,0.00,151.08,061016,,,A*6B
$GPGGA,050922.000,5410.4677,N,08326.6639,E,1,09,0.9,246.8,M,-37.9,M,,0000*7F
$GPGSA,A,3,02,25,12,06,05,29,09,19,31,,,,1.8,0.9,1.5*3B
$GPGSV,3,1,11,02,81,089,28,25,48,277,25,12,47,214,29,06,40,071,37*79
$GPGSV,3,2,11,05,36,176,36,29,29,294,26,09,18,062,31,19,15,115,34*7E
$GPGSV,3,3,11,31,12,323,29,57,48,100,36,23,12,031,*4B
$GPRMC,050922.000,A,5410.4677,N,08326.6639,E,0.00,151.08,061016,,,A*68
$GPGGA,050923.000,5410.4677,N,08326.6639,E,1,09,0.9,246.8,M,-37.9,M,,0000*7E
$GPGSA,A,3,02,25,12,06,05,29,09,19,31,,,,1.8,0.9,1.5*3B
$GPRMC,050923.000,A,5410.4677,N,08326.6639,E,0.00,151.08,061016,,,A*69
$GPGGA,050924.000,5410.4677,N,08326.6639,E,1,09,0.9,246.8,M,-37.9,M,,0000*79
$GPGSA,A,3,02,25,12,06,05,29,09,19,31,,,,1.8,0.9,1.5*3B
$GPRMC,050924.000,A,5410.4677,N,08326.6639,E,0.00,151.08,061016,,,A*6E
$GPGGA,050925.000,5410.4677,N,08326.6639,E,1,09,0.9,246.8,M,-37.9,M,,0000*78
$GPGSA,A,3,02,25,12,06,05,29,09,19,31,,,,1.8,0.9,1.5*3B
$GPRMC,050925.000,A,5410.4677,N,08326.6639,E,0.00,151.08,061016,,,A*6F
$GPGGA,050926.000,5410.4677,N,08326.6639,E,1,09,0.9,246.8,M,-37.9,M,,0000*7B
$GPGSA,A,3,02,25,12,06,05,29,09,19,31,,,,1.8,0.9,1.5*3B
$GPRMC,050926.000,A,5410.4677,N,08326.6639,E,0.00,151.08,061016,,,A*6C
$GPGGA,050927.000,5410.4677,N,08326.6639,E,1,09,0.9,246.8,M,-37.9,M,,0000*7A
$GPGSA,A,3,02,25,12,06,05,29,09,19,31,,,,1.8,0.9,1.5*3B
$GPGSV,3,1,11,02,81,089,28,25,48,277,25,12,47,214,29,06,40,071,37*79
$GPGSV,3,2,11,05,36,176,36,29,29,294,26,09,18,062,31,19,15,115,34*7E
$GPGSV,3,3,11,31,12,323,29,57,48,100,36,23,12,031,*4B
$GPRMC,050927.000,A,5410.4677,N,08326.6639,E,0.00,151.08,061016,,,A*6D
$GPGGA,050928.000,5410.4677,N,08326.6639,E,1,09,0.9,246.8,M,-37.9,M,,0000*75
$GPGSA,A,3,02,25,12,06,05,29,09,19,31,,,,1.8,0.9,1.5*3B
$GPRMC,050928.000,A,5410.4677,N,08326.6639,E,0.00,151.08,061016,,,A*62
$GPGGA,050929.000,5410.4677,N,08326.6639,E,1,09,0.9,246.8,M,-37.9,M,,0000*74
$GPGSA,A,3,02,25,12,06,05,29,09,19,31,,,,1.8,0.9,1.5*3B
$GPRMC,050929.000,A,5410.4677,N,08326.6639,E,0.00,151.08,061016,,,A*63
$GPGGA,050930.000,5410.4677,N,08326.6639,E,1,09,0.9,246.8,M,-37.9,M,,0000*7C
$GPGSA,A,3,02,25,12,06,05,29,09,19,31,,,,1.8,0.9,1.5*3B
$GPRMC,050930.000,A,5410.4677,N,08326.6639,E,0.00,151.08,061016,,,A*6B
$GPGGA,050931.000,5410.4677,N,08326.6639,E,1,09,0.9,246.8,M,-37.9,M,,0000*7D
$GPGSA,A,3,02,25,12,06,05,29,09,19,31,,,,1.8,0.9,1.5*3B
$GPRMC,050931.000,A,5410.4677,N,08326.6639,E,0.00,151.08,061016,,,A*6A
$GPGGA,050932.000,5410.4677,N,08326.6639,E,1,09,0.9,246.8,M,-37.9,M,,0000*7E
$GPGSA,A,3,02,25,12,06,05,29,09,19,31,,,,1.8,0.9,1.5*3B
$GPGSV,3,1,11,02,81,089,28,25,48,276,25,12,47,213,28,06,40,071,36*7F
$GPGSV,3,2,11,05,37,176,36,29,29,294,26,09,18,061,31,19,14,115,33*7A
$GPGSV,3,3,11,31,12,323,28,57,48,100,36,23,12,031,*4A
$GPRMC,050932.000,A,5410.4677,N,08326.6639,E,0.00,151.08,061016,,,A*69
$GPGGA,050933.000,5410.4677,N,08326.6639,E,1,09,0.9,246.8,M,-37.9,M,,0000*7F
$GPGSA,A,3,02,25,12,06,05,29,09,19,31,,,,1.8,0.9,1.5*3B
$GPRMC,050933.000,A,5410.4677,N,08326.6639,E,0.00,151.08,061016,,,A*68
$GPGGA,050934.000,5410.4677,N,08326.6639,E,1,09,0.9,246.8,M,-37.9,M,,0000*78
$GPGSA,A,3,02,25,12,06,05,29,09,19,31,,,,1.8,0.9,1.5*3B
$GPRMC,050934.000,A,5410.4677,N,08326.6639,E,0.00,151.08,061016,,,A*6F
$GPGGA,050935.000,5410.4677,N,08326.6639,E,1,09,0.9,246.8,M,-37.9,M,,0000*79
$GPGSA,A,3,02,25,12,06,05,29,09,19,31,,,,1.8,0.9,1.5*3B
$GPRMC,050935.000,A,5410.4677,N,08326.6639,E,0.00,151.08,061016,,,A*6E
$GPGGA,050936.000,5410.4677,N,08326.6639,E,1,09,0.9,246.8,M,-37.9,M,,0000*7A
$GPGSA,A,3,02,25,12,06,05,29,09,19,31,,,,1.8,0.9,1.5*3B
$GPRMC,050936.000,A,5410.4677,N,08326.6639,E,0.00,151.08,061016,,,A*6D
$GPGGA,050937.000,5410.4677,N,08326.6639,E,1,09,0.9,246.8,M,-37.9,M,,0000*7B
$GPGSA,A,3,02,25,12,06,05,29,09,19,31,,,,1.8,0.9,1.5*3B
$GPGSV,3,1,11,02,81,089,28,25,48,276,24,12,47,213,27,06,40,071,35*72
$GPGSV,3,2,11,05,37,176,36,29,29,294,25,09,18,061,31,19,14,115,33*79
$GPGSV,3,3,11,31,12,323,28,57,48,100,37,23,12,031,*4B
$GPRMC,050937.000,A,5410.4677,N,08326.6639,E,0.00,151.08,061016,,,A*6C
$GPGGA,050938.000,5410.4677,N,08326.6639,E,1,09,0.9,246.8,M,-37.9,M,,0000*74
$GPGSA,A,3,02,25,12,06,05,29,09,19,31,,,,1.8,0.9,1.5*3B
$GPRMC,050938.000,A,5410.4677,N,08326.6639,E,0.00,151.08,061016,,,A*63
$GPGGA,050939.000,5410.4677,N,08326.6639,E,1,09,0.9,246.8,M,-37.9,M,,0000*75
$GPGSA,A,3,02,25,12,06,05,29,09,19,31,,,,1.8,0.9,1.5*3B
$GPRMC,050939.000,A,5410.4677,N,08326.6639,E,0.00,151.08,061016,,,A*62
$GPGGA,050940.000,5410.4677,N,08326.6639,E,1,09,0.9,246.8,M,-37.9,M,,0000*7B
$GPGSA,A,3,02,25,12,06,05,29,09,19,31,,,,1.8,0.9,1.5*3B
$GPRMC,050940.000,A,5410.4677,N,08326.6639,E,0.00,151.08,061016,,,A*6C
$GPGGA,050941.000,5410.4677,N,08326.6639,E,1,09,0.9,246.8,M,-37.9,M,,0000*7A
$GPGSA,A,3,02,25,12,06,05,29,09,19,31,,,,1.8,0.9,1.5*3B
$GPRMC,050941.000,A,5410.4677,N,08326.6639,E,0.00,151.08,061016,,,A*6D
$GPGGA,050942.000,5410.4677,N,08326.6639,E,1,09,0.9,246.8,M,-37.9,M,,0000*79
$GPGSA,A,3,02,25,12,06,05,29,09,19,31,,,,1.8,0.9,1.5*3B
$GPGSV,3,1,11,02,81,089,28,25,48,276,24,12,47,213,27,06,40,071,35*72
$GPGSV,3,2,11,05,37,176,36,29,29,294,25,09,18,061,32,19,14,115,33*7A
$GPGSV,3,3,11,31,12,323,28,57,48,100,37,23,12,031,*4B
$GPRMC,050942.000,A,5410.4677,N,08326.6639,E,0.00,151.08,061016,,,A*6E
$GPGGA,050943.000,5410.4677,N,08326.6639,E,1,09,0.9,246.8,M,-37.9,M,,0000*78
$GPGSA,A,3,02,25,12,06,05,29,09,19,31,,,,1.8,0.9,1.5*3B
$GPRMC,050943.000,A,5410.4677,N,08326.6639,E,0.00,151.08,061016,,,A*6F
$GPGGA,050944.000,5410.4677,N,08326.6639,E,1,09,0.9,246.8,M,-37.9,M,,0000*7F
$GPGSA,A,3,02,25,12,06,05,29,09,19,31,,,,1.8,0.9,1.5*3B
$GPRMC,050944.000,A,5410.4677,N,08326.6639,E,0.00,151.08,061016,,,A*68
$GPGGA,050945.000,5410.4677,N,08326.6639,E,1,09,0.9,246.8,M,-37.9,M,,0000*7E
$GPGSA,A,3,02,25,12,06,05,29,09,19,31,,,,1.8,0.9,1.5*3B
$GPRMC,050945.000,A,5410.4677,N,08326.6639,E,0.00,151.08,061016,,,A*69
$GPGGA,050946.000,5410.4677,N,08326.6639,E,1,09,0.9,246.8,M,-37.9,M,,0000*7D
$GPGSA,A,3,02,25,12,06,05,29,09,19,31,,,,1.8,0.9,1.5*3B
$GPRMC,050946.000,A,5410.4677,N,08326.6639,E,0.00,151.08,061016,,,A*6A
$GPGGA,050947.000,5410.4677,N,08326.6639,E,1,09,0.9,246.8,M,-37.9,M,,0000*7C
$GPGSA,A,3,02,25,12,06,05,29,09,19,31,,,,1.8,0.9,1.5*3B
$GPGSV,3,1,11,02,81,089,28,25,48,276,24,12,47,213,27,06,40,071,35*72
$GPGSV,3,2,11,05,37,176,35,29,29,294,25,09,18,061,32,19,14,115,34*7E
$GPGSV,3,3,11,31,12,323,29,23,12,031,19,57,48,100,37*42
$GPRMC,050947.000,A,5410.4677,N,08326.6639,E,0.00,151.08,061016,,,A*6B
$GPGGA,050948.000,5410.4677,N,08326.6639,E,1,10,0.9,246.8,M,-37.9,M,,0000*7B
$GPGSA,A,3,02,25,12,06,05,29,09,19,31,23,,,1.7,0.9,1.5*35
$GPRMC,050948.000,A,5410.4677,N,08326.6639,E,0.00,151.08,061016,,,A*64
$GPGGA,050949.000,5410.4677,N,08326.6639,E,1,10,0.9,246.8,M,-37.9,M,,0000*7A
$GPGSA,A,3,02,25,12,06,05,29,09,19,31,23,,,1.7,0.9,1.5*35
$GPRMC,050949.000,A,5410.4677,N,08326.6639,E,0.00,151.08,061016,,,A*65
$GPGGA,050950.000,5410.4677,N,08326.6639,E,1,10,0.9,246.8,M,-37.9,M,,0000*72
$GPGSA,A,3,02,25,12,06,05,29,09,19,31,23,,,1.7,0.9,1.5*35
$GPRMC,050950.000,A,5410.4677,N,08326.6639,E,0.00,151.08,061016,,,A*6D
$GPGGA,050951.000,5410.4677,N,08326.6639,E,1,10,0.9,246.8,M,-37.9,M,,0000*73
$GPGSA,A,3,02,25,12,06,05,29,09,19,31,23,,,1.7,0.9,1.5*35
$GPRMC,050951.000,A,5410.4677,N,08326.6639,E,0.00,151.08,061016,,,A*6C
$GPGGA,050952.000,5410.4677,N,08326.6639,E,1,10,0.9,246.8,M,-37.9,M,,0000*70
$GPGSA,A,3,02,25,12,06,05,29,09,19,31,23,,,1.7,0.9,1.5*35
$GPGSV,3,1,11,02,81,089,28,25,48,276,24,12,47,213,27,06,40,071,35*72
$GPGSV,3,2,11,05,37,176,35,29,29,294,25,09,18,061,32,19,14,115,34*7E
$GPGSV,3,3,11,31,12,323,29,23,12,031,17,57,48,100,37*4C
$GPRMC,050952.000,A,5410.4677,N,08326.6639,E,0.00,151.08,061016,,,A*6F
$GPGGA,050953.000,5410.4677,N,08326.6639,E,1,10,0.9,246.8,M,-37.9,M,,0000*71
$GPGSA,A,3,02,25,12,06,05,29,09,19,31,23,,,1.7,0.9,1.5*35
$GPRMC,050953.000,A,5410.4677,N,08326.6639,E,0.00,151.08,061016,,,A*6E
$GPGGA,050954.000,5410.4677,N,08326.6639,E,1,10,0.9,246.8,M,-37.9,M,,0000*76
$GPGSA,A,3,02,25,12,06,05,29,09,19,31,23,,,1.7,0.9,1.5*35
$GPRMC,050954.000,A,5410.4677,N,08326.6639,E,0.00,151.08,061016,,,A*69
$GPGGA,050955.000,5410.4677,N,08326.6639,E,1,10,0.9,246.8,M,-37.9,M,,0000*77
$GPGSA,A,3,02,25,12,06,05,29,09,19,31,23,,,1.7,0.9,1.5*35
$GPRMC,050955.000,A,5410.4677,N,08326.6639,E,0.00,151.08,061016,,,A*68
$GPGGA,050956.000,5410.4677,N,08326.6639,E,1,10,0.9,246.8,M,-37.9,M,,0000*74
$GPGSA,A,3,02,25,12,06,05,29,09,19,31,23,,,1.7,0.9,1.5*35
$GPRMC,050956.000,A,5410.4677,N,08326.6639,E,0.00,151.08,061016,,,A*6B
$GPGGA,050957.000,5410.4677,N,08326.6638,E,1,10,0.9,246.8,M,-37.9,M,,0000*74
$GPGSA,A,3,02,25,12,06,05,29,09,19,31,23,,,1.7,0.9,1.5*35
$GPGSV,3,1,11,02,81,089,29,25,48,276,24,12,47,213,28,06,40,071,35*7C
$GPGSV,3,2,11,05,37,176,35,29,29,294,25,09,18,061,33,19,14,115,34*7F
$GPGSV,3,3,11,31,12,323,29,23,12,031,15,57,48,100,37*4E
$GPRMC,050957.000,A,5410.4677,N,08326.6638,E,0.00,151.08,061016,,,A*6B
$GPGGA,050958.000,5410.4677,N,08326.6638,E,1,10,0.9,246.8,M,-37.9,M,,0000*7B
$GPGSA,A,3,02,25,12,06,05,29,09,19,31,23,,,1.7,0.9,1.5*35
$GPRMC,050958.000,A,5410.4677,N,08326.6638,E,0.00,151.08,061016,,,A*64
$GPGGA,050959.000,5410.4677,N,08326.6638,E,1,10,0.9,246.8,M,-37.9,M,,0000*7A
$GPGSA,A,3,02,25,12,06,05,29,09,19,31,23,,,1.7,0.9,1.5*35
$GPRMC,050959.000,A,5410.4677,N,08326.6638,E,0.00,151.08,061016,,,A*65
$GPGGA,051000.000,5410.4677,N,08326.6638,E,1,10,0.9,246.8,M,-37.9,M,,0000*7E
$GPGSA,A,3,02,25,12,06,05,29,09,19,31,23,,,1.7,0.9,1.5*35
$GPRMC,051000.000,A,5410.4677,N,08326.6638,E,0.00,151.08,061016,,,A*61