$GPGGA,013000.000,5410.4739,N,08326.6211,E,1,09,1.1,244.6,M,-37.9,M,,0000*71
$GPGSA,A,3,17,19,28,24,06,01,22,03,11,,,,1.9,1.1,1.6*3B
$GPRMC,013000.000,A,5410.4739,N,08326.6211,E,0.00,117.96,061016,,,A*66
$GPGGA,013001.000,5410.4739,N,08326.6211,E,1,07,1.7,244.6,M,-37.9,M,,0000*78
$GPGSA,A,3,17,19,28,06,01,22,11,,,,,,2.5,1.7,1.8*39
$GPRMC,013001.000,A,5410.4739,N,08326.6211,E,0.00,117.96,061016,,,A*67
$GPGGA,013002.000,5410.4739,N,08326.6211,E,1,07,1.7,244.6,M,-37.9,M,,0000*7B
$GPGSA,A,3,17,19,28,06,22,03,11,,,,,,2.4,1.7,1.8*3A
$GPGSV,3,1,12,17,89,081,31,19,66,247,18,28,46,123,39,06,27,190,27*78
$GPGSV,3,2,12,22,20,066,25,03,20,087,24,11,08,053,12,57,20,119,32*73
$GPGSV,3,3,12,24,36,296,,01,25,047,,12,05,299,,32,04,359,*7F
$GPRMC,013002.000,A,5410.4739,N,08326.6211,E,0.00,117.96,061016,,,A*64
$GPGGA,013003.000,5410.4739,N,08326.6211,E,1,07,1.7,244.6,M,-37.9,M,,0000*7A
$GPGSA,A,3,17,19,28,06,22,03,11,,,,,,2.4,1.7,1.8*3A
$GPRMC,013003.000,A,5410.4739,N,08326.6211,E,0.00,117.96,061016,,,A*65
$GPGGA,013004.000,5410.4739,N,08326.6211,E,1,07,1.7,244.6,M,-37.9,M,,0000*7D
$GPGSA,A,3,17,19,28,06,22,03,11,,,,,,2.4,1.7,1.8*3A
$GPRMC,013004.000,A,5410.4739,N,08326.6211,E,0.00,117.96,061016,,,A*62
$GPGGA,013005.000,5410.4739,N,08326.6211,E,1,08,1.6,244.6,M,-37.9,M,,0000*72
$GPGSA,A,3,17,19,28,06,01,22,03,11,,,,,2.4,1.6,1.8*3A
$GPRMC,013005.000,A,5410.4739,N,08326.6211,E,0.00,117.96,061016,,,A*63
$GPGGA,013006.000,5410.4739,N,08326.6211,E,1,08,1.6,244.6,M,-37.9,M,,0000*71
$GPGSA,A,3,17,19,28,06,01,22,03,11,,,,,2.4,1.6,1.8*3A
$GPRMC,013006.000,A,5410.4739,N,08326.6211,E,0.00,117.96,061016,,,A*60
$GPGGA,013007.000,5410.4739,N,08326.6211,E,1,08,1.6,244.6,M,-37.9,M,,0000*70
$GPGSA,A,3,17,19,28,06,01,22,03,11,,,,,2.4,1.6,1.8*3A
$GPGSV,3,1,12,17,89,081,30,19,66,247,19,28,46,123,39,06,27,190,27*78
$GPGSV,3,2,12,01,25,047,23,22,20,066,25,03,20,087,24,11,08,053,13*7E
$GPGSV,3,3,12,24,36,296,14,57,20,119,32,12,05,299,,32,04,359,*77
$GPRMC,013007.000,A,5410.4739,N,08326.6211,E,0.00,117.96,061016,,,A*61
$GPGGA,013008.000,5410.4739,N,08326.6208,E,1,09,1.1,244.5,M,-37.9,M,,0000*72
$GPGSA,A,3,17,19,28,24,06,01,22,03,11,,,,1.9,1.1,1.6*3B
$GPRMC,013008.000,A,5410.4739,N,08326.6208,E,0.25,117.96,061016,,,A*61
$GPGGA,013009.000,5410.4739,N,08326.6206,E,1,09,1.1,244.6,M,-37.9,M,,0000*7E
$GPGSA,A,3,17,19,28,24,06,01,22,03,11,,,,1.9,1.1,1.6*3B
$GPRMC,013009.000,A,5410.4739,N,08326.6206,E,0.15,117.96,061016,,,A*6D
$GPGGA,013010.000,5410.4738,N,08326.6204,E,1,09,1.1,244.4,M,-37.9,M,,0000*77
$GPGSA,A,3,17,19,28,24,06,01,22,03,11,,,,1.9,1.1,1.6*3B
$GPRMC,013010.000,A,5410.4738,N,08326.6204,E,0.05,117.96,061016,,,A*67
$GPGGA,013011.000,5410.4738,N,08326.6203,E,1,09,1.1,244.4,M,-37.9,M,,0000*71
$GPGSA,A,3,17,19,28,24,06,01,22,03,11,,,,1.9,1.1,1.6*3B
$GPRMC,013011.000,A,5410.4738,N,08326.6203,E,0.00,117.96,061016,,,A*64
$GPGGA,013012.000,5410.4738,N,08326.6203,E,1,09,1.1,244.4,M,-37.9,M,,0000*72
$GPGSA,A,3,17,19,28,24,06,01,22,03,11,,,,1.9,1.1,1.6*3B
$GPGSV,3,1,12,17,89,081,30,19,66,247,20,28,46,123,39,24,36,296,21*71
$GPGSV,3,2,12,06,27,190,26,01,25,047,24,22,20,066,25,03,20,087,24*7A
$GPGSV,3,3,12,11,08,053,14,57,20,119,32,12,05,299,,32,04,359,*77
$GPRMC,013012.000,A,5410.4738,N,08326.6203,E,0.00,117.96,061016,,,A*67
$GPGGA,013013.000,5410.4738,N,08326.6203,E,1,09,1.1,244.4,M,-37.9,M,,0000*73
$GPGSA,A,3,17,19,28,24,06,01,22,03,11,,,,1.9,1.1,1.6*3B
$GPRMC,013013.000,A,5410.4738,N,08326.6203,E,0.00,117.96,061016,,,A*66
$GPGGA,013014.000,5410.4738,N,08326.6203,E,1,09,1.1,244.4,M,-37.9,M,,0000*74
$GPGSA,A,3,17,19,28,24,06,01,22,03,11,,,,1.9,1.1,1.6*3B
$GPRMC,013014.000,A,5410.4738,N,08326.6203,E,0.00,117.96,061016,,,A*61
$GPGGA,013015.000,5410.4738,N,08326.6203,E,1,09,1.1,244.4,M,-37.9,M,,0000*75
$GPGSA,A,3,17,19,28,24,06,01,22,03,11,,,,1.9,1.1,1.6*3B
$GPRMC,013015.000,A,5410.4738,N,08326.6203,E,0.00,117.96,061016,,,A*60
$GPGGA,013016.000,5410.4738,N,08326.6203,E,1,09,1.1,244.4,M,-37.9,M,,0000*76
$GPGSA,A,3,17,19,28,24,06,01,22,03,11,,,,1.9,1.1,1.6*3B
$GPRMC,013016.000,A,5410.4738,N,08326.6203,E,0.00,117.96,061016,,,A*63
$GPGGA,013017.000,5410.4738,N,08326.6203,E,1,09,1.1,244.4,M,-37.9,M,,0000*77
$GPGSA,A,3,17,19,28,24,06,01,22,03,11,,,,1.9,1.1,1.6*3B
$GPGSV,3,1,12,17,89,081,30,19,66,247,19,28,46,123,39,24,36,296,21*7B
$GPGSV,3,2,12,06,27,190,26,01,25,047,25,22,20,066,26,03,20,087,23*7F
$GPGSV,3,3,12,11,08,053,15,57,20,119,32,12,05,299,,32,04,359,*76
$GPRMC,013017.000,A,5410.4738,N,08326.6203,E,0.00,117.96,061016,,,A*62
$GPGGA,013018.000,5410.4738,N,08326.6203,E,1,09,1.1,244.4,M,-37.9,M,,0000*78
$GPGSA,A,3,17,19,28,24,06,01,22,03,11,,,,1.9,1.1,1.6*3B
$GPRMC,013018.000,A,5410.4738,N,08326.6203,E,0.00,117.96,061016,,,A*6D
$GPGGA,013019.000,5410.4737,N,08326.6202,E,1,09,1.1,244.4,M,-37.9,M,,0000*77
$GPGSA,A,3,17,19,28,24,06,01,22,03,11,,,,1.9,1.1,1.6*3B
$GPRMC,013019.000,A,5410.4737,N,08326.6202,E,0.06,117.96,061016,,,A*64
$GPGGA,013020.000,5410.4736,N,08326.6201,E,1,09,1.1,244.4,M,-37.9,M,,0000*7F
$GPGSA,A,3,17,19,28,24,06,01,22,03,11,,,,1.9,1.1,1.6*3B
$GPRMC,013020.000,A,5410.4736,N,08326.6201,E,0.13,117.96,061016,,,A*68
$GPGGA,013021.000,5410.4736,N,08326.6201,E,1,09,1.1,244.4,M,-37.9,M,,0000*7E
$GPGSA,A,3,17,19,28,24,06,01,22,03,11,,,,1.9,1.1,1.6*3B
$GPRMC,013021.000,A,5410.4736,N,08326.6201,E,0.00,117.96,061016,,,A*6B
$GPGGA,013022.000,5410.4736,N,08326.6200,E,1,09,1.1,244.4,M,-37.9,M,,0000*7C
$GPGSA,A,3,17,19,28,24,06,01,22,03,11,,,,1.9,1.1,1.6*3B
$GPGSV,3,1,12,17,88,078,30,19,66,247,18,28,46,123,39,24,36,296,22*7E
$GPGSV,3,2,12,06,27,190,26,01,25,047,25,22,20,065,26,03,20,087,24*7B
$GPGSV,3,3,12,11,07,053,15,12,05,299,20,57,20,119,32,32,04,358,*7A
$GPRMC,013022.000,A,5410.4736,N,08326.6200,E,0.00,117.96,061016,,,A*69
$GPGGA,013023.000,5410.4736,N,08326.6200,E,1,09,1.1,244.4,M,-37.9,M,,0000*7D
$GPGSA,A,3,17,19,28,24,06,01,22,03,11,,,,1.9,1.1,1.6*3B
$GPRMC,013023.000,A,5410.4736,N,08326.6200,E,0.00,117.96,061016,,,A*68
$GPGGA,013024.000,5410.4736,N,08326.6200,E,1,09,1.1,244.4,M,-37.9,M,,0000*7A
$GPGSA,A,3,17,19,28,24,06,01,22,03,11,,,,1.9,1.1,1.6*3B
$GPRMC,013024.000,A,5410.4736,N,08326.6200,E,0.00,117.96,061016,,,A*6F
$GPGGA,013025.000,5410.4736,N,08326.6200,E,1,09,1.1,244.4,M,-37.9,M,,0000*7B
$GPGSA,A,3,17,19,28,24,06,01,22,03,11,,,,1.9,1.1,1.6*3B
$GPRMC,013025.000,A,5410.4736,N,08326.6200,E,0.00,117.96,061016,,,A*6E
$GPGGA,013026.000,5410.4736,N,08326.6200,E,1,09,1.1,244.4,M,-37.9,M,,0000*78
$GPGSA,A,3,17,19,28,24,06,01,22,03,11,,,,1.9,1.1,1.6*3B
$GPRMC,013026.000,A,5410.4736,N,08326.6200,E,0.00,117.96,061016,,,A*6D
$GPGGA,013027.000,5410.4736,N,08326.6200,E,1,09,1.1,244.4,M,-37.9,M,,0000*79
$GPGSA,A,3,17,19,28,24,06,01,22,03,11,,,,1.9,1.1,1.6*3B
$GPGSV,3,1,12,17,88,078,30,19,66,247,17,28,46,123,39,24,36,296,22*71
$GPGSV,3,2,12,06,27,190,27,01,25,047,25,22,20,065,26,03,20,087,24*7A
$GPGSV,3,3,12,11,07,053,15,57,20,119,31,12,05,299,,32,04,358,*7B
$GPRMC,013027.000,A,5410.4736,N,08326.6200,E,0.00,117.96,061016,,,A*6C
$GPGGA,013028.000,5410.4736,N,08326.6200,E,1,09,1.1,244.4,M,-37.9,M,,0000*76
$GPGSA,A,3,17,19,28,24,06,01,22,03,11,,,,1.9,1.1,1.6*3B
$GPRMC,013028.000,A,5410.4736,N,08326.6200,E,0.00,117.96,061016,,,A*63
$GPGGA,013029.000,5410.4736,N,08326.6200,E,1,09,1.1,244.4,M,-37.9,M,,0000*77
$GPGSA,A,3,17,19,28,24,06,01,22,03,11,,,,1.9,1.1,1.6*3B
$GPRMC,013029.000,A,5410.4736,N,08326.6200,E,0.00,117.96,061016,,,A*62
$GPGGA,013030.000,5410.4737,N,08326.6201,E,1,09,1.1,244.5,M,-37.9,M,,0000*7E
$GPGSA,A,3,17,19,28,24,06,01,22,03,11,,,,1.9,1.1,1.6*3B
$GPRMC,013030.000,A,5410.4737,N,08326.6201,E,0.20,117.96,061016,,,A*68
$GPGGA,013031.000,5410.4737,N,08326.6200,E,1,09,1.1,244.6,M,-37.9,M,,0000*7D
$GPGSA,A,3,17,19,28,24,06,01,22,03,11,,,,1.9,1.1,1.6*3B
$GPRMC,013031.000,A,5410.4737,N,08326.6200,E,0.31,117.96,061016,,,A*68
$GPGGA,013032.000,5410.4738,N,08326.6201,E,1,08,1.1,244.6,M,-37.9,M,,0000*71
$GPGSA,A,3,17,19,28,24,06,01,22,03,,,,,2.1,1.1,1.8*3E
$GPGSV,3,1,12,17,88,078,30,19,66,247,17,28,46,123,39,24,36,296,22*71
$GPGSV,3,2,12,06,27,190,27,01,25,047,25,22,20,065,26,03,20,087,24*7A
$GPGSV,3,3,12,11,07,053,14,57,20,119,32,12,05,299,,32,04,358,*79
$GPRMC,013032.000,A,5410.4738,N,08326.6201,E,0.00,117.96,061016,,,A*67
$GPGGA,013033.000,5410.4738,N,08326.6201,E,1,08,1.1,244.6,M,-37.9,M,,0000*70
$GPGSA,A,3,17,19,28,24,06,01,22,03,,,,,2.1,1.1,1.8*3E
$GPRMC,013033.000,A,5410.4738,N,08326.6201,E,0.00,117.96,061016,,,A*66
$GPGGA,013034.000,5410.4738,N,08326.6201,E,1,08,1.1,244.6,M,-37.9,M,,0000*77
$GPGSA,A,3,17,19,28,24,06,01,22,03,,,,,2.1,1.1,1.8*3E
$GPRMC,013034.000,A,5410.4738,N,08326.6201,E,0.00,117.96,061016,,,A*61
$GPGGA,013035.000,5410.4738,N,08326.6201,E,1,08,1.1,244.6,M,-37.9,M,,0000*76
$GPGSA,A,3,17,19,28,24,06,01,22,03,,,,,2.1,1.1,1.8*3E
$GPRMC,013035.000,A,5410.4738,N,08326.6201,E,0.00,117.96,061016,,,A*60
$GPGGA,013036.000,5410.4738,N,08326.6200,E,1,08,1.1,244.5,M,-37.9,M,,0000*77
$GPGSA,A,3,17,19,28,24,06,01,22,03,,,,,2.1,1.1,1.8*3E
$GPRMC,013036.000,A,5410.4738,N,08326.6200,E,0.03,117.96,061016,,,A*61
$GPGGA,013037.000,5410.4738,N,08326.6199,E,1,08,1.1,244.5,M,-37.9,M,,0000*75
$GPGSA,A,3,17,19,28,24,06,01,22,03,,,,,2.1,1.1,1.8*3E
$GPGSV,3,1,12,17,88,078,30,19,66,247,17,28,46,123,39,24,36,296,22*71
$GPGSV,3,2,12,06,27,190,27,01,25,047,24,22,20,065,26,03,20,087,24*7B
$GPGSV,3,3,12,11,07,053,13,57,20,119,32,12,05,299,,32,04,358,*7E
$GPRMC,013037.000,A,5410.4738,N,08326.6199,E,0.13,117.96,061016,,,A*62
$GPGGA,013038.000,5410.4738,N,08326.6199,E,1,08,1.1,244.5,M,-37.9,M,,0000*7A
$GPGSA,A,3,17,19,28,24,06,01,22,03,,,,,2.1,1.1,1.8*3E
$GPRMC,013038.000,A,5410.4738,N,08326.6199,E,0.00,117.96,061016,,,A*6F
$GPGGA,013039.000,5410.4738,N,08326.6199,E,1,08,1.1,244.5,M,-37.9,M,,0000*7B
$GPGSA,A,3,17,19,28,24,06,01,22,03,,,,,2.1,1.1,1.8*3E
$GPRMC,013039.000,A,5410.4738,N,08326.6199,E,0.00,117.96,061016,,,A*6E
$GPGGA,013040.000,5410.4738,N,08326.6199,E,1,08,1.1,244.5,M,-37.9,M,,0000*75
$GPGSA,A,3,17,19,28,24,06,01,22,03,,,,,2.1,1.1,1.8*3E
$GPRMC,013040.000,A,5410.4738,N,08326.6199,E,0.00,117.96,061016,,,A*60
$GPGGA,013041.000,5410.4738,N,08326.6199,E,1,08,1.1,244.5,M,-37.9,M,,0000*74
$GPGSA,A,3,17,19,28,24,06,01,22,03,,,,,2.1,1.1,1.8*3E
$GPRMC,013041.000,A,5410.4738,N,08326.6199,E,0.00,117.96,061016,,,A*61
$GPGGA,013042.000,5410.4738,N,08326.6199,E,1,08,1.1,244.5,M,-37.9,M,,0000*77
$GPGSA,A,3,17,19,28,24,06,01,22,03,,,,,2.1,1.1,1.8*3E
$GPGSV,3,1,12,17,88,078,30,19,66,247,17,28,46,123,39,24,36,296,23*70
$GPGSV,3,2,12,06,27,190,27,01,25,047,24,22,20,065,27,03,20,087,24*7A
$GPGSV,3,3,12,11,07,053,10,57,20,119,32,12,05,299,,32,04,358,*7D
$GPRMC,013042.000,A,5410.4738,N,08326.6199,E,0.00,117.96,061016,,,A*62
$GPGGA,013043.000,5410.4738,N,08326.6199,E,1,08,1.1,244.5,M,-37.9,M,,0000*76
$GPGSA,A,3,17,19,28,24,06,01,22,03,,,,,2.1,1.1,1.8*3E
$GPRMC,013043.000,A,5410.4738,N,08326.6199,E,0.00,117.96,061016,,,A*63
$GPGGA,013044.000,5410.4738,N,08326.6199,E,1,08,1.1,244.5,M,-37.9,M,,0000*71
$GPGSA,A,3,17,19,28,24,06,01,22,03,,,,,2.1,1.1,1.8*3E
$GPRMC,013044.000,A,5410.4738,N,08326.6199,E,0.00,117.96,061016,,,A*64
$GPGGA,013045.000,5410.4738,N,08326.6199,E,1,08,1.1,244.5,M,-37.9,M,,0000*70
$GPGSA,A,3,17,19,28,24,06,01,22,03,,,,,2.1,1.1,1.8*3E
$GPRMC,013045.000,A,5410.4738,N,08326.6199,E,0.00,117.96,061016,,,A*65
$GPGGA,013046.000,5410.4738,N,08326.6199,E,1,08,1.1,244.5,M,-37.9,M,,0000*73
$GPGSA,A,3,17,19,28,24,06,01,22,03,,,,,2.1,1.1,1.8*3E
$GPRMC,013046.000,A,5410.4738,N,08326.6199,E,0.00,117.96,061016,,,A*66
$GPGGA,013047.000,5410.4738,N,08326.6199,E,1,08,1.1,244.5,M,-37.9,M,,0000*72
$GPGSA,A,3,17,19,28,24,06,01,22,03,,,,,2.1,1.1,1.8*3E
$GPGSV,3,1,12,17,88,078,30,19,66,247,16,28,46,123,39,24,36,296,23*71
$GPGSV,3,2,12,06,27,190,27,01,25,047,24,22,20,065,26,03,20,087,24*7B
$GPGSV,3,3,12,11,07,053,12,32,04,358,14,57,20,119,32,12,05,299,*7A
$GPRMC,013047.000,A,5410.4738,N,08326.6199,E,0.00,117.96,061016,,,A*67
$GPGGA,013048.000,5410.4738,N,08326.6199,E,1,08,1.1,244.5,M,-37.9,M,,0000*7D
$GPGSA,A,3,17,19,28,24,06,01,22,03,,,,,2.1,1.1,1.8*3E
$GPRMC,013048.000,A,5410.4738,N,08326.6199,E,0.00,117.96,061016,,,A*68
$GPGGA,013049.000,5410.4738,N,08326.6199,E,1,08,1.1,244.5,M,-37.9,M,,0000*7C
$GPGSA,A,3,17,19,28,24,06,01,22,03,,,,,2.1,1.1,1.8*3E
$GPRMC,013049.000,A,5410.4738,N,08326.6199,E,0.00,117.96,061016,,,A*69
$GPGGA,013050.000,5410.4738,N,08326.6199,E,1,08,1.1,244.5,M,-37.9,M,,0000*74
$GPGSA,A,3,17,19,28,24,06,01,22,03,,,,,2.1,1.1,1.8*3E
$GPRMC,013050.000,A,5410.4738,N,08326.6199,E,0.00,117.96,061016,,,A*61
$GPGGA,013051.000,5410.4738,N,08326.6199,E,1,09,1.1,244.5,M,-37.9,M,,0000*74
$GPGSA,A,3,17,19,28,24,06,01,22,03,11,,,,1.9,1.1,1.6*3B
$GPRMC,013051.000,A,5410.4738,N,08326.6199,E,0.00,117.96,061016,,,A*60
$GPGGA,013052.000,5410.4738,N,08326.6199,E,1,09,1.1,244.5,M,-37.9,M,,0000*77
$GPGSA,A,3,17,19,28,24,06,01,22,03,11,,,,1.9,1.1,1.6*3B
$GPGSV,3,1,12,17,88,078,30,19,66,247,16,28,46,123,38,24,36,296,22*71
$GPGSV,3,2,12,06,27,190,26,01,25,047,24,22,20,065,26,03,20,087,24*7A
$GPGSV,3,3,12,11,07,053,12,57,20,119,,12,05,299,,32,04,358,*7E
$GPRMC,013052.000,A,5410.4738,N,08326.6199,E,0.00,117.96,061016,,,A*63
$GPGGA,013053.000,5410.4738,N,08326.6199,E,1,09,1.1,244.5,M,-37.9,M,,0000*76
$GPGSA,A,3,17,19,28,24,06,01,22,03,11,,,,1.9,1.1,1.6*3B
$GPRMC,013053.000,A,5410.4738,N,08326.6199,E,0.00,117.96,061016,,,A*62
$GPGGA,013054.000,5410.4738,N,08326.6199,E,1,09,1.1,244.5,M,-37.9,M,,0000*71
$GPGSA,A,3,17,19,28,24,06,01,22,03,11,,,,1.9,1.1,1.6*3B
$GPRMC,013054.000,A,5410.4738,N,08326.6199,E,0.00,117.96,061016,,,A*65
$GPGGA,013055.000,5410.4738,N,08326.6199,E,1,09,1.1,244.5,M,-37.9,M,,0000*70
$GPGSA,A,3,17,19,28,24,06,01,22,03,11,,,,1.9,1.1,1.6*3B
$GPRMC,013055.000,A,5410.4738,N,08326.6199,E,0.00,117.96,061016,,,A*64
$GPGGA,013056.000,5410.4738,N,08326.6199,E,1,09,1.1,244.5,M,-37.9,M,,0000*73
$GPGSA,A,3,17,19,28,24,06,01,22,03,11,,,,1.9,1.1,1.6*3B
$GPRMC,013056.000,A,5410.4738,N,08326.6199,E,0.00,117.96,061016,,,A*67
$GPGGA,013057.000,5410.4738,N,08326.6199,E,1,09,1.1,244.5,M,-37.9,M,,0000*72
$GPGSA,A,3,17,19,28,24,06,01,22,03,11,,,,1.9,1.1,1.6*3B
$GPGSV,3,1,12,17,88,078,30,19,66,247,16,28,46,123,38,24,36,296,22*71
$GPGSV,3,2,12,06,27,190,26,01,25,047,24,22,20,065,26,03,20,087,25*7B
$GPGSV,3,3,12,11,07,053,12,57,20,119,,12,05,299,,32,04,358,*7E
$GPRMC,013057.000,A,5410.4738,N,08326.6199,E,0.00,117.96,061016,,,A*66
$GPGGA,013058.000,5410.4738,N,08326.6199,E,1,09,1.1,244.5,M,-37.9,M,,0000*7D
$GPGSA,A,3,17,19,28,24,06,01,22,03,11,,,,1.9,1.1,1.6*3B
$GPRMC,013058.000,A,5410.4738,N,08326.6199,E,0.00,117.96,061016,,,A*69
$GPGGA,013059.000,5410.4738,N,08326.6199,E,1,09,1.1,244.5,M,-37.9,M,,0000*7C
$GPGSA,A,3,17,19,28,24,06,01,22,03,11,,,,1.9,1.1,1.6*3B
$GPRMC,013059.000,A,5410.4738,N,08326.6199,E,0.00,117.96,061016,,,A*68
$GPGGA,013100.000,5410.4738,N,08326.6199,E,1,09,1.1,244.5,M,-37.9,M,,0000*71
$GPGSA,A,3,17,19,28,24,06,01,22,03,11,,,,1.9,1.1,1.6*3B
$GPRMC,013100.000,A,5410.4738,N,08326.6199,E,0.00,117.96,061016,,,A*65
$GPGGA,013101.000,5410.4738,N,08326.6199,E,1,09,1.1,244.5,M,-37.9,M,,0000*70
$GPGSA,A,3,17,19,28,24,06,01,22,03,11,,,,1.9,1.1,1.6*3B
$GPRMC,013101.000,A,5410.4738,N,08326.6199,E,0.00,117.96,061016,,,A*64
$GPGGA,013102.000,5410.4738,N,08326.6199,E,1,09,1.1,244.5,M,-37.9,M,,0000*73
$GPGSA,A,3,17,19,28,24,06,01,22,03,11,,,,1.9,1.1,1.6*3B
$GPGSV,3,1,12,17,88,078,30,19,66,247,16,28,46,123,38,24,36,296,21*72
$GPGSV,3,2,12,06,27,190,26,01,25,047,25,22,20,065,26,03,20,087,24*7B
$GPGSV,3,3,12,11,07,053,13,57,20,119,,12,05,299,,32,04,358,*7F
$GPRMC,013102.000,A,5410.4738,N,08326.6199,E,0.00,117.96,061016,,,A*67
$GPGGA,013103.000,5410.4738,N,08326.6199,E,1,08,1.1,244.5,M,-37.9,M,,0000*73
$GPGSA,A,3,17,19,28,24,06,01,22,03,,,,,2.1,1.1,1.8*3E
$GPRMC,013103.000,A,5410.4738,N,08326.6199,E,0.00,117.96,061016,,,A*66
$GPGGA,013104.000,5410.4738,N,08326.6199,E,1,08,1.1,244.5,M,-37.9,M,,0000*74
$GPGSA,A,3,17,19,28,24,06,01,22,03,,,,,2.1,1.1,1.8*3E
$GPRMC,013104.000,A,5410.4738,N,08326.6199,E,0.00,117.96,061016,,,A*61
$GPGGA,013105.000,5410.4738,N,08326.6199,E,1,08,1.1,244.5,M,-37.9,M,,0000*75
$GPGSA,A,3,17,19,28,24,06,01,22,03,,,,,2.1,1.1,1.8*3E
$GPRMC,013105.000,A,5410.4738,N,08326.6199,E,0.00,117.96,061016,,,A*60
$GPGGA,013106.000,5410.4738,N,08326.6197,E,1,08,1.1,244.4,M,-37.9,M,,0000*79
$GPGSA,A,3,17,19,28,24,06,01,22,03,,,,,2.1,1.1,1.8*3E
$GPRMC,013106.000,A,5410.4738,N,08326.6197,E,0.19,117.96,061016,,,A*65
$GPGGA,013107.000,5410.4737,N,08326.6196,E,1,08,1.1,244.3,M,-37.9,M,,0000*71
$GPGSA,A,3,17,19,28,24,06,01,22,03,,,,,2.1,1.1,1.8*3E
$GPGSV,3,1,12,17,88,078,30,19,66,247,17,28,46,123,38,24,36,296,21*73
$GPGSV,3,2,12,06,27,190,26,01,25,047,26,22,20,065,26,03,20,087,24*78
$GPGSV,3,3,12,57,20,119,31,11,07,053,,12,05,299,,32,04,358,*7F
$GPRMC,013107.000,A,5410.4737,N,08326.6196,E,0.02,117.96,061016,,,A*60
$GPGGA,013108.000,5410.4737,N,08326.6196,E,1,08,1.1,244.3,M,-37.9,M,,0000*7E
$GPGSA,A,3,17,19,28,24,06,01,22,03,,,,,2.1,1.1,1.8*3E
$GPRMC,013108.000,A,5410.4737,N,08326.6196,E,0.00,117.96,061016,,,A*6D
$GPGGA,013109.000,5410.4737,N,08326.6196,E,1,08,1.1,244.3,M,-37.9,M,,0000*7F
$GPGSA,A,3,17,19,28,24,06,01,22,03,,,,,2.1,1.1,1.8*3E
$GPRMC,013109.000,A,5410.4737,N,08326.6196,E,0.00,117.96,061016,,,A*6C
$GPGGA,013110.000,5410.4737,N,08326.6194,E,1,08,1.1,244.2,M,-37.9,M,,0000*74
$GPGSA,A,3,17,19,28,24,06,01,22,03,,,,,2.1,1.1,1.8*3E
$GPRMC,013110.000,A,5410.4737,N,08326.6194,E,0.05,117.96,061016,,,A*63
$GPGGA,013111.000,5410.4738,N,08326.6194,E,1,08,1.1,244.1,M,-37.9,M,,0000*79
$GPGSA,A,3,17,19,28,24,06,01,22,03,,,,,2.1,1.1,1.8*3E
$GPRMC,013111.000,A,5410.4738,N,08326.6194,E,0.09,117.96,061016,,,A*61
$GPGGA,013112.000,5410.4738,N,08326.6193,E,1,08,1.1,244.1,M,-37.9,M,,0000*7D
$GPGSA,A,3,17,19,28,24,06,01,22,03,,,,,2.1,1.1,1.8*3E
$GPGSV,3,1,12,17,88,078,30,19,66,247,16,28,46,123,38,24,36,296,21*72
$GPGSV,3,2,12,06,27,190,27,01,25,047,25,22,20,065,26,03,20,087,25*7B
$GPGSV,3,3,12,12,05,299,20,57,20,119,31,11,07,053,,32,04,358,*7D
$GPRMC,013112.000,A,5410.4738,N,08326.6193,E,0.00,117.96,061016,,,A*6C
$GPGGA,013113.000,5410.4738,N,08326.6193,E,1,08,1.1,244.1,M,-37.9,M,,0000*7C
$GPGSA,A,3,17,19,28,24,06,01,22,03,,,,,2.1,1.1,1.8*3E
$GPRMC,013113.000,A,5410.4738,N,08326.6193,E,0.00,117.96,061016,,,A*6D
$GPGGA,013114.000,5410.4738,N,08326.6193,E,1,08,1.1,244.1,M,-37.9,M,,0000*7B
$GPGSA,A,3,17,19,28,24,06,01,22,03,,,,,2.1,1.1,1.8*3E
$GPRMC,013114.000,A,5410.4738,N,08326.6193,E,0.00,117.96,061016,,,A*6A
$GPGGA,013115.000,5410.4738,N,08326.6193,E,1,08,1.1,244.1,M,-37.9,M,,0000*7A
$GPGSA,A,3,17,19,28,24,06,01,22,03,,,,,2.1,1.1,1.8*3E
$GPRMC,013115.000,A,5410.4738,N,08326.6193,E,0.00,117.96,061016,,,A*6B
$GPGGA,013116.000,5410.4738,N,08326.6193,E,1,08,1.1,244.1,M,-37.9,M,,0000*79
$GPGSA,A,3,17,19,28,24,06,01,22,03,,,,,2.1,1.1,1.8*3E
$GPRMC,013116.000,A,5410.4738,N,08326.6193,E,0.00,117.96,061016,,,A*68
$GPGGA,013117.000,5410.4738,N,08326.6193,E,1,08,1.1,244.1,M,-37.9,M,,0000*78
$GPGSA,A,3,17,19,28,24,06,01,22,03,,,,,2.1,1.1,1.8*3E
$GPGSV,3,1,12,17,88,078,30,19,66,247,16,28,46,123,38,24,36,296,21*72
$GPGSV,3,2,12,06,27,190,27,01,25,047,25,22,20,065,26,03,20,087,25*7B
$GPGSV,3,3,12,12,05,299,19,57,20,119,31,11,07,053,,32,04,358,*77
$GPRMC,013117.000,A,5410.4738,N,08326.6193,E,0.00,117.96,061016,,,A*69
$GPGGA,013118.000,5410.4738,N,08326.6193,E,1,08,1.1,244.1,M,-37.9,M,,0000*77
$GPGSA,A,3,17,19,28,24,06,01,22,03,,,,,2.1,1.1,1.8*3E
$GPRMC,013118.000,A,5410.4738,N,08326.6193,E,0.00,117.96,061016,,,A*66
$GPGGA,013119.000,5410.4738,N,08326.6193,E,1,08,1.1,244.1,M,-37.9,M,,0000*76
$GPGSA,A,3,17,19,28,24,06,01,22,03,,,,,2.1,1.1,1.8*3E
$GPRMC,013119.000,A,5410.4738,N,08326.6193,E,0.00,117.96,061016,,,A*67
$GPGGA,013120.000,5410.4738,N,08326.6193,E,1,08,1.1,244.1,M,-37.9,M,,0000*7C
$GPGSA,A,3,17,19,28,24,06,01,22,03,,,,,2.1,1.1,1.8*3E
$GPRMC,013120.000,A,5410.4738,N,08326.6193,E,0.00,117.96,061016,,,A*6D
$GPGGA,013121.000,5410.4738,N,08326.6193,E,1,08,1.1,244.1,M,-37.9,M,,0000*7D
$GPGSA,A,3,17,19,28,24,06,01,22,03,,,,,2.1,1.1,1.8*3E
$GPRMC,013121.000,A,5410.4738,N,08326.6193,E,0.00,117.96,061016,,,A*6C
$GPGGA,013122.000,5410.4738,N,08326.6193,E,1,08,1.1,244.1,M,-37.9,M,,0000*7E
$GPGSA,A,3,17,19,28,24,06,01,22,03,,,,,2.1,1.1,1.8*3E
$GPGSV,3,1,12,17,88,078,30,19,66,247,16,28,46,123,38,24,36,296,21*72
$GPGSV,3,2,12,06,27,190,27,01,25,047,25,22,20,065,25,03,20,087,25*78
$GPGSV,3,3,12,12,05,299,19,57,20,119,31,11,07,053,,32,04,358,*77
$GPRMC,013122.000,A,5410.4738,N,08326.6193,E,0.00,117.96,061016,,,A*6F
$GPGGA,013123.000,5410.4738,N,08326.6193,E,1,08,1.1,244.1,M,-37.9,M,,0000*7F
$GPGSA,A,3,17,19,28,24,06,01,22,03,,,,,2.1,1.1,1.8*3E
$GPRMC,013123.000,A,5410.4738,N,08326.6193,E,0.00,117.96,061016,,,A*6E
$GPGGA,013124.000,5410.4738,N,08326.6193,E,1,08,1.1,244.1,M,-37.9,M,,0000*78
$GPGSA,A,3,17,19,28,24,06,01,22,03,,,,,2.1,1.1,1.8*3E
$GPRMC,013124.000,A,5410.4738,N,08326.6193,E,0.00,117.96,061016,,,A*69
$GPGGA,013125.000,5410.4738,N,08326.6193,E,1,08,1.1,244.1,M,-37.9,M,,0000*79
$GPGSA,A,3,17,19,28,24,06,01,22,03,,,,,2.1,1.1,1.8*3E
$GPRMC,013125.000,A,5410.4738,N,08326.6193,E,0.00,117.96,061016,,,A*68
$GPGGA,013126.000,5410.4738,N,08326.6193,E,1,08,1.1,244.1,M,-37.9,M,,0000*7A
$GPGSA,A,3,17,19,28,24,06,01,22,03,,,,,2.1,1.1,1.8*3E
$GPRMC,013126.000,A,5410.4738,N,08326.6193,E,0.00,117.96,061016,,,A*6B
$GPGGA,013127.000,5410.4738,N,08326.6193,E,1,08,1.1,244.1,M,-37.9,M,,0000*7B
$GPGSA,A,3,17,19,28,24,06,01,22,03,,,,,2.1,1.1,1.8*3E
$GPGSV,3,1,12,17,88,078,30,19,66,247,16,28,46,123,38,24,36,296,21*72
$GPGSV,3,2,12,06,27,190,27,01,25,047,25,22,20,065,25,03,20,087,25*78
$GPGSV,3,3,12,12,05,299,18,57,20,119,32,11,07,053,,32,04,358,*75
$GPRMC,013127.000,A,5410.4738,N,08326.6193,E,0.00,117.96,061016,,,A*6A
$GPGGA,013128.000,5410.4738,N,08326.6193,E,1,08,1.1,244.1,M,-37.9,M,,0000*74
$GPGSA,A,3,17,19,28,24,06,01,22,03,,,,,2.1,1.1,1.8*3E
$GPRMC,013128.000,A,5410.4738,N,08326.6193,E,0.00,117.96,061016,,,A*65
$GPGGA,013129.000,5410.4738,N,08326.6193,E,1,08,1.1,244.1,M,-37.9,M,,0000*75
$GPGSA,A,3,17,19,28,24,06,01,22,03,,,,,2.1,1.1,1.8*3E
$GPRMC,013129.000,A,5410.4738,N,08326.6193,E,0.00,117.96,061016,,,A*64
$GPGGA,013130.000,5410.4738,N,08326.6193,E,1,08,1.1,244.1,M,-37.9,M,,0000*7D
$GPGSA,A,3,17,19,28,24,06,01,22,03,,,,,2.1,1.1,1.8*3E
$GPRMC,013130.000,A,5410.4738,N,08326.6193,E,0.00,117.96,061016,,,A*6C
$GPGGA,013131.000,5410.4738,N,08326.6193,E,1,08,1.1,244.1,M,-37.9,M,,0000*7C
$GPGSA,A,3,17,19,28,24,06,01,22,03,,,,,2.1,1.1,1.8*3E
$GPRMC,013131.000,A,5410.4738,N,08326.6193,E,0.00,117.96,061016,,,A*6D
$GPGGA,013132.000,5410.4738,N,08326.6193,E,1,08,1.1,244.1,M,-37.9,M,,0000*7F
$GPGSA,A,3,17,19,28,24,06,01,22,03,,,,,2.1,1.1,1.8*3E
$GPGSV,3,1,12,17,88,074,31,19,67,247,16,28,45,124,38,24,36,295,20*78
$GPGSV,3,2,12,06,28,190,27,01,25,047,25,22,20,065,25,03,20,086,25*76
$GPGSV,3,3,12,12,05,299,17,57,20,119,32,11,07,053,,32,04,358,*7A
$GPRMC,013132.000,A,5410.4738,N,08326.6193,E,0.00,117.96,061016,,,A*6E
$GPGGA,013133.000,5410.4738,N,08326.6193,E,1,08,1.1,244.1,M,-37.9,M,,0000*7E
$GPGSA,A,3,17,19,28,24,06,01,03,22,,,,,2.1,1.1,1.8*3E
$GPRMC,013133.000,A,5410.4738,N,08326.6193,E,0.00,117.96,061016,,,A*6F
$GPGGA,013134.000,5410.4738,N,08326.6193,E,1,08,1.1,244.1,M,-37.9,M,,0000*79
$GPGSA,A,3,17,19,28,24,06,01,03,22,,,,,2.1,1.1,1.8*3E
$GPRMC,013134.000,A,5410.4738,N,08326.6193,E,0.00,117.96,061016,,,A*68
$GPGGA,013135.000,5410.4738,N,08326.6193,E,1,08,1.1,244.1,M,-37.9,M,,0000*78
$GPGSA,A,3,17,19,28,24,06,01,03,22,,,,,2.1,1.1,1.8*3E
$GPRMC,013135.000,A,5410.4738,N,08326.6193,E,0.00,117.96,061016,,,A*69
$GPGGA,013136.000,5410.4738,N,08326.6193,E,1,08,1.1,244.1,M,-37.9,M,,0000*7B
$GPGSA,A,3,17,19,28,24,06,01,03,22,,,,,2.1,1.1,1.8*3E
$GPRMC,013136.000,A,5410.4738,N,08326.6193,E,0.00,117.96,061016,,,A*6A
$GPGGA,013137.000,5410.4738,N,08326.6193,E,1,07,1.7,244.1,M,-37.9,M,,0000*73
$GPGSA,A,3,17,19,28,06,01,03,22,,,,,,2.8,1.7,2.2*3E
$GPGSV,3,1,12,17,88,074,31,19,67,247,16,28,45,124,38,06,28,190,27*76
$GPGSV,3,2,12,01,25,047,24,03,20,086,25,22,20,065,24,12,05,299,18*7A
$GPGSV,3,3,12,24,36,295,05,57,20,119,31,11,07,053,,32,04,358,*73
$GPRMC,013137.000,A,5410.4738,N,08326.6193,E,0.00,117.96,061016,,,A*6B
$GPGGA,013138.000,5410.4738,N,08326.6193,E,1,08,1.1,244.1,M,-37.9,M,,0000*75
$GPGSA,A,3,17,19,28,24,06,01,03,22,,,,,2.1,1.1,1.8*3E
$GPRMC,013138.000,A,5410.4738,N,08326.6193,E,0.00,117.96,061016,,,A*64
$GPGGA,013139.000,5410.4738,N,08326.6193,E,1,08,1.1,244.1,M,-37.9,M,,0000*74
$GPGSA,A,3,17,19,28,24,06,01,03,22,,,,,2.1,1.1,1.8*3E
$GPRMC,013139.000,A,5410.4738,N,08326.6193,E,0.00,117.96,061016,,,A*65
$GPGGA,013140.000,5410.4738,N,08326.6193,E,1,08,1.1,244.1,M,-37.9,M,,0000*7A
$GPGSA,A,3,17,19,28,24,06,01,03,22,,,,,2.1,1.1,1.8*3E
$GPRMC,013140.000,A,5410.4738,N,08326.6193,E,0.00,117.96,061016,,,A*6B
$GPGGA,013141.000,5410.4738,N,08326.6193,E,1,08,1.1,244.1,M,-37.9,M,,0000*7B
$GPGSA,A,3,17,19,28,24,06,01,03,22,,,,,2.1,1.1,1.8*3E
$GPRMC,013141.000,A,5410.4738,N,08326.6193,E,0.00,117.96,061016,,,A*6A
$GPGGA,013142.000,5410.4738,N,08326.6193,E,1,08,1.1,244.1,M,-37.9,M,,0000*78
$GPGSA,A,3,17,19,28,24,06,01,03,22,,,,,2.1,1.1,1.8*3E
$GPGSV,3,1,12,17,88,074,30,19,67,247,18,28,45,124,37,24,36,295,13*78
$GPGSV,3,2,12,06,28,190,27,01,25,047,18,03,20,086,27,22,20,065,24*7B
$GPGSV,3,3,12,12,05,299,19,57,20,119,31,11,07,053,,32,04,358,*77
$GPRMC,013142.000,A,5410.4738,N,08326.6193,E,0.00,117.96,061016,,,A*69
$GPGGA,013143.000,5410.4738,N,08326.6193,E,1,08,1.1,244.1,M,-37.9,M,,0000*79
$GPGSA,A,3,17,19,28,24,06,01,03,22,,,,,2.1,1.1,1.8*3E
$GPRMC,013143.000,A,5410.4738,N,08326.6193,E,0.00,117.96,061016,,,A*68
$GPGGA,013144.000,5410.4738,N,08326.6193,E,1,08,1.1,244.1,M,-37.9,M,,0000*7E
$GPGSA,A,3,17,19,28,24,06,01,03,22,,,,,2.1,1.1,1.8*3E
$GPRMC,013144.000,A,5410.4738,N,08326.6193,E,0.00,117.96,061016,,,A*6F
$GPGGA,013145.000,5410.4738,N,08326.6193,E,1,09,1.1,244.1,M,-37.9,M,,0000*7E
$GPGSA,A,3,17,19,28,24,06,01,03,22,11,,,,1.9,1.1,1.6*3B
$GPRMC,013145.000,A,5410.4738,N,08326.6193,E,0.00,117.96,061016,,,A*6E
$GPGGA,013146.000,5410.4738,N,08326.6193,E,1,09,1.1,244.1,M,-37.9,M,,0000*7D
$GPGSA,A,3,17,19,28,24,06,01,03,22,11,,,,1.9,1.1,1.6*3B
$GPRMC,013146.000,A,5410.4738,N,08326.6193,E,0.00,117.96,061016,,,A*6D
$GPGGA,013147.000,5410.4738,N,08326.6193,E,1,09,1.1,244.1,M,-37.9,M,,0000*7C
$GPGSA,A,3,17,19,28,24,06,01,03,22,11,,,,1.9,1.1,1.6*3B
$GPGSV,3,1,12,17,88,074,30,19,67,247,18,28,45,124,38,24,36,295,20*77
$GPGSV,3,2,12,06,28,190,27,01,25,047,22,03,20,086,29,22,20,065,21*79
$GPGSV,3,3,12,11,07,053,15,12,05,299,22,32,04,358,16,57,20,119,31*7C
$GPRMC,013147.000,A,5410.4738,N,08326.6193,E,0.00,117.96,061016,,,A*6C
$GPGGA,013148.000,5410.4738,N,08326.6193,E,1,09,1.1,244.1,M,-37.9,M,,0000*73
$GPGSA,A,3,17,19,28,24,06,01,03,22,11,,,,1.9,1.1,1.6*3B
$GPRMC,013148.000,A,5410.4738,N,08326.6193,E,0.00,117.96,061016,,,A*63
$GPGGA,013149.000,5410.4738,N,08326.6192,E,1,08,1.1,244.1,M,-37.9,M,,0000*72
$GPGSA,A,3,17,19,28,24,06,01,03,11,,,,,1.9,1.1,1.6*3B
$GPRMC,013149.000,A,5410.4738,N,08326.6192,E,0.26,117.96,061016,,,A*67
$GPGGA,013150.000,5410.4738,N,08326.6190,E,1,08,1.1,244.1,M,-37.9,M,,0000*78
$GPGSA,A,3,17,19,28,24,06,01,03,11,,,,,1.9,1.1,1.6*3B
$GPRMC,013150.000,A,5410.4738,N,08326.6190,E,0.36,117.96,061016,,,A*6C
$GPGGA,013151.000,5410.4738,N,08326.6188,E,1,08,1.1,244.3,M,-37.9,M,,0000*72
$GPGSA,A,3,17,19,28,24,06,01,03,22,,,,,2.1,1.1,1.8*3E
$GPRMC,013151.000,A,5410.4738,N,08326.6188,E,0.87,117.96,061016,,,A*6E
$GPGGA,013152.000,5410.4738,N,08326.6184,E,1,09,1.1,244.4,M,-37.9,M,,0000*7B
$GPGSA,A,3,17,19,28,24,06,01,03,22,11,,,,1.9,1.1,1.6*3B
$GPGSV,3,1,12,17,88,074,30,19,67,247,19,28,45,124,38,24,36,295,18*7D
$GPGSV,3,2,12,06,28,190,27,01,25,047,24,03,20,086,29,22,20,065,26*78
$GPGSV,3,3,12,11,07,053,08,12,05,299,20,57,20,119,31,32,04,358,*75
$GPRMC,013152.000,A,5410.4738,N,08326.6184,E,0.59,117.96,061016,,,A*62
$GPGGA,013153.000,5410.4738,N,08326.6183,E,1,09,1.1,244.5,M,-37.9,M,,0000*7C
$GPGSA,A,3,17,19,28,24,06,01,03,22,11,,,,1.9,1.1,1.6*3B
$GPRMC,013153.000,A,5410.4738,N,08326.6183,E,0.25,117.96,061016,,,A*6F
$GPGGA,013154.000,5410.4738,N,08326.6184,E,1,09,1.1,244.6,M,-37.9,M,,0000*7F
$GPGSA,A,3,17,19,28,24,06,01,03,22,11,,,,1.9,1.1,1.6*3B
$GPRMC,013154.000,A,5410.4738,N,08326.6184,E,0.50,117.96,061016,,,A*6D
$GPGGA,013155.000,5410.4736,N,08326.6188,E,1,09,1.1,244.8,M,-37.9,M,,0000*72
$GPGSA,A,3,17,19,28,24,06,01,03,22,11,,,,1.9,1.1,1.6*3B
$GPRMC,013155.000,A,5410.4736,N,08326.6188,E,1.39,125.86,061016,,,A*60
$GPGGA,013156.000,5410.4734,N,08326.6195,E,1,09,1.1,244.9,M,-37.9,M,,0000*7E
$GPGSA,A,3,17,19,28,24,06,01,03,22,11,,,,1.9,1.1,1.6*3B
$GPRMC,013156.000,A,5410.4734,N,08326.6195,E,2.03,121.68,061016,,,A*63
$GPGGA,013157.000,5410.4730,N,08326.6205,E,1,09,1.1,245.0,M,-37.9,M,,0000*79
$GPGSA,A,3,17,19,28,24,06,01,03,22,11,,,,1.9,1.1,1.6*3B
$GPGSV,3,1,12,17,88,074,30,19,67,247,19,28,45,124,38,24,36,295,20*76
$GPGSV,3,2,12,06,28,190,28,01,25,047,23,03,20,086,29,22,20,065,27*71
$GPGSV,3,3,12,11,07,053,13,02,00,206,17,12,05,299,26,57,20,119,31*72
$GPRMC,013157.000,A,5410.4730,N,08326.6205,E,2.63,118.70,061016,,,A*69
$GPGGA,013158.000,5410.4727,N,08326.6217,E,1,09,1.1,245.1,M,-37.9,M,,0000*72
$GPGSA,A,3,17,19,28,24,06,01,03,22,11,,,,1.9,1.1,1.6*3B
$GPRMC,013158.000,A,5410.4727,N,08326.6217,E,3.34,115.45,061016,,,A*6B
$GPGGA,013159.000,5410.4722,N,08326.6234,E,1,09,1.1,245.2,M,-37.9,M,,0000*74
$GPGSA,A,3,17,19,28,24,06,01,03,22,11,,,,1.9,1.1,1.6*3B
$GPRMC,013159.000,A,5410.4722,N,08326.6234,E,3.93,112.07,061016,,,A*62
$GPGGA,013200.000,5410.4719,N,08326.6252,E,1,07,2.5,245.2,M,-37.9,M,,0000*7A
$GPGSA,A,3,17,19,28,01,03,22,11,,,,,,4.3,2.5,3.5*32
$GPRMC,013200.000,A,5410.4719,N,08326.6252,E,4.31,109.54,061016,,,A*66
$GPGGA,013201.000,5410.4716,N,08326.6272,E,1,08,1.1,245.2,M,-37.9,M,,0000*7E
$GPGSA,A,3,17,19,28,24,06,01,03,22,,,,,2.1,1.1,1.8*3E
$GPRMC,013201.000,A,5410.4716,N,08326.6272,E,4.34,108.57,061016,,,A*6D
$GPGGA,013202.000,5410.4713,N,08326.6291,E,1,08,1.1,245.3,M,-37.9,M,,0000*74
$GPGSA,A,3,17,19,28,24,06,01,03,22,,,,,2.1,1.1,1.8*3E
$GPGSV,3,1,12,17,88,073,30,19,67,247,19,28,45,124,38,24,36,295,20*71
$GPGSV,3,2,12,06,28,190,25,01,24,047,24,03,20,086,30,22,20,065,24*71
$GPGSV,3,3,12,11,07,053,13,12,05,299,16,57,20,119,32,32,04,358,*79
$GPRMC,013202.000,A,5410.4713,N,08326.6291,E,4.23,105.76,061016,,,A*6E
$GPGGA,013203.000,5410.4712,N,08326.6310,E,1,08,1.1,245.5,M,-37.9,M,,0000*7A
$GPGSA,A,3,17,19,28,24,06,01,03,22,,,,,2.1,1.1,1.8*3E
$GPRMC,013203.000,A,5410.4712,N,08326.6310,E,3.52,101.18,061016,,,A*6B
$GPGGA,013204.000,5410.4713,N,08326.6324,E,1,09,1.1,245.6,M,-37.9,M,,0000*79
$GPGSA,A,3,17,19,28,24,06,01,03,22,11,,,,1.9,1.1,1.6*3B
$GPRMC,013204.000,A,5410.4713,N,08326.6324,E,2.79,93.07,061016,,,A*56
$GPGGA,013205.000,5410.4718,N,08326.6335,E,1,08,1.9,245.6,M,-37.9,M,,0000*7A
$GPGSA,A,3,17,19,28,24,01,03,22,11,,,,,3.1,1.9,2.5*3F
$GPRMC,013205.000,A,5410.4718,N,08326.6335,E,2.62,72.84,061016,,,A*52
$GPGGA,013206.000,5410.4723,N,08326.6344,E,1,08,1.9,245.5,M,-37.9,M,,0000*74
$GPGSA,A,3,17,19,28,24,01,03,22,11,,,,,3.1,1.9,2.5*3F
$GPRMC,013206.000,A,5410.4723,N,08326.6344,E,2.55,60.13,061016,,,A*56
$GPGGA,013207.000,5410.4728,N,08326.6353,E,1,08,1.9,245.6,M,-37.9,M,,0000*7B
$GPGSA,A,3,17,19,28,24,01,03,22,11,,,,,3.1,1.9,2.5*3F
$GPGSV,3,1,12,17,88,073,31,19,67,247,19,28,45,124,37,24,36,295,20*7F
$GPGSV,3,2,12,01,24,047,30,03,20,086,31,22,20,065,31,11,07,053,17*75
$GPGSV,3,3,12,02,00,206,16,06,28,190,07,12,05,299,20,57,20,119,31*75
$GPRMC,013207.000,A,5410.4728,N,08326.6353,E,2.42,52.45,061016,,,A*5E
$GPGGA,013208.000,5410.4733,N,08326.6360,E,1,08,1.9,245.6,M,-37.9,M,,0000*7E
$GPGSA,A,3,17,19,28,24,01,03,22,11,,,,,3.1,1.9,2.5*3F
$GPRMC,013208.000,A,5410.4733,N,08326.6360,E,2.04,49.82,061016,,,A*58
$GPGGA,013209.000,5410.4737,N,08326.6365,E,1,08,1.9,245.7,M,-37.9,M,,0000*7F
$GPGSA,A,3,17,19,28,24,01,03,22,11,,,,,3.1,1.9,2.5*3F
$GPRMC,013209.000,A,5410.4737,N,08326.6365,E,1.35,47.09,061016,,,A*54
$GPGGA,013210.000,5410.4740,N,08326.6367,E,1,08,1.9,245.8,M,-37.9,M,,0000*7A
$GPGSA,A,3,17,19,28,24,01,03,22,11,,,,,3.1,1.9,2.5*3F
$GPRMC,013210.000,A,5410.4740,N,08326.6367,E,0.38,47.09,061016,,,A*52
$GPGGA,013211.000,5410.4740,N,08326.6366,E,1,08,1.9,245.9,M,-37.9,M,,0000*7B
$GPGSA,A,3,17,19,28,24,01,03,22,11,,,,,3.1,1.9,2.5*3F
$GPRMC,013211.000,A,5410.4740,N,08326.6366,E,0.48,47.09,061016,,,A*55
$GPGGA,013212.000,5410.4740,N,08326.6362,E,1,09,1.1,245.9,M,-37.9,M,,0000*75
$GPGSA,A,3,17,19,28,24,06,01,03,22,11,,,,1.9,1.1,1.6*3B
$GPGSV,3,1,12,17,88,073,31,19,67,247,20,28,45,124,36,24,36,295,20*74
$GPGSV,3,2,12,06,28,190,16,01,24,047,32,03,20,086,31,22,20,065,33*71
$GPGSV,3,3,12,11,07,053,16,12,05,299,20,32,04,358,22,57,20,119,26*7C
$GPRMC,013212.000,A,5410.4740,N,08326.6362,E,0.93,47.09,061016,,,A*54
$GPGGA,013213.000,5410.4741,N,08326.6356,E,1,09,1.1,246.1,M,-37.9,M,,0000*79
$GPGSA,A,3,17,19,28,24,06,01,03,22,11,,,,1.9,1.1,1.6*3B
$GPRMC,013213.000,A,5410.4741,N,08326.6356,E,1.26,339.86,061016,,,A*61
$GPGGA,013214.000,5410.4742,N,08326.6350,E,1,09,1.1,246.2,M,-37.9,M,,0000*78
$GPGSA,A,3,17,19,28,24,06,01,03,22,11,,,,1.9,1.1,1.6*3B
$GPRMC,013214.000,A,5410.4742,N,08326.6350,E,1.47,314.59,061016,,,A*69
$GPGGA,013215.000,5410.4744,N,08326.6344,E,1,09,1.1,246.4,M,-37.9,M,,0000*7C
$GPGSA,A,3,17,19,28,24,06,01,03,22,11,,,,1.9,1.1,1.6*3B
$GPRMC,013215.000,A,5410.4744,N,08326.6344,E,1.35,306.02,061016,,,A*63
$GPGGA,013216.000,5410.4746,N,08326.6339,E,1,09,1.1,246.6,M,-37.9,M,,0000*75
$GPGSA,A,3,17,19,28,24,06,01,03,22,11,,,,1.9,1.1,1.6*3B
$GPRMC,013216.000,A,5410.4746,N,08326.6339,E,1.23,300.82,061016,,,A*61
$GPGGA,013217.000,5410.4747,N,08326.6335,E,1,09,1.1,246.9,M,-37.9,M,,0000*76
$GPGSA,A,3,17,19,28,24,06,01,03,22,11,,,,1.9,1.1,1.6*3B
$GPGSV,3,1,12,17,88,073,30,19,67,247,24,28,45,124,35,24,36,295,20*72
$GPGSV,3,2,12,06,28,190,17,01,24,047,33,03,20,086,31,22,20,065,34*76
$GPGSV,3,3,12,11,07,053,20,12,05,299,16,32,04,358,22,57,20,119,27*7D
$GPRMC,013217.000,A,5410.4747,N,08326.6335,E,1.11,300.82,061016,,,A*6C
$GPGGA,013218.000,5410.4747,N,08326.6331,E,1,09,1.1,247.0,M,-37.9,M,,0000*75
$GPGSA,A,3,17,19,28,24,06,01,03,22,11,,,,1.9,1.1,1.6*3B
$GPRMC,013218.000,A,5410.4747,N,08326.6331,E,1.13,300.82,061016,,,A*65
$GPGGA,013219.000,5410.4746,N,08326.6326,E,1,09,1.1,247.2,M,-37.9,M,,0000*71
$GPGSA,A,3,17,19,28,24,06,01,03,22,11,,,,1.9,1.1,1.6*3B
$GPRMC,013219.000,A,5410.4746,N,08326.6326,E,1.18,279.31,061016,,,A*6F
$GPGGA,013220.000,5410.4746,N,08326.6321,E,1,09,1.1,247.4,M,-37.9,M,,0000*7A
$GPGSA,A,3,17,19,28,24,06,01,03,22,11,,,,1.9,1.1,1.6*3B
$GPRMC,013220.000,A,5410.4746,N,08326.6321,E,1.23,268.36,061016,,,A*6D
$GPGGA,013221.000,5410.4745,N,08326.6316,E,1,09,1.1,247.7,M,-37.9,M,,0000*7F
$GPGSA,A,3,17,19,28,24,06,01,03,22,11,,,,1.9,1.1,1.6*3B
$GPRMC,013221.000,A,5410.4745,N,08326.6316,E,1.31,262.55,061016,,,A*67
$GPGGA,013222.000,5410.4744,N,08326.6312,E,1,09,1.1,248.0,M,-37.9,M,,0000*71
$GPGSA,A,3,17,19,28,24,06,01,03,22,11,,,,1.9,1.1,1.6*3B
$GPGSV,3,1,12,17,88,073,30,19,67,247,20,28,45,124,35,24,36,295,20*76
$GPGSV,3,2,12,06,28,190,16,01,24,047,34,03,20,086,31,22,20,065,35*71
$GPGSV,3,3,12,11,07,053,26,12,05,299,18,32,04,358,22,57,20,119,28*7A
$GPRMC,013222.000,A,5410.4744,N,08326.6312,E,1.36,260.13,061016,,,A*66
$GPGGA,013223.000,5410.4744,N,08326.6306,E,1,08,1.1,248.2,M,-37.9,M,,0000*76
$GPGSA,A,3,17,28,24,06,01,03,22,11,,,,,2.0,1.1,1.7*38
$GPRMC,013223.000,A,5410.4744,N,08326.6306,E,1.50,261.00,061016,,,A*61
$GPGGA,013224.000,5410.4744,N,08326.6298,E,1,09,1.1,248.4,M,-37.9,M,,0000*70
$GPGSA,A,3,17,19,28,24,06,01,03,22,11,,,,1.9,1.1,1.6*3B
$GPRMC,013224.000,A,5410.4744,N,08326.6298,E,1.79,266.21,061016,,,A*6F
$GPGGA,013225.000,5410.4744,N,08326.6290,E,1,09,1.1,248.6,M,-37.9,M,,0000*7B
$GPGSA,A,3,17,19,28,24,06,01,03,22,11,,,,1.9,1.1,1.6*3B
$GPRMC,013225.000,A,5410.4744,N,08326.6290,E,2.00,273.53,061016,,,A*6A
$GPGGA,013226.000,5410.4746,N,08326.6282,E,1,09,1.1,248.9,M,-37.9,M,,0000*76
$GPGSA,A,3,17,19,28,24,06,01,03,22,11,,,,1.9,1.1,1.6*3B
$GPRMC,013226.000,A,5410.4746,N,08326.6282,E,2.15,280.40,061016,,,A*62
$GPGGA,013227.000,5410.4748,N,08326.6273,E,1,09,1.1,249.1,M,-37.9,M,,0000*7E
$GPGSA,A,3,17,19,28,24,06,01,03,22,11,,,,1.9,1.1,1.6*3B
$GPGSV,3,1,12,17,88,073,30,19,67,247,22,28,45,124,35,24,36,295,21*75
$GPGSV,3,2,12,06,28,190,17,01,24,047,34,03,20,086,32,22,20,065,35*73
$GPGSV,3,3,12,11,07,053,30,12,05,299,19,32,04,358,21,57,20,119,29*7E
$GPRMC,013227.000,A,5410.4748,N,08326.6273,E,2.06,285.24,061016,,,A*66
$GPGGA,013228.000,5410.4750,N,08326.6266,E,1,09,1.1,249.4,M,-37.9,M,,0000*79
$GPGSA,A,3,17,19,28,24,06,01,03,22,11,,,,1.9,1.1,1.6*3B
$GPRMC,013228.000,A,5410.4750,N,08326.6266,E,1.81,285.10,061016,,,A*6F
$GPGGA,013229.000,5410.4751,N,08326.6259,E,1,09,1.1,249.6,M,-37.9,M,,0000*77
$GPGSA,A,3,17,19,28,24,06,01,03,22,11,,,,1.9,1.1,1.6*3B
$GPRMC,013229.000,A,5410.4751,N,08326.6259,E,1.66,281.91,061016,,,A*67
$GPGGA,013230.000,5410.4752,N,08326.6253,E,1,09,1.1,249.9,M,-37.9,M,,0000*79
$GPGSA,A,3,17,19,28,24,06,01,03,22,11,,,,1.9,1.1,1.6*3B
$GPRMC,013230.000,A,5410.4752,N,08326.6253,E,1.51,277.07,061016,,,A*64
$GPGGA,013231.000,5410.4752,N,08326.6247,E,1,09,1.1,250.1,M,-37.9,M,,0000*7D
$GPGSA,A,3,17,19,28,24,06,01,03,22,11,,,,1.9,1.1,1.6*3B
$GPRMC,013231.000,A,5410.4752,N,08326.6247,E,1.42,271.97,061016,,,A*6D
$GPGGA,013232.000,5410.4751,N,08326.6241,E,1,09,1.1,250.4,M,-37.9,M,,0000*7E
$GPGSA,A,3,17,19,28,24,06,01,03,22,11,,,,1.9,1.1,1.6*3B
$GPGSV,3,1,12,17,88,073,30,19,67,247,18,28,45,124,35,24,36,295,20*7D
$GPGSV,3,2,12,06,28,190,19,01,24,047,34,03,20,086,33,22,20,065,35*7C
$GPGSV,3,3,12,11,07,053,31,12,05,299,19,32,04,358,21,57,20,119,30*77
$GPRMC,013232.000,A,5410.4751,N,08326.6241,E,1.70,265.78,061016,,,A*6E
$GPGGA,013233.000,5410.4750,N,08326.6235,E,1,09,1.1,250.8,M,-37.9,M,,0000*71
$GPGSA,A,3,17,19,28,24,06,01,03,22,11,,,,1.9,1.1,1.6*3B
$GPRMC,013233.000,A,5410.4750,N,08326.6235,E,1.89,261.44,061016,,,A*60
$GPGGA,013234.000,5410.4750,N,08326.6228,E,1,09,1.1,251.2,M,-37.9,M,,0000*71
$GPGSA,A,3,17,19,28,24,06,01,03,22,11,,,,1.9,1.1,1.6*3B
$GPRMC,013234.000,A,5410.4750,N,08326.6228,E,2.03,260.49,061016,,,A*66
$GPGGA,013235.000,5410.4749,N,08326.6220,E,1,09,1.1,251.6,M,-37.9,M,,0000*74
$GPGSA,A,3,17,19,28,24,06,01,03,22,11,,,,1.9,1.1,1.6*3B
$GPRMC,013235.000,A,5410.4749,N,08326.6220,E,2.17,262.28,061016,,,A*67
$GPGGA,013236.000,5410.4749,N,08326.6213,E,1,09,1.1,252.1,M,-37.9,M,,0000*73
$GPGSA,A,3,17,19,28,24,06,01,03,22,11,,,,1.9,1.1,1.6*3B
$GPRMC,013236.000,A,5410.4749,N,08326.6213,E,2.09,263.96,061016,,,A*6F
$GPGGA,013237.000,5410.4749,N,08326.6205,E,1,09,1.1,252.6,M,-37.9,M,,0000*72
$GPGSA,A,3,17,19,28,24,06,01,03,22,11,,,,1.9,1.1,1.6*3B
$GPGSV,3,1,12,17,88,073,30,19,67,247,20,28,45,124,35,24,36,295,20*76
$GPGSV,3,2,12,06,28,190,19,01,24,047,34,03,20,086,33,22,20,065,35*7C
$GPGSV,3,3,12,11,07,053,31,12,05,299,18,32,04,358,20,57,20,119,30*77
$GPRMC,013237.000,A,5410.4749,N,08326.6205,E,2.19,264.80,061016,,,A*68
$GPGGA,013238.000,5410.4749,N,08326.6197,E,1,09,1.1,253.0,M,-37.9,M,,0000*72
$GPGSA,A,3,17,19,28,24,06,01,03,22,11,,,,1.9,1.1,1.6*3B
$GPRMC,013238.000,A,5410.4749,N,08326.6197,E,2.31,263.98,061016,,,A*6B
$GPGGA,013239.000,5410.4748,N,08326.6189,E,1,09,1.1,253.5,M,-37.9,M,,0000*78
$GPGSA,A,3,17,19,28,24,06,01,03,22,11,,,,1.9,1.1,1.6*3B
$GPRMC,013239.000,A,5410.4748,N,08326.6189,E,2.30,263.20,061016,,,A*66
$GPGGA,013240.000,5410.4748,N,08326.6182,E,1,09,1.1,254.0,M,-37.9,M,,0000*7F
$GPGSA,A,3,17,19,28,24,06,01,03,22,11,,,,1.9,1.1,1.6*3B
$GPRMC,013240.000,A,5410.4748,N,08326.6182,E,1.75,263.17,061016,,,A*65
$GPGGA,013241.000,5410.4748,N,08326.6179,E,1,09,1.1,254.5,M,-37.9,M,,0000*7F
$GPGSA,A,3,17,19,28,24,06,01,03,22,11,,,,1.9,1.1,1.6*3B
$GPRMC,013241.000,A,5410.4748,N,08326.6179,E,0.86,263.17,061016,,,A*6D
$GPGGA,013242.000,5410.4748,N,08326.6181,E,1,09,1.1,255.0,M,-37.9,M,,0000*7F
$GPGSA,A,3,17,19,28,24,06,01,03,22,11,,,,1.9,1.1,1.6*3B
$GPGSV,3,1,12,17,88,073,30,19,67,247,20,28,45,124,35,24,36,295,23*75
$GPGSV,3,2,12,06,28,190,19,01,24,047,34,03,20,086,33,22,20,065,35*7C
$GPGSV,3,3,12,11,07,053,31,12,05,299,19,32,04,358,20,57,20,119,31*77
$GPRMC,013242.000,A,5410.4748,N,08326.6181,E,0.32,263.17,061016,,,A*66
$GPGGA,013243.000,5410.4748,N,08326.6191,E,1,09,1.1,255.8,M,-37.9,M,,0000*77
$GPGSA,A,3,17,19,28,24,06,01,03,22,11,,,,1.9,1.1,1.6*3B
$GPRMC,013243.000,A,5410.4748,N,08326.6191,E,1.08,263.17,061016,,,A*6E
$GPGGA,013244.000,5410.4749,N,08326.6205,E,1,09,1.1,256.7,M,-37.9,M,,0000*73
$GPGSA,A,3,17,19,28,24,06,01,03,22,11,,,,1.9,1.1,1.6*3B
$GPRMC,013244.000,A,5410.4749,N,08326.6205,E,1.59,153.31,061016,,,A*66
$GPGGA,013245.000,5410.4749,N,08326.6216,E,1,09,1.1,257.2,M,-37.9,M,,0000*74
$GPGSA,A,3,17,19,28,24,06,01,03,22,11,,,,1.9,1.1,1.6*3B
$GPRMC,013245.000,A,5410.4749,N,08326.6216,E,1.88,115.49,061016,,,A*64
$GPGGA,013246.000,5410.4750,N,08326.6227,E,1,09,1.1,257.6,M,-37.9,M,,0000*79
$GPGSA,A,3,17,19,28,24,06,01,03,22,11,,,,1.9,1.1,1.6*3B
$GPRMC,013246.000,A,5410.4750,N,08326.6227,E,1.88,98.82,061016,,,A*5E
$GPGGA,013247.000,5410.4751,N,08326.6237,E,1,09,1.1,257.9,M,-37.9,M,,0000*77
$GPGSA,A,3,17,19,28,24,06,01,03,22,11,,,,1.9,1.1,1.6*3B
$GPGSV,3,1,12,17,88,073,30,19,67,247,19,28,45,124,35,24,36,295,19*76
$GPGSV,3,2,12,06,28,190,17,01,24,047,35,03,20,086,33,22,20,065,36*70
$GPGSV,3,3,12,11,07,053,32,12,05,299,20,32,04,358,20,57,20,119,*7C
$GPRMC,013247.000,A,5410.4751,N,08326.6237,E,1.83,88.07,061016,,,A*58
$GPGGA,013248.000,5410.4753,N,08326.6248,E,1,09,1.1,258.3,M,-37.9,M,,0000*77
$GPGSA,A,3,17,19,28,24,06,01,03,22,11,,,,1.9,1.1,1.6*3B
$GPRMC,013248.000,A,5410.4753,N,08326.6248,E,1.96,78.91,061016,,,A*59
$GPGGA,013249.000,5410.4756,N,08326.6259,E,1,09,1.1,258.7,M,-37.9,M,,0000*77
$GPGSA,A,3,17,19,28,24,06,01,03,22,11,,,,1.9,1.1,1.6*3B
$GPRMC,013249.000,A,5410.4756,N,08326.6259,E,2.09,71.14,061016,,,A*5C
$GPGGA,013250.000,5410.4759,N,08326.6270,E,1,09,1.1,259.2,M,-37.9,M,,0000*7F
$GPGSA,A,3,17,19,28,24,06,01,03,22,11,,,,1.9,1.1,1.6*3B
$GPRMC,013250.000,A,5410.4759,N,08326.6270,E,1.98,67.13,061016,,,A*5B
$GPGGA,013251.000,5410.4762,N,08326.6279,E,1,09,1.1,259.6,M,-37.9,M,,0000*7B
$GPGSA,A,3,17,19,28,24,06,01,03,22,11,,,,1.9,1.1,1.6*3B
$GPRMC,013251.000,A,5410.4762,N,08326.6279,E,1.37,63.56,061016,,,A*5B
$GPGGA,013252.000,5410.4764,N,08326.6284,E,1,09,1.1,260.1,M,-37.9,M,,0000*71
$GPGSA,A,3,17,19,28,24,06,01,03,22,11,,,,1.9,1.1,1.6*3B
$GPGSV,3,1,12,17,88,073,29,19,67,247,18,28,45,124,34,24,36,295,20*74
$GPGSV,3,2,12,06,28,190,17,01,24,047,34,03,20,086,32,22,20,065,35*73
$GPGSV,3,3,12,11,07,053,31,12,05,299,13,32,04,358,20,57,20,119,*7F
$GPRMC,013252.000,A,5410.4764,N,08326.6284,E,0.71,63.56,061016,,,A*5F
$GPGGA,013253.000,5410.4765,N,08326.6288,E,1,09,1.1,260.6,M,-37.9,M,,0000*7A
$GPGSA,A,3,17,19,28,24,06,01,03,22,11,,,,1.9,1.1,1.6*3B
$GPRMC,013253.000,A,5410.4765,N,08326.6288,E,0.22,63.56,061016,,,A*55
$GPGGA,013254.000,5410.4765,N,08326.6288,E,1,08,1.6,260.9,M,-37.9,M,,0000*74
$GPGSA,A,3,17,19,28,06,01,03,22,11,,,,,2.4,1.6,1.8*3A
$GPRMC,013254.000,A,5410.4765,N,08326.6288,E,0.52,63.56,061016,,,A*55
$GPGGA,013255.000,5410.4762,N,08326.6287,E,1,09,1.1,261.3,M,-37.9,M,,0000*70
$GPGSA,A,3,17,19,28,24,06,01,03,22,11,,,,1.9,1.1,1.6*3B
$GPRMC,013255.000,A,5410.4762,N,08326.6287,E,1.44,130.02,061016,,,A*6C
$GPGGA,013256.000,5410.4758,N,08326.6284,E,1,09,1.1,261.6,M,-37.9,M,,0000*7C
$GPGSA,A,3,17,19,28,24,06,01,03,22,11,,,,1.9,1.1,1.6*3B
$GPRMC,013256.000,A,5410.4758,N,08326.6284,E,2.19,174.47,061016,,,A*6F
$GPGGA,013257.000,5410.4751,N,08326.6281,E,1,09,1.1,262.0,M,-37.9,M,,0000*74
$GPGSA,A,3,17,19,28,24,06,01,03,22,11,,,,1.9,1.1,1.6*3B
$GPGSV,3,1,12,17,88,073,29,19,67,247,19,28,45,124,34,24,36,295,16*70
$GPGSV,3,2,12,06,28,190,17,01,24,047,30,03,20,086,33,22,20,065,30*73
$GPGSV,3,3,12,11,07,053,31,02,00,206,18,12,05,299,17,32,04,358,14*7A
$GPRMC,013257.000,A,5410.4751,N,08326.6281,E,2.77,191.41,061016,,,A*67
$GPGGA,013258.000,5410.4744,N,08326.6278,E,1,09,1.1,262.4,M,-37.9,M,,0000*7D
$GPGSA,A,3,17,19,28,24,06,01,03,22,11,,,,1.9,1.1,1.6*3B
$GPRMC,013258.000,A,5410.4744,N,08326.6278,E,3.21,195.36,061016,,,A*6C
$GPGGA,013259.000,5410.4736,N,08326.6275,E,1,09,1.1,262.9,M,-37.9,M,,0000*79
$GPGSA,A,3,17,19,28,24,06,01,03,22,11,,,,1.9,1.1,1.6*3B
$GPRMC,013259.000,A,5410.4736,N,08326.6275,E,3.30,198.95,061016,,,A*61
$GPGGA,013300.000,5410.4728,N,08326.6272,E,1,09,1.1,263.5,M,-37.9,M,,0000*71
$GPGSA,A,3,17,19,28,24,06,01,03,22,11,,,,1.9,1.1,1.6*3B
$GPRMC,013300.000,A,5410.4728,N,08326.6272,E,3.19,202.48,061016,,,A*6F
$GPGGA,013301.000,5410.4721,N,08326.6271,E,1,09,1.1,264.3,M,-37.9,M,,0000*7B
$GPGSA,A,3,17,19,28,24,06,01,03,22,11,,,,1.9,1.1,1.6*3B
$GPRMC,013301.000,A,5410.4721,N,08326.6271,E,3.01,207.16,061016,,,A*63
$GPGGA,013302.000,5410.4715,N,08326.6269,E,1,09,1.1,265.3,M,-37.9,M,,0000*77
$GPGSA,A,3,17,19,28,24,06,01,03,22,11,,,,1.9,1.1,1.6*3B
$GPGSV,3,1,12,17,88,073,29,19,67,247,21,28,45,124,34,24,36,295,24*7A
$GPGSV,3,2,12,06,28,190,17,01,24,047,30,03,20,086,33,22,20,065,31*72
$GPGSV,3,3,12,11,07,053,30,02,00,206,17,12,05,299,17,32,04,358,22*71
$GPRMC,013302.000,A,5410.4715,N,08326.6269,E,2.92,214.26,061016,,,A*64
$GPGGA,013303.000,5410.4710,N,08326.6268,E,1,09,1.1,266.2,M,-37.9,M,,0000*70
$GPGSA,A,3,17,19,28,24,06,01,03,22,11,,,,1.9,1.1,1.6*3B
$GPRMC,013303.000,A,5410.4710,N,08326.6268,E,2.80,218.71,061016,,,A*6C
$GPGGA,013304.000,5410.4705,N,08326.6265,E,1,08,1.9,267.0,M,-37.9,M,,0000*74
$GPGSA,A,3,17,19,28,24,01,03,22,11,,,,,3.1,1.9,2.5*3F
$GPRMC,013304.000,A,5410.4705,N,08326.6265,E,2.69,223.84,061016,,,A*67
$GPGGA,013305.000,5410.4701,N,08326.6255,E,1,08,1.9,267.3,M,-37.9,M,,0000*71
$GPGSA,A,3,17,19,28,24,01,03,22,11,,,,,3.1,1.9,2.5*3F
$GPRMC,013305.000,A,5410.4701,N,08326.6255,E,2.65,230.22,061016,,,A*63
$GPGGA,013306.000,5410.4697,N,08326.6245,E,1,08,1.9,267.7,M,-37.9,M,,0000*79
$GPGSA,A,3,17,19,28,24,01,03,22,11,,,,,3.1,1.9,2.5*3F
$GPRMC,013306.000,A,5410.4697,N,08326.6245,E,2.68,236.24,061016,,,A*62
$GPGGA,013307.000,5410.4695,N,08326.6241,E,1,08,1.9,268.4,M,-37.9,M,,0000*72
$GPGSA,A,3,17,19,28,24,01,03,22,11,,,,,3.1,1.9,2.5*3F
$GPGSV,3,1,12,17,88,073,28,19,67,247,14,28,45,124,34,24,36,295,24*7D
$GPGSV,3,2,12,01,24,047,31,03,20,086,33,22,20,065,32,11,07,053,30*70
$GPGSV,3,3,12,02,00,206,16,06,28,190,10,12,05,299,17,32,04,358,13*75
$GPRMC,013307.000,A,5410.4695,N,08326.6241,E,2.43,240.00,061016,,,A*6B
$GPGGA,013308.000,5410.4692,N,08326.6237,E,1,08,1.9,269.2,M,-37.9,M,,0000*7C
$GPGSA,A,3,17,19,28,24,01,03,22,11,,,,,3.1,1.9,2.5*3F
$GPRMC,013308.000,A,5410.4692,N,08326.6237,E,2.22,240.48,061016,,,A*69
$GPGGA,013309.000,5410.4690,N,08326.6230,E,1,08,1.9,269.6,M,-37.9,M,,0000*7C
$GPGSA,A,3,17,19,28,24,01,03,22,11,,,,,3.1,1.9,2.5*3F
$GPRMC,013309.000,A,5410.4690,N,08326.6230,E,2.13,241.91,061016,,,A*6A
$GPGGA,013310.000,5410.4687,N,08326.6222,E,1,08,1.9,270.0,M,-37.9,M,,0000*7F
$GPGSA,A,3,17,19,28,24,01,03,22,11,,,,,3.1,1.9,2.5*3F
$GPRMC,013310.000,A,5410.4687,N,08326.6222,E,2.15,242.31,061016,,,A*68
$GPGGA,013311.000,5410.4685,N,08326.6214,E,1,07,1.9,270.3,M,-37.9,M,,0000*75
$GPGSA,A,3,17,28,24,01,03,22,11,,,,,,3.1,1.9,2.5*37
$GPRMC,013311.000,A,5410.4685,N,08326.6214,E,2.07,242.62,061016,,,A*6B
$GPGGA,013312.000,5410.4683,N,08326.6205,E,1,09,1.1,270.7,M,-37.9,M,,0000*72
$GPGSA,A,3,17,19,28,24,06,01,03,22,11,,,,1.9,1.1,1.6*3B
$GPGSV,3,1,12,17,88,073,29,19,67,247,16,28,45,124,34,24,36,295,20*7A
$GPGSV,3,2,12,06,28,190,12,01,24,047,31,03,20,086,33,22,20,065,32*75
$GPGSV,3,3,12,11,07,053,30,02,00,206,15,12,05,299,17,32,04,358,17*75
$GPRMC,013312.000,A,5410.4683,N,08326.6205,E,2.35,248.42,061016,,,A*67
$GPGGA,013313.000,5410.4682,N,08326.6196,E,1,09,1.1,271.1,M,-37.9,M,,0000*7C
$GPGSA,A,3,17,19,28,24,06,01,03,22,11,,,,1.9,1.1,1.6*3B
$GPRMC,013313.000,A,5410.4682,N,08326.6196,E,2.46,254.09,061016,,,A*68
$GPGGA,013314.000,5410.4681,N,08326.6185,E,1,09,1.1,271.5,M,-37.9,M,,0000*7E
$GPGSA,A,3,17,19,28,24,06,01,03,22,11,,,,1.9,1.1,1.6*3B
$GPRMC,013314.000,A,5410.4681,N,08326.6185,E,2.54,259.90,061016,,,A*60
$GPGGA,013315.000,5410.4682,N,08326.6174,E,1,09,1.1,271.9,M,-37.9,M,,0000*7E
$GPGSA,A,3,17,19,28,24,06,01,03,22,11,,,,1.9,1.1,1.6*3B
$GPRMC,013315.000,A,5410.4682,N,08326.6174,E,2.68,266.37,061016,,,A*62
$GPGGA,013316.000,5410.4683,N,08326.6162,E,1,09,1.1,272.1,M,-37.9,M,,0000*70
$GPGSA,A,3,17,19,28,24,06,01,03,22,11,,,,1.9,1.1,1.6*3B
$GPRMC,013316.000,A,5410.4683,N,08326.6162,E,2.57,277.39,061016,,,A*65
$GPGGA,013317.000,5410.4686,N,08326.6152,E,1,09,1.1,272.2,M,-37.9,M,,0000*74
$GPGSA,A,3,17,19,28,24,06,01,03,22,11,,,,1.9,1.1,1.6*3B
$GPGSV,3,1,12,17,88,073,29,19,67,247,16,28,45,124,35,24,36,295,20*7B
$GPGSV,3,2,12,06,28,190,19,01,24,047,31,03,20,086,32,22,20,065,27*7B
$GPGSV,3,3,12,11,07,053,29,12,05,299,24,32,04,358,18,57,20,119,32*78
$GPRMC,013317.000,A,5410.4686,N,08326.6152,E,2.42,287.34,061016,,,A*64
$GPGGA,013318.000,5410.4689,N,08326.6142,E,1,09,1.1,272.3,M,-37.9,M,,0000*74
$GPGSA,A,3,17,19,28,24,06,01,03,22,11,,,,1.9,1.1,1.6*3B
$GPRMC,013318.000,A,5410.4689,N,08326.6142,E,2.35,290.84,061016,,,A*68
$GPGGA,013319.000,5410.4691,N,08326.6131,E,1,09,1.1,272.2,M,-37.9,M,,0000*79
$GPGSA,A,3,17,19,28,24,06,01,03,22,11,,,,1.9,1.1,1.6*3B
$GPRMC,013319.000,A,5410.4691,N,08326.6131,E,2.22,293.09,061016,,,A*64
$GPGGA,013320.000,5410.4694,N,08326.6121,E,1,09,1.1,272.2,M,-37.9,M,,0000*77
$GPGSA,A,3,17,19,28,24,06,01,03,22,11,,,,1.9,1.1,1.6*3B
$GPRMC,013320.000,A,5410.4694,N,08326.6121,E,2.29,293.55,061016,,,A*68
$GPGGA,013321.000,5410.4697,N,08326.6120,E,1,09,1.1,273.1,M,-37.9,M,,0000*76
$GPGSA,A,3,17,19,28,24,06,01,03,22,11,,,,1.9,1.1,1.6*3B
$GPRMC,013321.000,A,5410.4697,N,08326.6120,E,2.00,292.87,061016,,,A*6E
$GPGGA,013322.000,5410.4700,N,08326.6119,E,1,09,1.1,274.1,M,-37.9,M,,0000*77
$GPGSA,A,3,17,19,28,24,06,01,03,22,11,,,,1.9,1.1,1.6*3B
$GPGSV,3,1,12,17,88,073,29,19,67,247,17,28,45,124,36,24,36,295,23*7A
$GPGSV,3,2,12,06,28,190,28,01,24,047,22,03,20,086,24,22,20,065,19*71
$GPGSV,3,3,12,11,07,053,20,12,05,299,15,32,04,358,17,57,20,119,30*7E
$GPRMC,013322.000,A,5410.4700,N,08326.6119,E,1.61,292.21,061016,,,A*60
$GPGGA,013323.000,5410.4702,N,08326.6117,E,1,09,1.1,274.7,M,-37.9,M,,0000*7C
$GPGSA,A,3,17,19,28,24,06,01,03,22,11,,,,1.9,1.1,1.6*3B
$GPRMC,013323.000,A,5410.4702,N,08326.6117,E,0.97,292.21,061016,,,A*65
$GPGGA,013324.000,5410.4705,N,08326.6117,E,1,09,1.1,275.1,M,-37.9,M,,0000*7B
$GPGSA,A,3,17,19,28,24,06,01,03,22,11,,,,1.9,1.1,1.6*3B
$GPRMC,013324.000,A,5410.4705,N,08326.6117,E,0.53,292.21,061016,,,A*6D
$GPGGA,013325.000,5410.4708,N,08326.6120,E,1,09,1.1,275.8,M,-37.9,M,,0000*7A
$GPGSA,A,3,17,19,28,24,06,01,03,22,11,,,,1.9,1.1,1.6*3B
$GPRMC,013325.000,A,5410.4708,N,08326.6120,E,1.04,292.21,061016,,,A*66
$GPGGA,013326.000,5410.4713,N,08326.6127,E,1,10,0.9,276.6,M,-37.9,M,,0000*78
$GPGSA,A,3,17,19,28,24,06,01,03,22,11,12,,,1.6,0.9,1.3*3B
$GPRMC,013326.000,A,5410.4713,N,08326.6127,E,1.45,337.48,061016,,,A*6C
$GPGGA,013327.000,5410.4718,N,08326.6137,E,1,10,0.9,277.4,M,-37.9,M,,0000*70
$GPGSA,A,3,17,19,28,24,06,01,03,22,11,12,,,1.6,0.9,1.3*3B
$GPGSV,3,1,12,17,87,071,29,19,68,248,19,28,44,124,37,24,36,294,19*71
$GPGSV,3,2,12,06,29,190,29,01,24,047,20,03,20,085,24,22,20,064,20*7B
$GPGSV,3,3,12,11,06,053,16,12,06,300,23,32,04,357,18,57,20,119,30*7D
$GPRMC,013327.000,A,5410.4718,N,08326.6137,E,2.07,16.01,061016,,,A*5F
$GPGGA,013328.000,5410.4723,N,08326.6150,E,1,09,1.0,278.1,M,-37.9,M,,0000*7C
$GPGSA,A,3,17,19,28,24,06,01,03,22,12,,,,1.6,1.0,1.3*33
$GPRMC,013328.000,A,5410.4723,N,08326.6150,E,2.80,35.99,061016,,,A*56
$GPGGA,013329.000,5410.4729,N,08326.6165,E,1,09,1.0,278.7,M,-37.9,M,,0000*77
$GPGSA,A,3,17,19,28,24,06,01,03,22,12,,,,1.6,1.0,1.3*33
$GPRMC,013329.000,A,5410.4729,N,08326.6165,E,3.26,47.47,061016,,,A*50
$GPGGA,013330.000,5410.4735,N,08326.6180,E,1,09,1.0,279.3,M,-37.9,M,,0000*7C
$GPGSA,A,3,17,19,28,24,06,01,03,22,12,,,,1.6,1.0,1.3*33
$GPRMC,013330.000,A,5410.4735,N,08326.6180,E,3.50,52.29,061016,,,A*53
$GPGGA,013331.000,5410.4742,N,08326.6197,E,1,10,0.9,279.9,M,-37.9,M,,0000*71
$GPGSA,A,3,17,19,28,24,06,01,03,22,11,12,,,1.6,0.9,1.3*3B
$GPRMC,013331.000,A,5410.4742,N,08326.6197,E,3.67,54.66,061016,,,A*5D
$PSRF156,23,1,0*09
$GPGGA,013332.000,5410.4748,N,08326.6213,E,1,10,0.9,280.5,M,-37.9,M,,0000*7D
$GPGSA,A,3,17,19,28,24,06,01,03,22,11,12,,,1.6,0.9,1.3*3B
$GPGSV,3,1,12,17,87,071,29,19,68,248,20,28,44,124,37,24,36,294,18*7A
$GPGSV,3,2,12,06,29,190,31,01,24,047,16,03,20,085,24,22,20,064,19*7D
$GPGSV,3,3,12,11,06,053,10,12,06,300,23,32,04,357,21,57,20,119,26*76
$GPRMC,013332.000,A,5410.4748,N,08326.6213,E,3.43,54.92,061016,,,A*56
$GPGGA,013333.000,5410.4754,N,08326.6228,E,1,10,0.9,281.1,M,-37.9,M,,0000*7C
$GPGSA,A,3,17,19,28,24,06,01,03,22,11,12,,,1.6,0.9,1.3*3B
$GPRMC,013333.000,A,5410.4754,N,08326.6228,E,3.23,54.19,061016,,,A*57
$GPGGA,013334.000,5410.4760,N,08326.6241,E,1,10,0.9,281.7,M,-37.9,M,,0000*75
$GPGSA,A,3,17,19,28,24,06,01,03,22,11,12,,,1.6,0.9,1.3*3B
$GPRMC,013334.000,A,5410.4760,N,08326.6241,E,2.99,50.04,061016,,,A*50
$GPGGA,013335.000,5410.4765,N,08326.6251,E,1,10,0.9,282.2,M,-37.9,M,,0000*76
$GPGSA,A,3,17,19,28,24,06,01,03,22,11,12,,,1.6,0.9,1.3*3B
$GPRMC,013335.000,A,5410.4765,N,08326.6251,E,2.61,47.63,061016,,,A*55
$GPGGA,013336.000,5410.4770,N,08326.6259,E,1,10,0.9,282.6,M,-37.9,M,,0000*7D
$GPGSA,A,3,17,19,28,24,06,01,03,22,11,12,,,1.6,0.9,1.3*3B
$GPRMC,013336.000,A,5410.4770,N,08326.6259,E,2.25,46.73,061016,,,A*5A
$GPGGA,013337.000,5410.4775,N,08326.6266,E,1,10,0.9,283.1,M,-37.9,M,,0000*73
$GPGSA,A,3,17,19,28,24,06,01,03,22,11,12,,,1.6,0.9,1.3*3B
$GPGSV,3,1,12,17,87,071,29,19,68,248,21,28,44,124,36,24,36,294,17*75
$GPGSV,3,2,12,06,29,190,31,01,24,047,22,03,20,085,25,22,20,064,18*7A
$GPGSV,3,3,12,11,06,053,12,12,06,300,14,32,04,357,15,57,20,119,*73
$GPRMC,013337.000,A,5410.4775,N,08326.6266,E,1.96,43.97,061016,,,A*56
$GPGGA,013338.000,5410.4779,N,08326.6271,E,1,10,0.9,283.5,M,-37.9,M,,0000*72
$GPGSA,A,3,17,19,28,24,06,01,03,22,11,12,,,1.6,0.9,1.3*3B
$GPRMC,013338.000,A,5410.4779,N,08326.6271,E,1.61,38.88,061016,,,A*59
$GPGGA,013339.000,5410.4783,N,08326.6275,E,1,10,0.9,284.0,M,-37.9,M,,0000*70
$GPGSA,A,3,17,19,28,24,06,01,03,22,11,12,,,1.6,0.9,1.3*3B
$GPRMC,013339.000,A,5410.4783,N,08326.6275,E,1.49,32.61,061016,,,A*5E
$GPGGA,013340.000,5410.4787,N,08326.6277,E,1,09,1.0,284.5,M,-37.9,M,,0000*7D
$GPGSA,A,3,17,19,28,24,06,03,22,11,12,,,,1.6,1.0,1.3*32
$GPRMC,013340.000,A,5410.4787,N,08326.6277,E,1.31,26.98,061016,,,A*5A
$GPGGA,013341.000,5410.4791,N,08326.6278,E,1,10,0.9,284.9,M,-37.9,M,,0000*78
$GPGSA,A,3,17,19,28,24,06,01,03,22,11,12,,,1.6,0.9,1.3*3B
$GPRMC,013341.000,A,5410.4791,N,08326.6278,E,1.27,19.28,061016,,,A*53
$GPGGA,013342.000,5410.4795,N,08326.6279,E,1,10,0.9,285.3,M,-37.9,M,,0000*75
$GPGSA,A,3,17,19,28,24,06,01,03,22,11,12,,,1.6,0.9,1.3*3B
$GPGSV,3,1,12,17,87,071,29,19,68,248,23,28,44,124,37,24,36,294,18*79
$GPGSV,3,2,12,06,29,190,35,01,24,047,08,03,20,085,21,22,20,064,18*72
$GPGSV,3,3,12,11,06,053,17,12,06,300,22,32,04,357,14,57,20,119,*72
$GPRMC,013342.000,A,5410.4795,N,08326.6279,E,1.19,14.04,061016,,,A*5B
$GPGGA,013343.000,5410.4798,N,08326.6280,E,1,10,0.9,285.7,M,-37.9,M,,0000*7B
$GPGSA,A,3,17,19,28,24,06,01,03,22,11,12,,,1.6,0.9,1.3*3B
$GPRMC,013343.000,A,5410.4798,N,08326.6280,E,1.29,10.69,061016,,,A*5D
$GPGGA,013344.000,5410.4802,N,08326.6280,E,1,09,1.0,286.1,M,-37.9,M,,0000*75
$GPGSA,A,3,17,19,28,06,01,03,22,11,12,,,,1.6,1.0,1.3*35
$GPRMC,013344.000,A,5410.4802,N,08326.6280,E,1.39,8.03,061016,,,A*62
$GPGGA,013345.000,5410.4806,N,08326.6280,E,1,09,1.0,286.5,M,-37.9,M,,0000*74
$GPGSA,A,3,17,19,28,06,01,03,22,11,12,,,,1.6,1.0,1.3*35
$GPRMC,013345.000,A,5410.4806,N,08326.6280,E,1.49,4.28,061016,,,A*65
$GPGGA,013346.000,5410.4810,N,08326.6278,E,1,10,0.9,286.9,M,-37.9,M,,0000*7B
$GPGSA,A,3,17,19,28,24,06,01,03,22,11,12,,,1.6,0.9,1.3*3B
$GPRMC,013346.000,A,5410.4810,N,08326.6278,E,1.46,359.64,061016,,,A*6A
$GPGGA,013347.000,5410.4814,N,08326.6277,E,1,10,0.9,287.4,M,-37.9,M,,0000*7D
$GPGSA,A,3,17,19,28,24,06,01,03,22,11,12,,,1.6,0.9,1.3*3B
$GPGSV,3,1,12,17,87,071,29,19,68,248,23,28,44,124,36,24,36,294,19*79
$GPGSV,3,2,12,06,29,190,35,01,24,047,19,03,20,085,21,22,20,064,19*73
$GPGSV,3,3,12,11,06,053,20,12,06,300,22,32,04,357,27,57,20,119,*76
$GPRMC,013347.000,A,5410.4814,N,08326.6277,E,1.40,354.46,061016,,,A*6B
$GPGGA,013348.000,5410.4818,N,08326.6275,E,1,10,0.9,287.7,M,-37.9,M,,0000*7F
$GPGSA,A,3,17,19,28,24,06,01,03,22,11,12,,,1.6,0.9,1.3*3B
$GPRMC,013348.000,A,5410.4818,N,08326.6275,E,1.47,352.17,061016,,,A*6F
$GPGGA,013349.000,5410.4822,N,08326.6274,E,1,09,1.0,288.0,M,-37.9,M,,0000*7E
$GPGSA,A,3,17,19,28,24,06,01,03,22,12,,,,1.6,1.0,1.3*33
$GPRMC,013349.000,A,5410.4822,N,08326.6274,E,1.74,351.85,061016,,,A*6E
$GPGGA,013350.000,5410.4827,N,08326.6273,E,1,09,1.0,288.3,M,-37.9,M,,0000*77
$GPGSA,A,3,17,19,28,24,06,01,03,22,12,,,,1.6,1.0,1.3*33
$GPRMC,013350.000,A,5410.4827,N,08326.6273,E,1.78,351.40,061016,,,A*61
$GPGGA,013351.000,5410.4831,N,08326.6272,E,1,09,1.0,288.5,M,-37.9,M,,0000*76
$GPGSA,A,3,17,19,28,24,06,01,03,22,12,,,,1.6,1.0,1.3*33
$GPRMC,013351.000,A,5410.4831,N,08326.6272,E,1.73,350.99,061016,,,A*68
$GPGGA,013352.000,5410.4836,N,08326.6271,E,1,09,1.0,288.6,M,-37.9,M,,0000*72
$GPGSA,A,3,17,19,28,24,06,01,03,22,12,,,,1.6,1.0,1.3*33
$GPGSV,3,1,12,17,87,071,29,19,68,248,24,28,44,124,36,24,36,294,19*7E
$GPGSV,3,2,12,06,29,190,34,01,24,047,18,03,20,085,16,22,20,064,18*76
$GPGSV,3,3,12,12,06,300,16,32,04,357,27,57,20,119,,11,06,053,*73
$GPRMC,013352.000,A,5410.4836,N,08326.6271,E,1.60,350.34,061016,,,A*6A
$GPGGA,013353.000,5410.4840,N,08326.6271,E,1,09,1.0,288.8,M,-37.9,M,,0000*7C
$GPGSA,A,3,17,19,28,24,06,01,03,22,12,,,,1.6,1.0,1.3*33
$GPRMC,013353.000,A,5410.4840,N,08326.6271,E,1.55,352.03,061016,,,A*6A
$GPGGA,013354.000,5410.4843,N,08326.6271,E,1,10,0.9,289.1,M,-37.9,M,,0000*70
$GPGSA,A,3,17,19,28,24,06,01,03,22,11,12,,,1.6,0.9,1.3*3B
$GPRMC,013354.000,A,5410.4843,N,08326.6271,E,1.55,356.18,061016,,,A*60
$GPGGA,013355.000,5410.4847,N,08326.6273,E,1,10,0.9,289.3,M,-37.9,M,,0000*75
$GPGSA,A,3,17,19,28,24,06,01,03,22,11,12,,,1.6,0.9,1.3*3B
$GPRMC,013355.000,A,5410.4847,N,08326.6273,E,1.81,2.51,061016,,,A*61
$GPGGA,013356.000,5410.4853,N,08326.6275,E,1,10,0.9,289.5,M,-37.9,M,,0000*73
$GPGSA,A,3,17,19,28,24,06,01,03,22,11,12,,,1.6,0.9,1.3*3B
$GPRMC,013356.000,A,5410.4853,N,08326.6275,E,2.21,8.00,061016,,,A*66
$GPGGA,013357.000,5410.4858,N,08326.6279,E,1,10,0.9,289.9,M,-37.9,M,,0000*79
$GPGSA,A,3,17,19,28,24,06,01,03,22,11,12,,,1.6,0.9,1.3*3B
$GPGSV,3,1,12,17,87,071,29,19,68,248,25,28,44,124,35,24,36,294,18*7D
$GPGSV,3,2,12,06,29,190,34,01,24,047,18,03,20,085,15,22,20,064,22*7C
$GPGSV,3,3,12,11,06,053,18,12,06,300,16,02,00,206,25,32,04,357,23*76
$GPRMC,013357.000,A,5410.4858,N,08326.6279,E,2.26,15.65,061016,,,A*58
$GPGGA,013358.000,5410.4863,N,08326.6286,E,1,10,0.9,290.2,M,-37.9,M,,0000*7D
$GPGSA,A,3,17,19,28,24,06,01,03,22,11,12,,,1.6,0.9,1.3*3B
$GPRMC,013358.000,A,5410.4863,N,08326.6286,E,2.66,27.24,061016,,,A*5F
$GPGGA,013359.000,5410.4868,N,08326.6297,E,1,10,0.9,290.6,M,-37.9,M,,0000*73
$GPGSA,A,3,17,19,28,24,06,01,03,22,11,12,,,1.6,0.9,1.3*3B
$GPRMC,013359.000,A,5410.4868,N,08326.6297,E,3.46,41.95,061016,,,A*5C
$GPGGA,013400.000,5410.4874,N,08326.6314,E,1,10,0.9,290.9,M,-37.9,M,,0000*70
$GPGSA,A,3,17,19,28,24,06,01,03,22,11,12,,,1.6,0.9,1.3*3B
$GPRMC,013400.000,A,5410.4874,N,08326.6314,E,4.31,53.00,061016,,,A*58
$GPGGA,013401.000,5410.4879,N,08326.6337,E,1,10,0.9,291.4,M,-37.9,M,,0000*71
$GPGSA,A,3,17,19,28,24,06,01,03,22,11,12,,,1.6,0.9,1.3*3B
$GPRMC,013401.000,A,5410.4879,N,08326.6337,E,5.41,62.25,061016,,,A*56
$GPGGA,013402.000,5410.4884,N,08326.6366,E,1,09,1.0,291.8,M,-37.9,M,,0000*78
$GPGSA,A,3,17,19,28,24,06,01,03,22,12,,,,1.6,1.0,1.3*33
$GPGSV,3,1,12,17,87,071,29,19,68,248,26,28,44,124,35,24,36,294,17*71
$GPGSV,3,2,12,06,29,190,34,01,24,047,16,03,20,085,22,22,20,064,19*7E
$GPGSV,3,3,12,12,06,300,16,02,00,206,26,11,06,053,13,57,20,119,*72
$GPRMC,013402.000,A,5410.4884,N,08326.6366,E,6.55,68.26,061016,,,A*5C
$GPGGA,013403.000,5410.4889,N,08326.6403,E,1,10,0.9,292.2,M,-37.9,M,,0000*79
$GPGSA,A,3,17,19,28,24,06,01,03,22,11,12,,,1.6,0.9,1.3*3B
$GPRMC,013403.000,A,5410.4889,N,08326.6403,E,7.93,71.77,061016,,,A*53
$GPGGA,013404.000,5410.4894,N,08326.6450,E,1,10,0.9,292.7,M,-37.9,M,,0000*71
$GPGSA,A,3,17,19,28,24,06,01,03,22,11,12,,,1.6,0.9,1.3*3B
$GPRMC,013404.000,A,5410.4894,N,08326.6450,E,9.44,73.95,061016,,,A*54
$GPGGA,013405.000,5410.4900,N,08326.6505,E,1,10,0.9,293.3,M,-37.9,M,,0000*78
$GPGSA,A,3,17,19,28,24,06,01,03,22,11,12,,,1.6,0.9,1.3*3B
