$GPGGA,074855.000,5459.8823,N,08244.5828,E,1,10,0.9,106.8,M,-36.2,M,,0000*7B
$GPGSA,A,3,02,25,05,29,12,06,09,31,23,19,,,1.6,0.9,1.4*35
$GPRMC,074855.000,A,5459.8823,N,08244.5828,E,2.02,349.19,020916,,,A*6E
$GPGGA,074855.200,5459.8824,N,08244.5828,E,1,10,0.9,106.8,M,-36.2,M,,0000*7E
$GPGSA,A,3,02,25,05,29,12,06,09,31,23,19,,,1.6,0.9,1.4*35
$GPRMC,074855.200,A,5459.8824,N,08244.5828,E,2.29,347.78,020916,,,A*6B
$GPGGA,074855.400,5459.8825,N,08244.5827,E,1,10,0.9,106.8,M,-36.2,M,,0000*76
$GPGSA,A,3,02,25,05,29,12,06,09,31,23,19,,,1.6,0.9,1.4*35
$GPGSV,3,1,11,02,72,084,45,25,48,259,41,05,44,173,38,29,39,294,41*71
$GPGSV,3,2,11,12,37,206,38,06,30,074,34,09,19,051,34,31,12,316,30*75
$GPGSV,3,3,11,23,10,024,34,19,07,119,31,20,02,206,35*4E
$GPRMC,074855.400,A,5459.8825,N,08244.5827,E,2.20,345.39,020916,,,A*6D
$GPGGA,074855.600,5459.8827,N,08244.5826,E,1,10,0.9,106.9,M,-36.2,M,,0000*76
$GPGSA,A,3,02,25,05,29,12,06,09,31,23,19,,,1.6,0.9,1.4*35
$GPRMC,074855.600,A,5459.8827,N,08244.5826,E,1.83,343.35,020916,,,A*6C
$GPGGA,074855.800,5459.8828,N,08244.5825,E,1,10,0.9,106.9,M,-36.2,M,,0000*74
$GPGSA,A,3,02,25,05,29,12,06,09,31,23,19,,,1.6,0.9,1.4*35
$GPRMC,074855.800,A,5459.8828,N,08244.5825,E,2.10,341.16,020916,,,A*64
$GPGGA,074856.000,5459.8829,N,08244.5824,E,1,10,0.9,106.9,M,-36.2,M,,0000*7F
$GPGSA,A,3,02,25,05,29,12,06,09,31,23,19,,,1.6,0.9,1.4*35
$GPRMC,074856.000,A,5459.8829,N,08244.5824,E,1.88,340.23,020916,,,A*6A
$GPGGA,074856.200,5459.8829,N,08244.5823,E,1,10,0.9,106.9,M,-36.2,M,,0000*7A
$GPGSA,A,3,02,25,05,29,12,06,09,31,23,19,,,1.6,0.9,1.4*35
$GPRMC,074856.200,A,5459.8829,N,08244.5823,E,1.58,338.36,020916,,,A*69
$GPGGA,074856.400,5459.8830,N,08244.5822,E,1,10,0.9,106.9,M,-36.2,M,,0000*75
$GPGSA,A,3,02,25,05,29,12,06,09,31,23,19,,,1.6,0.9,1.4*35
$GPGSV,3,1,11,02,72,084,45,25,48,259,41,05,44,173,38,29,39,294,35*72
$GPGSV,3,2,11,12,37,206,38,06,30,074,34,09,19,051,35,31,12,316,30*74
$GPGSV,3,3,11,23,10,024,34,19,07,119,34,20,02,206,34*4A
$GPRMC,074856.400,A,5459.8830,N,08244.5822,E,1.32,336.34,020916,,,A*66
$GPGGA,074856.600,5459.8831,N,08244.5821,E,1,10,0.9,106.9,M,-36.2,M,,0000*75
$GPGSA,A,3,02,25,05,29,12,06,09,31,23,19,,,1.6,0.9,1.4*35
$GPRMC,074856.600,A,5459.8831,N,08244.5821,E,1.13,336.34,020916,,,A*65
$GPGGA,074856.800,5459.8831,N,08244.5821,E,1,10,0.9,106.9,M,-36.2,M,,0000*7B
$GPGSA,A,3,02,25,05,29,12,06,09,31,23,19,,,1.6,0.9,1.4*35
$GPRMC,074856.800,A,5459.8831,N,08244.5821,E,1.09,336.34,020916,,,A*60
$GPGGA,074857.000,5459.8832,N,08244.5820,E,1,10,0.9,106.9,M,-36.2,M,,0000*70
$GPGSA,A,3,02,25,05,29,12,06,09,31,23,19,,,1.6,0.9,1.4*35
$GPRMC,074857.000,A,5459.8832,N,08244.5820,E,1.17,336.34,020916,,,A*64
$GPGGA,074857.200,5459.8832,N,08244.5819,E,1,10,0.9,106.9,M,-36.2,M,,0000*78
$GPGSA,A,3,02,25,05,29,12,06,09,31,23,19,,,1.6,0.9,1.4*35
$GPRMC,074857.200,A,5459.8832,N,08244.5819,E,1.35,334.33,020916,,,A*69
$GPGGA,074857.400,5459.8833,N,08244.5818,E,1,10,0.9,106.9,M,-36.2,M,,0000*7E
$GPGSA,A,3,02,25,05,29,12,06,09,31,23,19,,,1.6,0.9,1.4*35
$GPGSV,3,1,11,02,72,084,45,25,48,259,41,05,44,173,41,29,39,294,36*7F
$GPGSV,3,2,11,12,37,206,38,06,30,074,34,09,19,051,35,31,12,316,30*74
$GPGSV,3,3,11,23,10,024,35,19,07,119,36,20,02,206,34*49
$GPRMC,074857.400,A,5459.8833,N,08244.5818,E,1.30,332.29,020916,,,A*67
$GPGGA,074857.600,5459.8833,N,08244.5818,E,1,10,0.8,106.9,M,-36.2,M,,0000*7D
$GPGSA,A,3,02,25,05,29,12,06,09,31,23,19,,,1.6,0.8,1.4*34
$GPRMC,074857.600,A,5459.8833,N,08244.5818,E,1.38,329.81,020916,,,A*65
$GPGGA,074857.800,5459.8834,N,08244.5817,E,1,10,0.8,106.9,M,-36.2,M,,0000*7B
$GPGSA,A,3,02,25,05,29,12,06,09,31,23,19,,,1.6,0.8,1.4*34
$GPRMC,074857.800,A,5459.8834,N,08244.5817,E,1.10,329.81,020916,,,A*69
$GPGGA,074858.000,5459.8834,N,08244.5816,E,1,10,0.8,106.9,M,-36.2,M,,0000*7D
$GPGSA,A,3,02,25,05,29,12,06,09,31,23,19,,,1.6,0.8,1.4*34
$GPRMC,074858.000,A,5459.8834,N,08244.5816,E,1.07,329.81,020916,,,A*69
$GPGGA,074858.200,5459.8835,N,08244.5815,E,1,10,0.8,106.9,M,-36.2,M,,0000*7D
$GPGSA,A,3,02,25,05,29,12,06,09,31,23,19,,,1.6,0.8,1.4*34
$GPRMC,074858.200,A,5459.8835,N,08244.5815,E,1.13,329.81,020916,,,A*6C
$GPGGA,074858.400,5459.8835,N,08244.5815,E,1,10,0.8,106.9,M,-36.2,M,,0000*7B
$GPGSA,A,3,02,25,05,29,12,06,09,31,23,19,,,1.6,0.8,1.4*34
$GPGSV,3,1,11,02,72,084,45,25,48,259,41,05,44,173,43,29,39,294,38*73
$GPGSV,3,2,11,12,37,206,37,06,30,074,39,09,19,051,35,31,12,316,34*72
$GPGSV,3,3,11,23,10,024,34,19,07,119,37,20,02,206,34*49
$GPRMC,074858.400,A,5459.8835,N,08244.5815,E,0.87,329.81,020916,,,A*66
$GPGGA,074858.600,5459.8835,N,08244.5814,E,1,10,0.8,106.9,M,-36.2,M,,0000*78
$GPGSA,A,3,02,25,05,29,12,06,09,31,23,19,,,1.6,0.8,1.4*34
$GPRMC,074858.600,A,5459.8835,N,08244.5814,E,0.47,329.81,020916,,,A*69
$GPGGA,074858.800,5459.8835,N,08244.5814,E,1,10,0.8,106.9,M,-36.2,M,,0000*76
$GPGSA,A,3,02,25,05,29,12,06,09,31,23,19,,,1.6,0.8,1.4*34
$GPRMC,074858.800,A,5459.8835,N,08244.5814,E,0.39,329.81,020916,,,A*6E
$GPGGA,074859.000,5459.8836,N,08244.5814,E,1,10,0.8,106.9,M,-36.2,M,,0000*7C
$GPGSA,A,3,02,25,05,29,12,06,09,31,23,19,,,1.6,0.8,1.4*34
$GPRMC,074859.000,A,5459.8836,N,08244.5814,E,0.19,329.81,020916,,,A*66
$GPGGA,074859.200,5459.8836,N,08244.5814,E,1,10,0.8,106.9,M,-36.2,M,,0000*7E
$GPGSA,A,3,02,25,05,29,12,06,09,31,23,19,,,1.6,0.8,1.4*34
$GPRMC,074859.200,A,5459.8836,N,08244.5814,E,0.16,329.81,020916,,,A*6B
$GPGGA,074859.400,5459.8836,N,08244.5814,E,1,10,0.8,106.9,M,-36.2,M,,0000*78
$GPGSA,A,3,02,25,05,29,12,06,09,31,23,19,,,1.6,0.8,1.4*34
$GPGSV,3,1,11,02,72,084,45,25,48,259,41,05,44,173,41,29,39,294,39*70
$GPGSV,3,2,11,12,37,206,37,06,30,074,37,09,19,051,36,31,12,316,34*7F
$GPGSV,3,3,11,23,10,024,35,19,07,119,38,20,02,206,34*47
$GPRMC,074859.400,A,5459.8836,N,08244.5814,E,0.27,329.81,020916,,,A*6F
$GPGGA,074859.600,5459.8836,N,08244.5814,E,1,10,0.8,106.9,M,-36.2,M,,0000*7A
$GPGSA,A,3,02,25,05,29,12,06,09,31,23,19,,,1.6,0.8,1.4*34
$GPRMC,074859.600,A,5459.8836,N,08244.5814,E,0.23,329.81,020916,,,A*69
$GPGGA,074859.800,5459.8835,N,08244.5814,E,1,10,0.8,106.9,M,-36.2,M,,0000*77
$GPGSA,A,3,02,25,05,29,12,06,09,31,23,19,,,1.6,0.8,1.4*34
$GPRMC,074859.800,A,5459.8835,N,08244.5814,E,0.09,329.81,020916,,,A*6C
$GPGGA,074900.000,5459.8835,N,08244.5814,E,1,10,0.8,106.9,M,-36.2,M,,0000*72
$GPGSA,A,3,02,25,05,29,12,06,09,31,23,19,,,1.6,0.8,1.4*34
$GPRMC,074900.000,A,5459.8835,N,08244.5814,E,0.40,329.81,020916,,,A*64
$GPGGA,074900.200,5459.8835,N,08244.5814,E,1,10,0.8,106.9,M,-36.2,M,,0000*70
$GPGSA,A,3,02,25,05,29,12,06,09,31,23,19,,,1.6,0.8,1.4*34
$GPRMC,074900.200,A,5459.8835,N,08244.5814,E,0.60,329.81,020916,,,A*64
$GPGGA,074900.400,5459.8835,N,08244.5815,E,1,10,0.8,106.9,M,-36.2,M,,0000*77
$GPGSA,A,3,02,25,05,29,12,06,09,31,23,19,,,1.6,0.8,1.4*34
$GPGSV,3,1,11,02,72,084,45,25,48,259,36,05,44,173,40,29,39,294,39*71
$GPGSV,3,2,11,12,37,206,38,06,30,074,37,09,19,051,36,31,12,316,33*77
$GPGSV,3,3,11,23,10,024,34,19,07,119,38,20,02,206,34*46
$GPRMC,074900.400,A,5459.8835,N,08244.5815,E,0.86,329.81,020916,,,A*6B
$GPGGA,074900.600,5459.8835,N,08244.5816,E,1,10,0.8,106.9,M,-36.2,M,,0000*76
$GPGSA,A,3,02,25,05,29,12,06,09,31,23,19,,,1.6,0.8,1.4*34
$GPRMC,074900.600,A,5459.8835,N,08244.5816,E,1.08,329.81,020916,,,A*6D
$GPGGA,074900.800,5459.8835,N,08244.5817,E,1,10,0.8,106.9,M,-36.2,M,,0000*79
$GPGSA,A,3,02,25,05,29,12,06,09,31,23,19,,,1.6,0.8,1.4*34
$GPRMC,074900.800,A,5459.8835,N,08244.5817,E,1.03,329.81,020916,,,A*69
$GPGGA,074901.000,5459.8835,N,08244.5818,E,1,10,0.8,106.9,M,-36.2,M,,0000*7F
$GPGSA,A,3,02,25,05,29,12,06,09,31,23,19,,,1.6,0.8,1.4*34
$GPRMC,074901.000,A,5459.8835,N,08244.5818,E,1.35,25.17,020916,,,A*5A
$GPGGA,074901.200,5459.8835,N,08244.5819,E,1,10,0.8,106.9,M,-36.2,M,,0000*7C
$GPGSA,A,3,02,25,05,29,12,06,09,31,23,19,,,1.6,0.8,1.4*34
$GPRMC,074901.200,A,5459.8835,N,08244.5819,E,1.24,45.55,020916,,,A*59
$GPGGA,074901.400,5459.8834,N,08244.5821,E,1,10,0.8,106.9,M,-36.2,M,,0000*70
$GPGSA,A,3,02,25,05,29,12,06,09,31,23,19,,,1.6,0.8,1.4*34
$GPGSV,3,1,11,02,72,084,45,25,48,259,35,05,44,173,40,29,39,294,40*7C
$GPGSV,3,2,11,12,37,206,38,06,30,074,37,09,19,051,36,31,12,316,33*77
$GPGSV,3,3,11,23,10,024,34,19,07,119,38,20,02,206,34*46
$GPRMC,074901.400,A,5459.8834,N,08244.5821,E,1.77,64.94,020916,,,A*5D
$GPGGA,074901.600,5459.8834,N,08244.5822,E,1,10,0.8,106.9,M,-36.2,M,,0000*71
$GPGSA,A,3,02,25,05,29,12,06,09,31,23,19,,,1.6,0.8,1.4*34
$GPRMC,074901.600,A,5459.8834,N,08244.5822,E,1.95,77.00,020916,,,A*5F
$GPGGA,074901.800,5459.8834,N,08244.5824,E,1,10,0.8,106.9,M,-36.2,M,,0000*79
$GPGSA,A,3,02,25,05,29,12,06,09,31,23,19,,,1.6,0.8,1.4*34
$GPRMC,074901.800,A,5459.8834,N,08244.5824,E,2.01,83.54,020916,,,A*53
$GPGGA,074902.000,5459.8834,N,08244.5826,E,1,10,0.8,106.9,M,-36.2,M,,0000*70
$GPGSA,A,3,02,25,05,29,12,06,09,31,23,19,,,1.6,0.8,1.4*34
$GPRMC,074902.000,A,5459.8834,N,08244.5826,E,1.93,85.99,020916,,,A*55
$GPGGA,074902.200,5459.8834,N,08244.5828,E,1,10,0.8,106.9,M,-36.2,M,,0000*7C
$GPGSA,A,3,02,25,05,29,12,06,09,31,23,19,,,1.6,0.8,1.4*34
$GPRMC,074902.200,A,5459.8834,N,08244.5828,E,2.04,86.97,020916,,,A*59
$GPGGA,074902.400,5459.8834,N,08244.5830,E,1,10,0.8,106.9,M,-36.2,M,,0000*73
$GPGSA,A,3,02,25,05,29,12,06,09,31,23,19,,,1.6,0.8,1.4*34
$GPGSV,3,1,11,02,72,084,45,25,48,259,34,05,44,173,39,29,39,294,40*73
$GPGSV,3,2,11,12,37,206,38,06,30,074,37,09,19,051,36,31,12,316,33*77
$GPGSV,3,3,11,23,10,024,35,19,07,119,38,20,02,206,34*47
$GPRMC,074902.400,A,5459.8834,N,08244.5830,E,2.16,85.99,020916,,,A*58
$GPGGA,074902.600,5459.8835,N,08244.5832,E,1,10,0.8,106.9,M,-36.2,M,,0000*72
$GPGSA,A,3,02,25,05,29,12,06,09,31,23,19,,,1.6,0.8,1.4*34
$GPRMC,074902.600,A,5459.8835,N,08244.5832,E,2.23,85.65,020916,,,A*5C
$GPGGA,074902.800,5459.8835,N,08244.5834,E,1,10,0.8,106.9,M,-36.2,M,,0000*7A
$GPGSA,A,3,02,25,05,29,12,06,09,31,23,19,,,1.6,0.8,1.4*34
$GPRMC,074902.800,A,5459.8835,N,08244.5834,E,1.81,85.55,020916,,,A*5C
$GPGGA,074903.000,5459.8835,N,08244.5835,E,1,10,0.8,106.9,M,-36.2,M,,0000*72
$GPGSA,A,3,02,25,05,29,12,06,09,31,23,19,,,1.6,0.8,1.4*34
$GPRMC,074903.000,A,5459.8835,N,08244.5835,E,1.62,86.52,020916,,,A*5D
$GPGGA,074903.200,5459.8835,N,08244.5837,E,1,10,0.8,106.9,M,-36.2,M,,0000*72
$GPGSA,A,3,02,25,05,29,12,06,09,31,23,19,,,1.6,0.8,1.4*34
$GPRMC,074903.200,A,5459.8835,N,08244.5837,E,1.35,86.43,020916,,,A*5F
$GPGGA,074903.400,5459.8835,N,08244.5838,E,1,10,0.8,106.9,M,-36.2,M,,0000*7B
$GPGSA,A,3,02,25,05,29,12,06,09,31,23,19,,,1.6,0.8,1.4*34
$GPGSV,3,1,11,02,72,084,45,25,48,259,34,05,44,173,38,29,39,294,40*72
$GPGSV,3,2,11,12,37,206,38,06,30,074,37,09,19,051,36,31,12,316,34*70
$GPGSV,3,3,11,23,10,024,35,19,07,119,38,20,02,206,34*47
$GPRMC,074903.400,A,5459.8835,N,08244.5838,E,1.18,86.33,020916,,,A*5E
$GPGGA,074903.600,5459.8835,N,08244.5839,E,1,10,0.8,106.9,M,-36.2,M,,0000*78
$GPGSA,A,3,02,25,05,29,12,06,09,31,23,19,,,1.6,0.8,1.4*34
$GPRMC,074903.600,A,5459.8835,N,08244.5839,E,0.97,86.33,020916,,,A*5B
$GPGGA,074903.800,5459.8835,N,08244.5840,E,1,10,0.8,106.9,M,-36.2,M,,0000*78
$GPGSA,A,3,02,25,05,29,12,06,09,31,23,19,,,1.6,0.8,1.4*34
$GPRMC,074903.800,A,5459.8835,N,08244.5840,E,0.74,86.33,020916,,,A*56
$GPGGA,074904.000,5459.8835,N,08244.5840,E,1,10,0.8,106.9,M,-36.2,M,,0000*77
$GPGSA,A,3,02,25,05,29,12,06,09,31,23,19,,,1.6,0.8,1.4*34
$GPRMC,074904.000,A,5459.8835,N,08244.5840,E,0.34,86.33,020916,,,A*5D
$GPGGA,074904.200,5459.8835,N,08244.5840,E,1,10,0.8,106.9,M,-36.2,M,,0000*75
$GPGSA,A,3,02,25,05,29,12,06,09,31,23,19,,,1.6,0.8,1.4*34
$GPRMC,074904.200,A,5459.8835,N,08244.5840,E,0.15,86.33,020916,,,A*5C
$GPGGA,074904.400,5459.8836,N,08244.5840,E,1,10,0.8,106.9,M,-36.2,M,,0000*70
$GPGSA,A,3,02,25,05,29,12,06,09,31,23,19,,,1.6,0.8,1.4*34
$GPGSV,3,1,11,02,72,084,45,25,48,259,34,05,44,173,28,29,39,294,39*7D
$GPGSV,3,2,11,12,37,206,39,06,30,074,37,09,19,051,37,31,12,316,39*7D
$GPGSV,3,3,11,23,10,024,40,19,07,119,38,20,02,206,34*45
$GPRMC,074904.400,A,5459.8836,N,08244.5840,E,0.05,86.33,020916,,,A*58
$GPGGA,074904.600,5459.8836,N,08244.5840,E,1,10,0.8,107.0,M,-36.2,M,,0000*7A
$GPGSA,A,3,02,25,05,29,12,06,09,31,23,19,,,1.6,0.8,1.4*34
$GPRMC,074904.600,A,5459.8836,N,08244.5840,E,0.09,86.33,020916,,,A*56
$GPGGA,074904.800,5459.8836,N,08244.5840,E,1,10,0.8,107.0,M,-36.2,M,,0000*74
$GPGSA,A,3,02,25,05,29,12,06,09,31,23,19,,,1.6,0.8,1.4*34
$GPRMC,074904.800,A,5459.8836,N,08244.5840,E,0.09,86.33,020916,,,A*58
$GPGGA,074905.000,5459.8836,N,08244.5840,E,1,10,0.8,107.0,M,-36.2,M,,0000*7D
$GPGSA,A,3,02,25,05,29,12,06,09,31,23,19,,,1.6,0.8,1.4*34
$GPRMC,074905.000,A,5459.8836,N,08244.5840,E,0.08,86.33,020916,,,A*50
$GPGGA,074905.200,5459.8836,N,08244.5840,E,1,10,0.8,107.0,M,-36.2,M,,0000*7F
$GPGSA,A,3,02,25,05,29,12,06,09,31,23,19,,,1.6,0.8,1.4*34
$GPRMC,074905.200,A,5459.8836,N,08244.5840,E,0.05,86.33,020916,,,A*5F
$GPGGA,074905.400,5459.8836,N,08244.5840,E,1,10,0.8,107.0,M,-36.2,M,,0000*79
$GPGSA,A,3,02,25,05,29,12,06,09,31,23,19,,,1.6,0.8,1.4*34
$GPGSV,3,1,11,02,72,084,45,25,48,259,34,05,44,173,28,29,39,294,39*7D
$GPGSV,3,2,11,12,37,206,39,06,30,074,36,09,19,051,37,31,12,316,40*72
$GPGSV,3,3,11,23,10,024,42,19,07,119,38,20,02,206,34*47
$GPRMC,074905.400,A,5459.8836,N,08244.5840,E,0.05,86.33,020916,,,A*59
$GPGGA,074905.600,5459.8836,N,08244.5840,E,1,10,0.8,107.0,M,-36.2,M,,0000*7B
$GPGSA,A,3,02,25,05,29,12,06,09,31,23,19,,,1.6,0.8,1.4*34
$GPRMC,074905.600,A,5459.8836,N,08244.5840,E,0.08,86.33,020916,,,A*56
$GPGGA,074905.800,5459.8836,N,08244.5840,E,1,10,0.8,107.0,M,-36.2,M,,0000*75
$GPGSA,A,3,02,25,05,29,12,06,09,31,23,19,,,1.6,0.8,1.4*34
$GPRMC,074905.800,A,5459.8836,N,08244.5840,E,0.06,86.33,020916,,,A*56
$GPGGA,074906.000,5459.8836,N,08244.5841,E,1,10,0.8,107.0,M,-36.2,M,,0000*7F
$GPGSA,A,3,02,25,05,29,12,06,09,31,23,19,,,1.6,0.8,1.4*34
$GPRMC,074906.000,A,5459.8836,N,08244.5841,E,0.30,86.33,020916,,,A*59
$GPGGA,074906.200,5459.8836,N,08244.5841,E,1,10,0.8,107.0,M,-36.2,M,,0000*7D
$GPGSA,A,3,02,25,05,29,12,06,09,31,23,19,,,1.6,0.8,1.4*34
$GPRMC,074906.200,A,5459.8836,N,08244.5841,E,0.47,86.33,020916,,,A*5B
$GPGGA,074906.400,5459.8836,N,08244.5841,E,1,10,0.8,107.0,M,-36.2,M,,0000*7B
$GPGSA,A,3,02,25,05,29,12,06,09,31,23,19,,,1.6,0.8,1.4*34
$GPGSV,3,1,11,02,72,084,45,25,48,259,33,05,44,173,28,29,39,294,39*7A
$GPGSV,3,2,11,12,37,206,40,06,30,074,36,09,19,051,37,31,12,316,40*7C
$GPGSV,3,3,11,23,10,024,42,19,07,119,38,20,02,206,34*47
$GPRMC,074906.400,A,5459.8836,N,08244.5841,E,0.58,86.33,020916,,,A*53
$GPGGA,074906.600,5459.8836,N,08244.5842,E,1,10,0.8,107.0,M,-36.2,M,,0000*7A
$GPGSA,A,3,02,25,05,29,12,06,09,31,23,19,,,1.6,0.8,1.4*34
$GPRMC,074906.600,A,5459.8836,N,08244.5842,E,0.66,86.33,020916,,,A*5F
$GPGGA,074906.800,5459.8836,N,08244.5843,E,1,10,0.8,107.0,M,-36.2,M,,0000*75
$GPGSA,A,3,02,25,05,29,12,06,09,31,23,19,,,1.6,0.8,1.4*34
$GPRMC,074906.800,A,5459.8836,N,08244.5843,E,1.03,86.33,020916,,,A*52
$GPGGA,074907.000,5459.8836,N,08244.5844,E,1,10,0.8,107.0,M,-36.2,M,,0000*7B
$GPGSA,A,3,02,25,05,29,12,06,09,31,23,19,,,1.6,0.8,1.4*34
$GPRMC,074907.000,A,5459.8836,N,08244.5844,E,1.63,80.82,020916,,,A*56
$GPGGA,074907.200,5459.8837,N,08244.5846,E,1,10,0.8,107.0,M,-36.2,M,,0000*7A
$GPGSA,A,3,02,25,05,29,12,06,09,31,23,19,,,1.6,0.8,1.4*34
$GPRMC,074907.200,A,5459.8837,N,08244.5846,E,2.27,79.33,020916,,,A*58
$GPGGA,074907.400,5459.8837,N,08244.5848,E,1,10,0.8,107.0,M,-36.2,M,,0000*72
$GPGSA,A,3,02,25,05,29,12,06,09,31,23,19,,,1.6,0.8,1.4*34
$GPGSV,3,1,11,02,72,084,44,25,48,259,33,05,44,173,28,29,39,294,39*7B
$GPGSV,3,2,11,12,37,206,41,06,30,074,33,09,19,051,37,31,12,316,40*78
$GPGSV,3,3,11,23,10,024,42,19,07,119,38,20,02,206,31*42
$GPRMC,074907.400,A,5459.8837,N,08244.5848,E,2.79,77.35,020916,,,A*53
$GPGGA,074907.600,5459.8837,N,08244.5851,E,1,10,0.8,107.1,M,-36.2,M,,0000*79
$GPGSA,A,3,02,25,05,29,12,06,09,31,23,19,,,1.6,0.8,1.4*34
$GPRMC,074907.600,A,5459.8837,N,08244.5851,E,3.40,76.76,020916,,,A*54
$GPGGA,074907.800,5459.8838,N,08244.5855,E,1,10,0.8,107.0,M,-36.2,M,,0000*7D
$GPGSA,A,3,02,25,05,29,12,06,09,31,23,19,,,1.6,0.8,1.4*34
$GPRMC,074907.800,A,5459.8838,N,08244.5855,E,4.01,75.64,020916,,,A*53
$GPGGA,074908.000,5459.8839,N,08244.5859,E,1,10,0.8,107.0,M,-36.2,M,,0000*77
$GPGSA,A,3,02,25,05,29,12,06,09,31,23,19,,,1.6,0.8,1.4*34
$GPRMC,074908.000,A,5459.8839,N,08244.5859,E,4.30,74.36,020916,,,A*5D
$GPGGA,074908.200,5459.8839,N,08244.5863,E,1,10,0.8,107.0,M,-36.2,M,,0000*7C
$GPGSA,A,3,02,25,05,29,12,06,09,31,23,19,,,1.6,0.8,1.4*34
$GPRMC,074908.200,A,5459.8839,N,08244.5863,E,4.74,73.00,020916,,,A*54
$GPGGA,074908.400,5459.8840,N,08244.5867,E,1,10,0.8,107.0,M,-36.2,M,,0000*70
$GPGSA,A,3,02,25,05,29,12,06,09,31,23,19,,,1.6,0.8,1.4*34
$GPGSV,3,1,11,02,72,084,44,25,48,259,34,05,44,173,37,29,39,294,38*73
$GPGSV,3,2,11,12,37,206,41,06,30,074,30,09,19,051,32,31,12,316,40*7E
$GPGSV,3,3,11,23,10,024,38,19,07,119,37,20,02,206,34*45
$GPRMC,074908.400,A,5459.8840,N,08244.5867,E,4.90,72.61,020916,,,A*54
$GPGGA,074908.600,5459.8841,N,08244.5872,E,1,10,0.8,107.0,M,-36.2,M,,0000*77
$GPGSA,A,3,02,25,05,29,12,06,09,31,23,19,,,1.6,0.8,1.4*34
$GPRMC,074908.600,A,5459.8841,N,08244.5872,E,5.22,72.48,020916,,,A*50
$GPGGA,074908.800,5459.8842,N,08244.5877,E,1,10,0.8,107.0,M,-36.2,M,,0000*7F
$GPGSA,A,3,02,25,05,29,12,06,09,31,23,19,,,1.6,0.8,1.4*34
$GPRMC,074908.800,A,5459.8842,N,08244.5877,E,5.23,71.45,020916,,,A*57
$GPGGA,074909.000,5459.8843,N,08244.5881,E,1,10,0.8,107.0,M,-36.2,M,,0000*7E
$GPGSA,A,3,02,25,05,29,12,06,09,31,23,19,,,1.6,0.8,1.4*34
$GPRMC,074909.000,A,5459.8843,N,08244.5881,E,5.21,73.93,020916,,,A*5D
$GPGGA,074909.200,5459.8844,N,08244.5886,E,1,10,0.8,107.0,M,-36.2,M,,0000*7C
$GPGSA,A,3,02,25,05,29,12,06,09,31,23,19,,,1.6,0.8,1.4*34
$GPRMC,074909.200,A,5459.8844,N,08244.5886,E,4.99,76.26,020916,,,A*56
$GPGGA,074909.400,5459.8844,N,08244.5891,E,1,10,0.8,107.0,M,-36.2,M,,0000*7C
$GPGSA,A,3,02,25,05,29,12,06,09,31,23,19,,,1.6,0.8,1.4*34
$GPGSV,3,1,11,02,72,084,44,25,48,259,34,05,44,173,41,29,39,294,27*7C
$GPGSV,3,2,11,12,37,206,41,06,30,074,32,09,19,051,32,31,12,316,38*73
$GPGSV,3,3,11,23,10,024,38,19,07,119,37,20,02,206,35*44
$GPRMC,074909.400,A,5459.8844,N,08244.5891,E,4.75,78.55,020916,,,A*5E
$GPGGA,074909.600,5459.8845,N,08244.5896,E,1,10,0.8,107.0,M,-36.2,M,,0000*78
$GPGSA,A,3,02,25,05,29,12,06,09,31,23,19,,,1.6,0.8,1.4*34
$GPRMC,074909.600,A,5459.8845,N,08244.5896,E,4.98,80.53,020916,,,A*58
$GPGGA,074909.800,5459.8845,N,08244.5901,E,1,10,0.8,107.0,M,-36.2,M,,0000*79
$GPGSA,A,3,02,25,05,29,12,06,09,31,23,19,,,1.6,0.8,1.4*34
$GPRMC,074909.800,A,5459.8845,N,08244.5901,E,5.10,83.47,020916,,,A*5E
$GPGGA,074910.000,5459.8845,N,08244.5906,E,1,10,0.8,107.0,M,-36.2,M,,0000*7E
$GPGSA,A,3,02,25,05,29,12,06,09,31,23,19,,,1.6,0.8,1.4*34
$GPRMC,074910.000,A,5459.8845,N,08244.5906,E,4.77,86.94,020916,,,A*52
$GPGGA,074910.200,5459.8845,N,08244.5910,E,1,10,0.8,107.1,M,-36.2,M,,0000*7A
$GPGSA,A,3,02,25,05,29,12,06,09,31,23,19,,,1.6,0.8,1.4*34
$GPRMC,074910.200,A,5459.8845,N,08244.5910,E,4.53,91.67,020916,,,A*5B
$GPGGA,074910.400,5459.8844,N,08244.5914,E,1,10,0.8,107.1,M,-36.2,M,,0000*79
$GPGSA,A,3,02,25,05,29,12,06,09,31,23,19,,,1.6,0.8,1.4*34
$GPGSV,3,1,11,02,72,084,45,25,48,259,37,05,44,173,41,29,39,294,30*78
$GPGSV,3,2,11,12,37,206,41,06,30,074,33,09,19,051,32,31,12,316,37*7D
$GPGSV,3,3,11,23,10,024,28,19,07,119,36,20,02,206,35*44
$GPRMC,074910.400,A,5459.8844,N,08244.5914,E,4.52,97.29,020916,,,A*55
$GPGGA,074910.600,5459.8844,N,08244.5919,E,1,10,0.8,107.1,M,-36.2,M,,0000*76
$GPGSA,A,3,02,25,05,29,12,06,09,31,23,19,,,1.6,0.8,1.4*34
$GPRMC,074910.600,A,5459.8844,N,08244.5919,E,4.44,102.61,020916,,,A*6C
$GPGGA,074910.800,5459.8843,N,08244.5923,E,1,10,0.8,107.1,M,-36.2,M,,0000*76
$GPGSA,A,3,02,25,05,29,12,06,09,31,23,19,,,1.6,0.8,1.4*34
$GPRMC,074910.800,A,5459.8843,N,08244.5923,E,4.56,107.11,020916,,,A*6D
$GPGGA,074911.000,5459.8842,N,08244.5927,E,1,10,0.8,107.1,M,-36.2,M,,0000*7A
$GPGSA,A,3,02,25,05,29,12,06,09,31,23,19,,,1.6,0.8,1.4*34
$GPRMC,074911.000,A,5459.8842,N,08244.5927,E,4.75,111.67,020916,,,A*66
$GPGGA,074911.200,5459.8840,N,08244.5931,E,1,10,0.8,107.1,M,-36.2,M,,0000*7D
$GPGSA,A,3,02,25,05,29,12,06,09,31,23,19,,,1.6,0.8,1.4*34
$GPRMC,074911.200,A,5459.8840,N,08244.5931,E,4.82,117.76,020916,,,A*6F
$GPGGA,074911.400,5459.8839,N,08244.5935,E,1,10,0.8,107.1,M,-36.2,M,,0000*71
$GPGSA,A,3,02,25,05,29,12,06,09,31,23,19,,,1.6,0.8,1.4*34
$GPGSV,3,1,11,02,72,084,44,25,48,259,36,05,44,173,40,29,39,294,33*7A
$GPGSV,3,2,11,12,37,206,41,06,30,074,33,09,19,051,33,31,12,316,38*73
$GPGSV,3,3,11,23,10,024,22,19,07,119,36,20,02,206,34*4F
$GPRMC,074911.400,A,5459.8839,N,08244.5935,E,4.77,121.66,020916,,,A*6D
$GPGGA,074911.600,5459.8837,N,08244.5938,E,1,10,0.8,107.2,M,-36.2,M,,0000*73
$GPGSA,A,3,02,25,05,29,12,06,09,31,23,19,,,1.6,0.8,1.4*34
$GPRMC,074911.600,A,5459.8837,N,08244.5938,E,5.03,125.85,020916,,,A*67
$GPGGA,074911.800,5459.8835,N,08244.5942,E,1,10,0.8,107.2,M,-36.2,M,,0000*72
$GPGSA,A,3,02,25,05,29,12,06,09,31,23,19,,,1.6,0.8,1.4*34
$GPRMC,074911.800,A,5459.8835,N,08244.5942,E,5.23,128.80,020916,,,A*6C
$GPGGA,074912.000,5459.8833,N,08244.5946,E,1,10,0.8,107.2,M,-36.2,M,,0000*7B
$GPGSA,A,3,02,25,05,29,12,06,09,31,23,19,,,1.6,0.8,1.4*34
$GPRMC,074912.000,A,5459.8833,N,08244.5946,E,5.67,132.27,020916,,,A*63
$GPGGA,074912.200,5459.8831,N,08244.5950,E,1,10,0.8,107.2,M,-36.2,M,,0000*7C
$GPGSA,A,3,02,25,05,29,12,06,09,31,23,19,,,1.6,0.8,1.4*34
$GPRMC,074912.200,A,5459.8831,N,08244.5950,E,5.73,138.05,020916,,,A*6B
$GPGGA,074912.400,5459.8828,N,08244.5953,E,1,10,0.8,107.2,M,-36.2,M,,0000*71
$GPGSA,A,3,02,25,05,29,12,06,09,31,23,19,,,1.6,0.8,1.4*34
$GPGSV,3,1,11,02,72,084,44,25,48,259,37,05,44,173,40,29,39,294,40*7F
$GPGSV,3,2,11,12,37,206,41,06,30,074,34,09,19,051,33,31,12,316,37*7B
$GPGSV,3,3,11,23,10,024,20,19,07,119,36,20,02,206,34*4D
$GPRMC,074912.400,A,5459.8828,N,08244.5953,E,5.78,142.62,020916,,,A*61
$GPGGA,074912.600,5459.8825,N,08244.5955,E,1,10,0.8,107.2,M,-36.2,M,,0000*78
$GPGSA,A,3,02,25,05,29,12,06,09,31,23,19,,,1.6,0.8,1.4*34
$GPRMC,074912.600,A,5459.8825,N,08244.5955,E,5.77,149.31,020916,,,A*6A
$GPGGA,074912.800,5459.8823,N,08244.5958,E,1,10,0.8,107.3,M,-36.2,M,,0000*7C
$GPGSA,A,3,02,25,05,29,12,06,09,31,23,19,,,1.6,0.8,1.4*34
$GPRMC,074912.800,A,5459.8823,N,08244.5958,E,5.58,154.59,020916,,,A*60
$GPGGA,074913.000,5459.8820,N,08244.5959,E,1,10,0.8,107.3,M,-36.2,M,,0000*77
$GPGSA,A,3,02,25,05,29,12,06,09,31,23,19,,,1.6,0.8,1.4*34
$GPRMC,074913.000,A,5459.8820,N,08244.5959,E,5.37,159.57,020916,,,A*61
$GPGGA,074913.200,5459.8817,N,08244.5961,E,1,10,0.8,107.3,M,-36.2,M,,0000*7A
$GPGSA,A,3,02,25,05,29,12,06,09,31,23,19,,,1.6,0.8,1.4*34
$GPRMC,074913.200,A,5459.8817,N,08244.5961,E,5.39,162.80,020916,,,A*60
$GPGGA,074913.400,5459.8814,N,08244.5962,E,1,10,0.8,107.3,M,-36.2,M,,0000*7C
$GPGSA,A,3,02,25,05,29,12,06,09,31,23,19,,,1.6,0.8,1.4*34
$GPGSV,3,1,11,02,72,084,44,25,48,259,41,05,44,173,40,29,39,294,39*70
$GPGSV,3,2,11,12,37,206,40,06,30,074,34,09,19,051,34,31,12,316,32*78
$GPGSV,3,3,11,23,10,024,20,19,07,119,36,20,02,206,34*4D
$GPRMC,074913.400,A,5459.8814,N,08244.5962,E,5.59,165.72,020916,,,A*6A
$GPGGA,074913.600,5459.8811,N,08244.5963,E,1,10,0.8,107.2,M,-36.2,M,,0000*7B
$GPGSA,A,3,02,25,05,29,12,06,09,31,23,19,,,1.6,0.8,1.4*34
$GPRMC,074913.600,A,5459.8811,N,08244.5963,E,5.59,168.32,020916,,,A*65
$GPGGA,074913.800,5459.8808,N,08244.5963,E,1,10,0.8,107.2,M,-36.2,M,,0000*7D
$GPGSA,A,3,02,25,05,29,12,06,09,31,23,19,,,1.6,0.8,1.4*34
$GPRMC,074913.800,A,5459.8808,N,08244.5963,E,5.76,171.20,020916,,,A*65
$GPGGA,074914.000,5459.8805,N,08244.5964,E,1,10,0.8,107.2,M,-36.2,M,,0000*78
$GPGSA,A,3,02,25,05,29,12,06,09,31,23,19,,,1.6,0.8,1.4*34
$GPRMC,074914.000,A,5459.8805,N,08244.5964,E,5.76,174.55,020916,,,A*67
$GPGGA,074914.200,5459.8802,N,08244.5964,E,1,10,0.8,107.2,M,-36.2,M,,0000*7D
$GPGSA,A,3,02,25,05,29,12,06,09,31,23,19,,,1.6,0.8,1.4*34
$GPRMC,074914.200,A,5459.8802,N,08244.5964,E,6.13,177.61,020916,,,A*66
$GPGGA,074914.400,5459.8798,N,08244.5963,E,1,10,0.8,107.2,M,-36.2,M,,0000*70
$GPGSA,A,3,02,25,05,29,12,06,09,31,23,19,,,1.6,0.8,1.4*34
$GPGSV,3,1,11,02,72,084,44,25,48,259,42,05,44,173,40,29,39,294,40*7D
$GPGSV,3,2,11,12,37,206,40,06,30,074,34,09,19,051,34,31,12,316,30*7A
$GPGSV,3,3,11,23,10,024,27,19,07,119,37,20,02,206,34*4B
$GPRMC,074914.400,A,5459.8798,N,08244.5963,E,6.28,179.31,020916,,,A*68
$GPGGA,074914.600,5459.8795,N,08244.5963,E,1,10,0.8,107.2,M,-36.2,M,,0000*7F
$GPGSA,A,3,02,25,05,29,12,06,09,31,23,19,,,1.6,0.8,1.4*34
$GPRMC,074914.600,A,5459.8795,N,08244.5963,E,6.18,180.07,020916,,,A*67
$GPGGA,074914.800,5459.8792,N,08244.5963,E,1,10,0.8,107.2,M,-36.2,M,,0000*76
$GPGSA,A,3,02,25,05,29,12,06,09,31,23,19,,,1.6,0.8,1.4*34
$GPRMC,074914.800,A,5459.8792,N,08244.5963,E,6.34,181.02,020916,,,A*64
$GPGGA,074915.000,5459.8788,N,08244.5963,E,1,10,0.8,107.2,M,-36.2,M,,0000*74
$GPGSA,A,3,02,25,05,29,12,06,09,31,23,19,,,1.6,0.8,1.4*34
$GPRMC,074915.000,A,5459.8788,N,08244.5963,E,6.51,182.02,020916,,,A*66
$GPGGA,074915.200,5459.8784,N,08244.5962,E,1,10,0.8,107.2,M,-36.2,M,,0000*7B
$GPGSA,A,3,02,25,05,29,12,06,09,31,23,19,,,1.6,0.8,1.4*34
$GPRMC,074915.200,A,5459.8784,N,08244.5962,E,6.49,181.81,020916,,,A*68
$GPGGA,074915.400,5459.8781,N,08244.5962,E,1,10,0.8,107.2,M,-36.2,M,,0000*78
$GPGSA,A,3,02,25,05,29,12,06,09,31,23,19,,,1.6,0.8,1.4*34
$GPGSV,3,1,11,02,72,084,45,25,48,259,42,05,44,173,40,29,39,294,41*7D
$GPGSV,3,2,11,12,37,206,40,06,30,074,36,09,19,051,34,31,12,316,33*7B
$GPGSV,3,3,11,23,10,024,32,19,07,119,36,20,02,206,34*4E
$GPRMC,074915.400,A,5459.8781,N,08244.5962,E,6.90,180.28,020916,,,A*6D
$GPGGA,074915.600,5459.8777,N,08244.5962,E,1,10,0.8,107.2,M,-36.2,M,,0000*73
$GPGSA,A,3,02,25,05,29,12,06,09,31,23,19,,,1.6,0.8,1.4*34
$GPRMC,074915.600,A,5459.8777,N,08244.5962,E,6.51,180.95,020916,,,A*6D
$GPGGA,074915.800,5459.8773,N,08244.5962,E,1,10,0.8,107.2,M,-36.2,M,,0000*79
$GPGSA,A,3,02,25,05,29,12,06,09,31,23,19,,,1.6,0.8,1.4*34
$GPRMC,074915.800,A,5459.8773,N,08244.5962,E,6.60,180.55,020916,,,A*69
$GPGGA,074916.000,5459.8770,N,08244.5962,E,1,10,0.8,107.2,M,-36.2,M,,0000*71
$GPGSA,A,3,02,25,05,29,12,06,09,31,23,19,,,1.6,0.8,1.4*34
$GPRMC,074916.000,A,5459.8770,N,08244.5962,E,6.49,180.38,020916,,,A*61
$GPGGA,074916.200,5459.8766,N,08244.5962,E,1,10,0.8,107.2,M,-36.2,M,,0000*74
$GPGSA,A,3,02,25,05,29,12,06,09,31,23,19,,,1.6,0.8,1.4*34
$GPRMC,074916.200,A,5459.8766,N,08244.5962,E,6.44,180.08,020916,,,A*6A
$GPGGA,074916.400,5459.8763,N,08244.5962,E,1,10,0.8,107.2,M,-36.2,M,,0000*77
$GPGSA,A,3,02,25,05,29,12,06,09,31,23,19,,,1.6,0.8,1.4*34
$GPGSV,3,1,11,02,72,084,45,25,48,259,41,05,44,173,39,29,39,294,41*70
$GPGSV,3,2,11,12,37,206,40,06,30,074,39,09,19,051,35,31,12,316,36*70
$GPGSV,3,3,11,23,10,024,34,19,07,119,36,20,02,206,34*48
$GPRMC,074916.400,A,5459.8763,N,08244.5962,E,6.52,178.31,020916,,,A*63
$GPGGA,074916.600,5459.8759,N,08244.5962,E,1,10,0.8,107.3,M,-36.2,M,,0000*7D
$GPGSA,A,3,02,25,05,29,12,06,09,31,23,19,,,1.6,0.8,1.4*34
$GPRMC,074916.600,A,5459.8759,N,08244.5962,E,6.46,176.62,020916,,,A*65
$GPGGA,074916.800,5459.8756,N,08244.5963,E,1,10,0.8,107.3,M,-36.2,M,,0000*7D
$GPGSA,A,3,02,25,05,29,12,06,09,31,23,19,,,1.6,0.8,1.4*34
$GPRMC,074916.800,A,5459.8756,N,08244.5963,E,6.61,175.38,020916,,,A*6C
$GPGGA,074917.000,5459.8752,N,08244.5963,E,1,10,0.8,107.3,M,-36.2,M,,0000*70
$GPGSA,A,3,02,25,05,29,12,06,09,31,23,19,,,1.6,0.8,1.4*34
$GPRMC,074917.000,A,5459.8752,N,08244.5963,E,6.67,175.05,020916,,,A*69
$GPGGA,074917.200,5459.8748,N,08244.5964,E,1,10,0.8,107.3,M,-36.2,M,,0000*7E
$GPGSA,A,3,02,25,05,29,12,06,09,31,23,19,,,1.6,0.8,1.4*34
$GPRMC,074917.200,A,5459.8748,N,08244.5964,E,6.56,174.41,020916,,,A*64
$GPGGA,074917.400,5459.8745,N,08244.5964,E,1,10,0.8,107.3,M,-36.2,M,,0000*75
$GPGSA,A,3,02,25,05,29,12,06,09,31,23,19,,,1.6,0.8,1.4*34
$GPGSV,3,1,11,02,72,084,45,25,48,259,41,05,44,173,39,29,39,294,41*70
$GPGSV,3,2,11,12,37,206,40,06,30,074,39,09,19,051,35,31,12,316,39*7F
$GPGSV,3,3,11,23,10,024,34,19,07,119,36,20,02,206,34*48
$GPRMC,074917.400,A,5459.8745,N,08244.5964,E,6.58,173.82,020916,,,A*69
$GPGGA,074917.600,5459.8741,N,08244.5965,E,1,10,0.8,107.3,M,-36.2,M,,0000*72
$GPGSA,A,3,02,25,05,29,12,06,09,31,23,19,,,1.6,0.8,1.4*34
$GPRMC,074917.600,A,5459.8741,N,08244.5965,E,6.57,173.38,020916,,,A*60
$GPGGA,074917.800,5459.8738,N,08244.5966,E,1,10,0.8,107.3,M,-36.2,M,,0000*71
$GPGSA,A,3,02,25,05,29,12,06,09,31,23,19,,,1.6,0.8,1.4*34
$GPRMC,074917.800,A,5459.8738,N,08244.5966,E,6.63,172.62,020916,,,A*6A
$GPGGA,074918.000,5459.8734,N,08244.5967,E,1,10,0.8,107.3,M,-36.2,M,,0000*7B
$GPGSA,A,3,02,25,05,29,12,06,09,31,23,19,,,1.6,0.8,1.4*34
$GPRMC,074918.000,A,5459.8734,N,08244.5967,E,6.59,172.21,020916,,,A*6E
$GPGGA,074918.200,5459.8730,N,08244.5967,E,1,10,0.8,107.3,M,-36.2,M,,0000*7D
$GPGSA,A,3,02,25,05,29,12,06,09,31,23,19,,,1.6,0.8,1.4*34
$GPRMC,074918.200,A,5459.8730,N,08244.5967,E,6.70,172.76,020916,,,A*61
$GPGGA,074918.400,5459.8727,N,08244.5968,E,1,10,0.8,107.3,M,-36.2,M,,0000*72
$GPGSA,A,3,02,25,05,29,12,06,09,31,23,19,,,1.6,0.8,1.4*34
$GPGSV,3,1,11,02,72,084,45,25,48,259,40,05,44,173,39,29,39,294,42*72
$GPGSV,3,2,11,12,37,206,41,06,30,074,39,09,19,051,35,31,12,316,39*7E
$GPGSV,3,3,11,23,10,024,34,19,07,119,36,20,02,206,30*4C
$GPRMC,074918.400,A,5459.8727,N,08244.5968,E,6.81,172.22,020916,,,A*61
$GPGGA,074918.600,5459.8723,N,08244.5969,E,1,10,0.8,107.3,M,-36.2,M,,0000*75
$GPGSA,A,3,02,25,05,29,12,06,09,31,23,19,,,1.6,0.8,1.4*34
$GPRMC,074918.600,A,5459.8723,N,08244.5969,E,6.84,172.47,020916,,,A*60
$GPGGA,074918.800,5459.8719,N,08244.5970,E,1,10,0.8,107.3,M,-36.2,M,,0000*7A
$GPGSA,A,3,02,25,05,29,12,06,09,31,23,19,,,1.6,0.8,1.4*34
$GPRMC,074918.800,A,5459.8719,N,08244.5970,E,6.74,173.16,020916,,,A*65
$GPGGA,074919.000,5459.8716,N,08244.5970,E,1,10,0.8,107.3,M,-36.2,M,,0000*7C
$GPGSA,A,3,02,25,05,29,12,06,09,31,23,19,,,1.6,0.8,1.4*34
$GPRMC,074919.000,A,5459.8716,N,08244.5970,E,6.79,173.39,020916,,,A*63
$GPGGA,074919.200,5459.8712,N,08244.5971,E,1,10,0.8,107.3,M,-36.2,M,,0000*7B
$GPGSA,A,3,02,25,05,29,12,06,09,31,23,19,,,1.6,0.8,1.4*34
$GPRMC,074919.200,A,5459.8712,N,08244.5971,E,6.78,173.12,020916,,,A*6C
$GPGGA,074919.400,5459.8708,N,08244.5972,E,1,10,0.8,107.3,M,-36.2,M,,0000*75
$GPGSA,A,3,02,25,05,29,12,06,09,31,23,19,,,1.6,0.8,1.4*34
$GPGSV,3,1,11,02,72,084,45,25,48,259,41,05,44,173,39,29,39,294,42*73
$GPGSV,3,2,11,12,37,206,41,06,30,074,39,09,19,051,35,31,12,316,39*7E
$GPGSV,3,3,11,23,10,024,35,19,07,119,36,20,02,206,30*4D
$GPRMC,074919.400,A,5459.8708,N,08244.5972,E,6.80,173.31,020916,,,A*64
$GPGGA,074919.600,5459.8704,N,08244.5973,E,1,10,0.8,107.3,M,-36.2,M,,0000*7A
$GPGSA,A,3,02,25,05,29,12,06,09,31,23,19,,,1.6,0.8,1.4*34
$GPRMC,074919.600,A,5459.8704,N,08244.5973,E,6.88,172.51,020916,,,A*64
$GPGGA,074919.800,5459.8701,N,08244.5974,E,1,10,0.8,107.3,M,-36.2,M,,0000*76
$GPGSA,A,3,02,25,05,29,12,06,09,31,23,19,,,1.6,0.8,1.4*34
$GPRMC,074919.800,A,5459.8701,N,08244.5974,E,6.83,172.95,020916,,,A*6B
$GPGGA,074920.000,5459.8697,N,08244.5974,E,1,10,0.8,107.3,M,-36.2,M,,0000*7A
$GPGSA,A,3,02,25,05,29,12,06,09,31,23,19,,,1.6,0.8,1.4*34
$GPRMC,074920.000,A,5459.8697,N,08244.5974,E,6.99,172.25,020916,,,A*67
$GPGGA,074920.200,5459.8693,N,08244.5975,E,1,10,0.8,107.3,M,-36.2,M,,0000*7D
$GPGSA,A,3,02,25,05,29,12,06,09,31,23,19,,,1.6,0.8,1.4*34
$GPRMC,074920.200,A,5459.8693,N,08244.5975,E,7.06,172.81,020916,,,A*69
$GPGGA,074920.400,5459.8689,N,08244.5976,E,1,10,0.8,107.3,M,-36.2,M,,0000*73
$GPGSA,A,3,02,25,05,29,12,06,09,31,23,19,,,1.6,0.8,1.4*34
$GPGSV,3,1,11,02,72,084,45,25,48,259,41,05,44,173,38,29,39,294,42*72
$GPGSV,3,2,11,12,37,206,41,06,30,074,39,09,19,051,35,31,12,316,39*7E
$GPGSV,3,3,11,23,10,024,35,19,07,119,36,20,02,206,30*4D
$GPRMC,074920.400,A,5459.8689,N,08244.5976,E,6.98,172.19,020916,,,A*60
$GPGGA,074920.600,5459.8685,N,08244.5977,E,1,10,0.8,107.3,M,-36.2,M,,0000*7C
$GPGSA,A,3,02,25,05,29,12,06,09,31,23,19,,,1.6,0.8,1.4*34
$GPRMC,074920.600,A,5459.8685,N,08244.5977,E,6.99,171.95,020916,,,A*69
$GPGGA,074920.800,5459.8681,N,08244.5978,E,1,10,0.8,107.3,M,-36.2,M,,0000*79
$GPGSA,A,3,02,25,05,29,12,06,09,31,23,19,,,1.6,0.8,1.4*34
$GPRMC,074920.800,A,5459.8681,N,08244.5978,E,7.01,172.13,020916,,,A*61
$GPGGA,074921.000,5459.8678,N,08244.5979,E,1,10,0.8,107.3,M,-36.2,M,,0000*77
$GPGSA,A,3,02,25,05,29,12,06,09,31,23,19,,,1.6,0.8,1.4*34
$GPRMC,074921.000,A,5459.8678,N,08244.5979,E,7.16,172.33,020916,,,A*6B
$GPGGA,074921.200,5459.8674,N,08244.5980,E,1,10,0.8,107.3,M,-36.2,M,,0000*7F
$GPGSA,A,3,02,25,05,29,12,06,09,31,23,19,,,1.6,0.8,1.4*34
$GPRMC,074921.200,A,5459.8674,N,08244.5980,E,7.12,172.57,020916,,,A*65
$GPGGA,074921.400,5459.8670,N,08244.5981,E,1,10,0.8,107.3,M,-36.2,M,,0000*7C
$GPGSA,A,3,02,25,05,29,12,06,09,31,23,19,,,1.6,0.8,1.4*34
$GPGSV,3,1,11,02,72,084,45,25,48,259,41,05,44,173,38,29,39,294,42*72
$GPGSV,3,2,11,12,37,206,41,06,30,074,39,09,19,051,35,31,12,316,39*7E
$GPGSV,3,3,11,23,10,024,35,19,07,119,36,20,02,206,29*45
$GPRMC,074921.400,A,5459.8670,N,08244.5981,E,7.10,171.65,020916,,,A*66
$GPGGA,074921.600,5459.8666,N,08244.5982,E,1,10,0.8,107.3,M,-36.2,M,,0000*7A
$GPGSA,A,3,02,25,05,29,12,06,09,31,23,19,,,1.6,0.8,1.4*34
$GPRMC,074921.600,A,5459.8666,N,08244.5982,E,7.16,171.55,020916,,,A*65
$GPGGA,074921.800,5459.8662,N,08244.5983,E,1,10,0.8,107.3,M,-36.2,M,,0000*71
$GPGSA,A,3,02,25,05,29,12,06,09,31,23,19,,,1.6,0.8,1.4*34
$GPRMC,074921.800,A,5459.8662,N,08244.5983,E,7.38,171.41,020916,,,A*67
$GPGGA,074922.000,5459.8658,N,08244.5984,E,1,10,0.8,107.3,M,-36.2,M,,0000*74
$GPGSA,A,3,02,25,05,29,12,06,09,31,23,19,,,1.6,0.8,1.4*34
$GPRMC,074922.000,A,5459.8658,N,08244.5984,E,7.45,171.89,020916,,,A*6C
$GPGGA,074922.200,5459.8654,N,08244.5985,E,1,10,0.8,107.3,M,-36.2,M,,0000*7B
$GPGSA,A,3,02,25,05,29,12,06,09,31,23,19,,,1.6,0.8,1.4*34
$GPRMC,074922.200,A,5459.8654,N,08244.5985,E,7.39,171.35,020916,,,A*6F
$GPGGA,074922.400,5459.8650,N,08244.5986,E,1,10,0.8,107.3,M,-36.2,M,,0000*7A
$GPGSA,A,3,02,25,05,29,12,06,09,31,23,19,,,1.6,0.8,1.4*34
$GPGSV,3,1,11,02,72,084,45,25,48,259,41,05,44,173,38,29,39,294,42*72
$GPGSV,3,2,11,12,37,206,40,06,30,074,38,09,19,051,36,31,12,316,38*7C
$GPGSV,3,3,11,23,10,024,35,19,07,119,35,20,02,206,30*4E
$GPRMC,074922.400,A,5459.8650,N,08244.5986,E,7.42,171.24,020916,,,A*62
$GPGGA,074922.600,5459.8646,N,08244.5987,E,1,10,0.8,107.3,M,-36.2,M,,0000*7E
$GPGSA,A,3,02,25,05,29,12,06,09,31,23,19,,,1.6,0.8,1.4*34
$GPRMC,074922.600,A,5459.8646,N,08244.5987,E,7.48,171.30,020916,,,A*69
$GPGGA,074922.800,5459.8641,N,08244.5988,E,1,10,0.8,107.3,M,-36.2,M,,0000*78
$GPGSA,A,3,02,25,05,29,12,06,09,31,23,19,,,1.6,0.8,1.4*34
$GPRMC,074922.800,A,5459.8641,N,08244.5988,E,7.58,170.90,020916,,,A*65
$GPGGA,074923.000,5459.8637,N,08244.5989,E,1,10,0.8,107.3,M,-36.2,M,,0000*71
$GPGSA,A,3,02,25,05,29,12,06,09,31,23,19,,,1.6,0.8,1.4*34
$GPRMC,074923.000,A,5459.8637,N,08244.5989,E,7.76,171.43,020916,,,A*6F
$GPGGA,074923.200,5459.8633,N,08244.5990,E,1,10,0.8,107.3,M,-36.2,M,,0000*7F
$GPGSA,A,3,02,25,05,29,12,06,09,31,23,19,,,1.6,0.8,1.4*34
$GPRMC,074923.200,A,5459.8633,N,08244.5990,E,7.77,171.37,020916,,,A*63
$GPGGA,074923.400,5459.8629,N,08244.5991,E,1,10,0.8,107.3,M,-36.2,M,,0000*73
$GPGSA,A,3,02,25,05,29,12,06,09,31,23,19,,,1.6,0.8,1.4*34
$GPGSV,3,1,11,02,72,084,45,25,48,259,41,05,44,173,37,29,39,294,42*7D
$GPGSV,3,2,11,12,37,206,40,06,30,074,38,09,19,051,36,31,12,316,38*7C
$GPGSV,3,3,11,23,10,024,35,19,07,119,31,20,02,206,30*4A
$GPRMC,074923.400,A,5459.8629,N,08244.5991,E,7.91,171.69,020916,,,A*6C
$GPGGA,074923.600,5459.8624,N,08244.5993,E,1,10,0.8,107.3,M,-36.2,M,,0000*7E
$GPGSA,A,3,02,25,05,29,12,06,09,31,23,19,,,1.6,0.8,1.4*34
$GPRMC,074923.600,A,5459.8624,N,08244.5993,E,7.94,171.53,020916,,,A*6D
$GPGGA,074923.800,5459.8620,N,08244.5994,E,1,10,0.8,107.3,M,-36.2,M,,0000*73
$GPGSA,A,3,02,25,05,29,12,06,09,31,23,19,,,1.6,0.8,1.4*34
$GPRMC,074923.800,A,5459.8620,N,08244.5994,E,8.10,171.52,020916,,,A*62
$GPGGA,074924.000,5459.8616,N,08244.5995,E,1,10,0.8,107.3,M,-36.2,M,,0000*78
$GPGSA,A,3,02,25,05,29,12,06,09,31,23,19,,,1.6,0.8,1.4*34
$GPRMC,074924.000,A,5459.8616,N,08244.5995,E,8.25,171.43,020916,,,A*6F
$GPGGA,074924.200,5459.8611,N,08244.5996,E,1,10,0.8,107.3,M,-36.2,M,,0000*7E
$GPGSA,A,3,02,25,05,29,12,06,09,31,23,19,,,1.6,0.8,1.4*34
$GPRMC,074924.200,A,5459.8611,N,08244.5996,E,8.27,171.07,020916,,,A*6B
$GPGGA,074924.400,5459.8607,N,08244.5997,E,1,10,0.8,107.3,M,-36.2,M,,0000*7E
$GPGSA,A,3,02,25,05,29,12,06,09,31,23,19,,,1.6,0.8,1.4*34
$GPGSV,3,1,11,02,72,084,45,25,48,259,41,05,44,173,37,29,39,294,41*7E
$GPGSV,3,2,11,12,37,206,39,06,30,074,38,09,19,051,36,31,12,316,38*72
$GPGSV,3,3,11,23,10,024,35,19,07,119,30,20,02,206,30*4B
$GPRMC,074924.400,A,5459.8607,N,08244.5997,E,8.36,171.08,020916,,,A*64
$GPGGA,074924.600,5459.8602,N,08244.5999,E,1,10,0.8,107.3,M,-36.2,M,,0000*77
$GPGSA,A,3,02,25,05,29,12,06,09,31,23,19,,,1.6,0.8,1.4*34
$GPRMC,074924.600,A,5459.8602,N,08244.5999,E,8.30,170.80,020916,,,A*6A
$GPGGA,074924.800,5459.8597,N,08244.6000,E,1,10,0.8,107.3,M,-36.2,M,,0000*7C
$GPGSA,A,3,02,25,05,29,12,06,09,31,23,19,,,1.6,0.8,1.4*34
$GPRMC,074924.800,A,5459.8597,N,08244.6000,E,8.29,170.80,020916,,,A*69
$GPGGA,074925.000,5459.8593,N,08244.6001,E,1,10,0.8,107.3,M,-36.2,M,,0000*70
$GPGSA,A,3,02,25,05,29,12,06,09,31,23,19,,,1.6,0.8,1.4*34
$GPRMC,074925.000,A,5459.8593,N,08244.6001,E,8.39,170.76,020916,,,A*6D
$GPGGA,074925.200,5459.8588,N,08244.6002,E,1,10,0.8,107.3,M,-36.2,M,,0000*7B
$GPGSA,A,3,02,25,05,29,12,06,09,31,23,19,,,1.6,0.8,1.4*34
$GPRMC,074925.200,A,5459.8588,N,08244.6002,E,8.35,171.14,020916,,,A*6F
$GPGGA,074925.400,5459.8584,N,08244.6004,E,1,10,0.8,107.3,M,-36.2,M,,0000*77
$GPGSA,A,3,02,25,05,29,12,06,09,31,23,19,,,1.6,0.8,1.4*34
$GPGSV,3,1,11,02,72,084,45,25,48,259,41,05,44,173,36,29,39,294,41*7F
$GPGSV,3,2,11,12,37,206,39,06,30,074,37,09,19,051,36,31,12,316,38*7D
$GPGSV,3,3,11,23,10,024,34,19,07,119,30,20,02,206,30*4A
$GPRMC,074925.400,A,5459.8584,N,08244.6004,E,8.27,171.27,020916,,,A*60
$GPGGA,074925.600,5459.8579,N,08244.6005,E,1,10,0.8,107.3,M,-36.2,M,,0000*76
$GPGSA,A,3,02,25,05,29,12,06,09,31,23,19,,,1.6,0.8,1.4*34
$GPRMC,074925.600,A,5459.8579,N,08244.6005,E,8.41,170.55,020916,,,A*65
$GPGGA,074925.800,5459.8575,N,08244.6006,E,1,10,0.8,107.3,M,-36.2,M,,0000*77
$GPGSA,A,3,02,25,05,29,12,06,09,31,23,19,,,1.6,0.8,1.4*34
$GPRMC,074925.800,A,5459.8575,N,08244.6006,E,8.39,170.87,020916,,,A*64
$GPGGA,074926.000,5459.8570,N,08244.6008,E,1,10,0.8,107.3,M,-36.2,M,,0000*77
$GPGSA,A,3,02,25,05,29,12,06,09,31,23,19,,,1.6,0.8,1.4*34
$GPRMC,074926.000,A,5459.8570,N,08244.6008,E,8.32,170.81,020916,,,A*69
$GPGGA,074926.200,5459.8565,N,08244.6009,E,1,10,0.8,107.3,M,-36.2,M,,0000*70
$GPGSA,A,3,02,25,05,29,12,06,09,31,23,19,,,1.6,0.8,1.4*34
$GPRMC,074926.200,A,5459.8565,N,08244.6009,E,8.42,171.28,020916,,,A*6B
$GPGGA,074926.400,5459.8561,N,08244.6010,E,1,10,0.8,107.3,M,-36.2,M,,0000*7A
$GPGSA,A,3,02,25,05,29,12,06,09,31,23,19,,,1.6,0.8,1.4*34
$GPGSV,3,1,11,02,72,084,45,25,48,259,41,05,44,173,36,29,39,294,41*7F
$GPGSV,3,2,11,12,37,206,39,06,30,074,37,09,19,051,36,31,12,316,38*7D
$GPGSV,3,3,11,23,10,024,34,19,07,119,31,20,02,206,30*4B
$GPRMC,074926.400,A,5459.8561,N,08244.6010,E,8.25,170.99,020916,,,A*6B
$GPGGA,074926.600,5459.8557,N,08244.6011,E,1,10,0.8,107.3,M,-36.2,M,,0000*7C
$GPGSA,A,3,02,25,05,29,12,06,09,31,23,19,,,1.6,0.8,1.4*34
$GPRMC,074926.600,A,5459.8557,N,08244.6011,E,7.96,171.17,020916,,,A*6D
$GPGGA,074926.800,5459.8552,N,08244.6013,E,1,10,0.8,107.3,M,-36.2,M,,0000*75
$GPGSA,A,3,02,25,05,29,12,06,09,31,23,19,,,1.6,0.8,1.4*34
$GPRMC,074926.800,A,5459.8552,N,08244.6013,E,8.19,171.57,020916,,,A*68
$GPGGA,074927.000,5459.8548,N,08244.6014,E,1,10,0.8,107.3,M,-36.2,M,,0000*70
$GPGSA,A,3,02,25,05,29,12,06,09,31,23,19,,,1.6,0.8,1.4*34
$GPRMC,074927.000,A,5459.8548,N,08244.6014,E,8.24,171.52,020916,,,A*66
$GPGGA,074927.200,5459.8543,N,08244.6015,E,1,10,0.8,107.3,M,-36.2,M,,0000*78
$GPGSA,A,3,02,25,05,29,12,06,09,31,23,19,,,1.6,0.8,1.4*34
$GPRMC,074927.200,A,5459.8543,N,08244.6015,E,8.40,171.63,020916,,,A*6E
$GPGGA,074927.400,5459.8538,N,08244.6016,E,1,10,0.8,107.3,M,-36.2,M,,0000*71
$GPGSA,A,3,02,25,05,29,12,06,09,31,23,19,,,1.6,0.8,1.4*34
$GPGSV,3,1,11,02,72,084,45,25,48,259,42,05,44,173,36,29,39,294,41*7C
$GPGSV,3,2,11,12,37,206,38,06,30,074,37,09,19,051,36,31,12,316,37*73
$GPGSV,3,3,11,23,10,024,34,19,07,119,31,20,02,206,30*4B
$GPRMC,074927.400,A,5459.8538,N,08244.6016,E,8.35,171.03,020916,,,A*63
$GPGGA,074927.600,5459.8534,N,08244.6017,E,1,10,0.8,107.3,M,-36.2,M,,0000*7E
$GPGSA,A,3,02,25,05,29,12,06,09,31,23,19,,,1.6,0.8,1.4*34
$GPRMC,074927.600,A,5459.8534,N,08244.6017,E,8.38,171.37,020916,,,A*66
$GPGGA,074927.800,5459.8529,N,08244.6019,E,1,10,0.8,107.3,M,-36.2,M,,0000*72
$GPGSA,A,3,02,25,05,29,12,06,09,31,23,19,,,1.6,0.8,1.4*34
$GPRMC,074927.800,A,5459.8529,N,08244.6019,E,8.60,171.31,020916,,,A*61
$GPGGA,074928.000,5459.8525,N,08244.6020,E,1,10,0.8,107.3,M,-36.2,M,,0000*73
$GPGSA,A,3,02,25,05,29,12,06,09,31,23,19,,,1.6,0.8,1.4*34
$GPRMC,074928.000,A,5459.8525,N,08244.6020,E,8.51,171.02,020916,,,A*62
$GPGGA,074928.200,5459.8520,N,08244.6021,E,1,10,0.8,107.3,M,-36.2,M,,0000*75
$GPGSA,A,3,02,25,05,29,12,06,09,31,23,19,,,1.6,0.8,1.4*34
$GPRMC,074928.200,A,5459.8520,N,08244.6021,E,8.57,171.13,020916,,,A*62
$GPGGA,074928.400,5459.8515,N,08244.6022,E,1,10,0.8,107.3,M,-36.2,M,,0000*76
$GPGSA,A,3,02,25,05,29,12,06,09,31,23,19,,,1.6,0.8,1.4*34
$GPGSV,3,1,11,02,72,084,45,25,48,259,42,05,44,173,36,29,39,294,42*7F
$GPGSV,3,2,11,12,37,206,38,06,30,074,37,09,19,051,36,31,12,316,37*73
$GPGSV,3,3,11,23,10,024,33,19,07,119,31,20,02,206,30*4C
$GPRMC,074928.400,A,5459.8515,N,08244.6022,E,8.46,171.60,020916,,,A*65
$GPGGA,074928.600,5459.8511,N,08244.6024,E,1,10,0.8,107.3,M,-36.2,M,,0000*76
$GPGSA,A,3,02,25,05,29,12,06,09,31,23,19,,,1.6,0.8,1.4*34
$GPRMC,074928.600,A,5459.8511,N,08244.6024,E,8.49,171.00,020916,,,A*6C
$GPGGA,074928.800,5459.8506,N,08244.6025,E,1,10,0.8,107.3,M,-36.2,M,,0000*7F
$GPGSA,A,3,02,25,05,29,12,06,09,31,23,19,,,1.6,0.8,1.4*34
$GPRMC,074928.800,A,5459.8506,N,08244.6025,E,8.46,170.81,020916,,,A*62
$GPGGA,074929.000,5459.8501,N,08244.6026,E,1,10,0.8,107.3,M,-36.2,M,,0000*72
$GPGSA,A,3,02,25,05,29,12,06,09,31,23,19,,,1.6,0.8,1.4*34
$GPRMC,074929.000,A,5459.8501,N,08244.6026,E,8.37,171.75,020916,,,A*63
$GPGGA,074929.200,5459.8497,N,08244.6027,E,1,10,0.8,107.3,M,-36.2,M,,0000*7F
$GPGSA,A,3,02,25,05,29,12,06,09,31,23,19,,,1.6,0.8,1.4*34
$GPRMC,074929.200,A,5459.8497,N,08244.6027,E,8.46,171.49,020916,,,A*67
$GPGGA,074929.400,5459.8492,N,08244.6029,E,1,10,0.8,107.3,M,-36.2,M,,0000*72
$GPGSA,A,3,02,25,05,29,12,06,09,31,23,19,,,1.6,0.8,1.4*34
$GPGSV,3,1,11,02,72,084,45,25,48,259,42,05,44,173,36,29,39,294,42*7F
$GPGSV,3,2,11,12,37,206,38,06,30,074,37,09,19,051,36,31,12,316,37*73
$GPGSV,3,3,11,23,10,024,33,19,07,119,31,20,02,206,31*4D
$GPRMC,074929.400,A,5459.8492,N,08244.6029,E,8.36,171.41,020916,,,A*65
$GPGGA,074929.600,5459.8488,N,08244.6030,E,1,10,0.8,107.2,M,-36.2,M,,0000*72
$GPGSA,A,3,02,25,05,29,12,06,09,31,23,19,,,1.6,0.8,1.4*34
$GPRMC,074929.600,A,5459.8488,N,08244.6030,E,8.18,170.84,020916,,,A*60
$GPGGA,074929.800,5459.8483,N,08244.6031,E,1,10,0.8,107.2,M,-36.2,M,,0000*76
$GPGSA,A,3,02,25,05,29,12,06,09,31,23,19,,,1.6,0.8,1.4*34
$GPRMC,074929.800,A,5459.8483,N,08244.6031,E,8.23,171.11,020916,,,A*61
$GPGGA,074930.000,5459.8479,N,08244.6032,E,1,10,0.8,107.2,M,-36.2,M,,0000*70
$GPGSA,A,3,02,25,05,29,12,06,09,31,23,19,,,1.6,0.8,1.4*34
$GPRMC,074930.000,A,5459.8479,N,08244.6032,E,8.35,171.32,020916,,,A*61
$GPGGA,074930.200,5459.8474,N,08244.6034,E,1,10,0.8,107.2,M,-36.2,M,,0000*79
$GPGSA,A,3,02,25,05,29,12,06,09,31,23,19,,,1.6,0.8,1.4*34
$GPRMC,074930.200,A,5459.8474,N,08244.6034,E,8.22,171.09,020916,,,A*66
$GPGGA,074930.400,5459.8470,N,08244.6035,E,1,10,0.8,107.2,M,-36.2,M,,0000*7A
$GPGSA,A,3,02,25,05,29,12,06,09,31,23,19,,,1.6,0.8,1.4*34
$GPGSV,3,1,11,02,72,084,45,25,48,259,42,05,44,173,36,29,39,294,42*7F
$GPGSV,3,2,11,12,37,206,38,06,30,074,37,09,19,051,37,31,12,316,37*72
$GPGSV,3,3,11,23,10,024,33,19,07,119,31,20,02,206,31*4D
$GPRMC,074930.400,A,5459.8470,N,08244.6035,E,8.16,170.92,020916,,,A*61
$GPGGA,074930.600,5459.8465,N,08244.6036,E,1,10,0.8,107.2,M,-36.2,M,,0000*7F
$GPGSA,A,3,02,25,05,29,12,06,09,31,23,19,,,1.6,0.8,1.4*34
$GPRMC,074930.600,A,5459.8465,N,08244.6036,E,8.15,171.26,020916,,,A*69
$GPGGA,074930.800,5459.8461,N,08244.6037,E,1,10,0.8,107.2,M,-36.2,M,,0000*74
$GPGSA,A,3,02,25,05,29,12,06,09,31,23,19,,,1.6,0.8,1.4*34
$GPRMC,074930.800,A,5459.8461,N,08244.6037,E,8.11,171.02,020916,,,A*60
$GPGGA,074931.000,5459.8456,N,08244.6039,E,1,10,0.8,107.2,M,-36.2,M,,0000*77
$GPGSA,A,3,02,25,05,29,12,06,09,31,23,19,,,1.6,0.8,1.4*34
$GPRMC,074931.000,A,5459.8456,N,08244.6039,E,8.00,170.59,020916,,,A*6C
$GPGGA,074931.200,5459.8452,N,08244.6040,E,1,10,0.8,107.2,M,-36.2,M,,0000*7F
$GPGSA,A,3,02,25,05,29,12,06,09,31,23,19,,,1.6,0.8,1.4*34
$GPRMC,074931.200,A,5459.8452,N,08244.6040,E,8.02,170.74,020916,,,A*69
$GPGGA,074931.400,5459.8448,N,08244.6041,E,1,10,0.8,107.2,M,-36.2,M,,0000*73
$GPGSA,A,3,02,25,05,29,12,06,09,31,23,19,,,1.6,0.8,1.4*34
$GPGSV,3,1,11,02,72,084,45,25,48,259,42,05,44,173,36,29,39,294,42*7F
$GPGSV,3,2,11,12,37,206,38,06,30,074,37,09,19,051,37,31,12,316,37*72
$GPGSV,3,3,11,23,10,024,33,19,07,119,31,20,02,206,32*4E
$GPRMC,074931.400,A,5459.8448,N,08244.6041,E,8.27,171.06,020916,,,A*66
$GPGGA,074931.600,5459.8443,N,08244.6042,E,1,10,0.8,107.2,M,-36.2,M,,0000*79
$GPGSA,A,3,02,25,05,29,12,06,09,31,23,19,,,1.6,0.8,1.4*34
$GPRMC,074931.600,A,5459.8443,N,08244.6042,E,8.08,171.07,020916,,,A*60
$GPGGA,074931.800,5459.8439,N,08244.6044,E,1,10,0.8,107.2,M,-36.2,M,,0000*7C
$GPGSA,A,3,02,25,05,29,12,06,09,31,23,19,,,1.6,0.8,1.4*34
$GPRMC,074931.800,A,5459.8439,N,08244.6044,E,7.90,170.79,020916,,,A*63
$GPGGA,074932.000,5459.8434,N,08244.6045,E,1,10,0.8,107.2,M,-36.2,M,,0000*7B
$GPGSA,A,3,02,25,05,29,12,06,09,31,23,19,,,1.6,0.8,1.4*34
$GPRMC,074932.000,A,5459.8434,N,08244.6045,E,8.04,171.68,020916,,,A*67
$GPGGA,074932.200,5459.8430,N,08244.6046,E,1,10,0.8,107.2,M,-36.2,M,,0000*7E
$GPGSA,A,3,02,25,05,29,12,06,09,31,23,19,,,1.6,0.8,1.4*34
$GPRMC,074932.200,A,5459.8430,N,08244.6046,E,7.93,170.89,020916,,,A*6D
$GPGGA,074932.400,5459.8426,N,08244.6047,E,1,10,0.8,107.2,M,-36.2,M,,0000*7E
$GPGSA,A,3,02,25,05,29,12,06,09,31,23,19,,,1.6,0.8,1.4*34
$GPGSV,3,1,11,02,72,084,45,25,48,259,42,05,44,173,37,29,39,294,42*7E
$GPGSV,3,2,11,12,37,206,38,06,30,074,37,09,19,051,37,31,12,316,37*72
$GPGSV,3,3,11,23,10,024,33,19,07,119,31,20,02,206,32*4E
$GPRMC,074932.400,A,5459.8426,N,08244.6047,E,7.99,170.55,020916,,,A*66
$GPGGA,074932.599,5459.8421,N,08244.6048,E,1,10,0.8,107.2,M,-36.2,M,,0000*77
$GPGSA,A,3,02,25,05,29,12,06,09,31,23,19,,,1.6,0.8,1.4*34
$GPRMC,074932.599,A,5459.8421,N,08244.6048,E,8.01,171.20,020916,,,A*62
$GPGGA,074932.800,5459.8417,N,08244.6050,E,1,10,0.8,107.2,M,-36.2,M,,0000*76
$GPGSA,A,3,02,25,05,29,12,06,09,31,23,19,,,1.6,0.8,1.4*34
$GPRMC,074932.800,A,5459.8417,N,08244.6050,E,8.06,171.11,020916,,,A*66
$GPGGA,074933.000,5459.8413,N,08244.6051,E,1,10,0.8,107.2,M,-36.2,M,,0000*7A
$GPGSA,A,3,02,25,05,29,12,06,09,31,23,19,,,1.6,0.8,1.4*34
$GPRMC,074933.000,A,5459.8413,N,08244.6051,E,8.01,170.80,020916,,,A*64
$GPGGA,074933.200,5459.8408,N,08244.6052,E,1,10,0.8,107.2,M,-36.2,M,,0000*71
$GPGSA,A,3,02,25,05,29,12,06,09,31,23,19,,,1.6,0.8,1.4*34
$GPRMC,074933.200,A,5459.8408,N,08244.6052,E,7.93,170.99,020916,,,A*63
$GPGGA,074933.400,5459.8404,N,08244.6053,E,1,10,0.8,107.2,M,-36.2,M,,0000*7A
$GPGSA,A,3,02,25,05,29,12,06,09,31,23,19,,,1.6,0.8,1.4*34
$GPGSV,3,1,11,02,72,084,45,25,48,259,42,05,44,173,37,29,39,294,42*7E
$GPGSV,3,2,11,12,37,206,38,06,30,074,37,09,19,051,37,31,12,316,37*72
$GPGSV,3,3,11,23,10,024,33,19,07,119,31,20,02,206,33*4F
$GPRMC,074933.400,A,5459.8404,N,08244.6053,E,8.06,170.65,020916,,,A*68
$GPGGA,074933.600,5459.8399,N,08244.6055,E,1,10,0.8,107.2,M,-36.2,M,,0000*7D
$GPGSA,A,3,02,25,05,29,12,06,09,31,23,19,,,1.6,0.8,1.4*34
$GPRMC,074933.600,A,5459.8399,N,08244.6055,E,8.13,171.16,020916,,,A*6E
$GPGGA,074933.800,5459.8395,N,08244.6056,E,1,10,0.8,107.1,M,-36.2,M,,0000*7F
$GPGSA,A,3,02,25,05,29,12,06,09,31,23,19,,,1.6,0.8,1.4*34
$GPRMC,074933.800,A,5459.8395,N,08244.6056,E,8.09,170.25,020916,,,A*65
$GPGGA,074934.000,5459.8391,N,08244.6057,E,1,10,0.8,107.1,M,-36.2,M,,0000*75
$GPGSA,A,3,02,25,05,29,12,06,09,31,23,19,,,1.6,0.8,1.4*34
$GPRMC,074934.000,A,5459.8391,N,08244.6057,E,8.09,170.83,020916,,,A*63
$GPGGA,074934.200,5459.8386,N,08244.6058,E,1,10,0.8,107.1,M,-36.2,M,,0000*7E
$GPGSA,A,3,02,25,05,29,12,06,09,31,23,19,,,1.6,0.8,1.4*34
$GPRMC,074934.200,A,5459.8386,N,08244.6058,E,8.28,170.73,020916,,,A*64
$GPGGA,074934.400,5459.8382,N,08244.6060,E,1,10,0.8,107.1,M,-36.2,M,,0000*77
$GPGSA,A,3,02,25,05,29,12,06,09,31,23,19,,,1.6,0.8,1.4*34
$GPGSV,3,1,11,02,72,084,46,25,48,259,42,05,44,173,37,29,39,294,42*7D
$GPGSV,3,2,11,12,37,206,38,06,30,074,37,09,19,051,37,31,12,316,38*7D
$GPGSV,3,3,11,23,10,024,33,19,07,119,31,20,02,206,33*4F
$GPRMC,074934.400,A,5459.8382,N,08244.6060,E,8.24,170.64,020916,,,A*67
$GPGGA,074934.600,5459.8377,N,08244.6061,E,1,10,0.8,107.1,M,-36.2,M,,0000*7E
$GPGSA,A,3,02,25,05,29,12,06,09,31,23,19,,,1.6,0.8,1.4*34
$GPRMC,074934.600,A,5459.8377,N,08244.6061,E,8.34,169.91,020916,,,A*6D
$GPGGA,074934.800,5459.8373,N,08244.6063,E,1,10,0.8,107.1,M,-36.2,M,,0000*76
$GPGSA,A,3,02,25,05,29,12,06,09,31,23,19,,,1.6,0.8,1.4*34
$GPRMC,074934.800,A,5459.8373,N,08244.6063,E,8.21,170.22,020916,,,A*61
$GPGGA,074935.000,5459.8368,N,08244.6064,E,1,10,0.8,107.1,M,-36.2,M,,0000*72
$GPGSA,A,3,02,25,05,29,12,06,09,31,23,19,,,1.6,0.8,1.4*34
$GPRMC,074935.000,A,5459.8368,N,08244.6064,E,8.38,170.86,020916,,,A*63
$GPGGA,074935.200,5459.8364,N,08244.6065,E,1,10,0.8,107.1,M,-36.2,M,,0000*7D
$GPGSA,A,3,02,25,05,29,12,06,09,31,23,19,,,1.6,0.8,1.4*34
$GPRMC,074935.200,A,5459.8364,N,08244.6065,E,8.45,170.96,020916,,,A*67
$GPGGA,074935.400,5459.8359,N,08244.6066,E,1,10,0.8,107.1,M,-36.2,M,,0000*76
$GPGSA,A,3,02,25,05,29,12,06,09,31,23,19,,,1.6,0.8,1.4*34
$GPGSV,3,1,11,02,72,084,46,25,48,259,42,05,44,173,37,29,39,294,42*7D
$GPGSV,3,2,11,12,37,206,38,06,30,074,37,09,19,051,37,31,12,316,38*7D
$GPGSV,3,3,11,23,10,024,33,19,07,119,31,20,02,206,33*4F
$GPRMC,074935.400,A,5459.8359,N,08244.6066,E,8.34,170.08,020916,,,A*6D
$GPGGA,074935.600,5459.8355,N,08244.6068,E,1,10,0.8,107.1,M,-36.2,M,,0000*76
$GPGSA,A,3,02,25,05,29,12,06,09,31,23,19,,,1.6,0.8,1.4*34
$GPRMC,074935.600,A,5459.8355,N,08244.6068,E,8.19,169.19,020916,,,A*6A
$GPGGA,074935.800,5459.8350,N,08244.6070,E,1,10,0.8,107.1,M,-36.2,M,,0000*74
$GPGSA,A,3,02,25,05,29,12,06,09,31,23,19,,,1.6,0.8,1.4*34
$GPRMC,074935.800,A,5459.8350,N,08244.6070,E,8.04,167.60,020916,,,A*64
$GPGGA,074936.000,5459.8346,N,08244.6072,E,1,10,0.8,107.1,M,-36.2,M,,0000*7A
$GPGSA,A,3,02,25,05,29,12,06,09,31,23,19,,,1.6,0.8,1.4*34
$GPRMC,074936.000,A,5459.8346,N,08244.6072,E,8.16,165.67,020916,,,A*6C
$GPGGA,074936.200,5459.8342,N,08244.6074,E,1,10,0.8,107.1,M,-36.2,M,,0000*7A
$GPGSA,A,3,02,25,05,29,12,06,09,31,23,19,,,1.6,0.8,1.4*34
$GPRMC,074936.200,A,5459.8342,N,08244.6074,E,8.05,162.43,020916,,,A*6F
$GPGGA,074936.400,5459.8337,N,08244.6077,E,1,10,0.8,107.1,M,-36.2,M,,0000*7D
$GPGSA,A,3,02,25,05,29,12,06,09,31,23,19,,,1.6,0.8,1.4*34
$GPGSV,3,1,11,02,72,084,46,25,48,259,42,05,44,173,37,29,39,294,42*7D
$GPGSV,3,2,11,12,37,206,38,06,30,074,37,09,19,051,37,31,12,316,38*7D
$GPGSV,3,3,11,23,10,024,33,19,07,119,31,20,02,206,34*48
$GPRMC,074936.400,A,5459.8337,N,08244.6077,E,7.88,159.05,020916,,,A*68
$GPGGA,074936.600,5459.8334,N,08244.6080,E,1,10,0.8,107.1,M,-36.2,M,,0000*74
$GPGSA,A,3,02,25,05,29,12,06,09,31,23,19,,,1.6,0.8,1.4*34
$GPRMC,074936.600,A,5459.8334,N,08244.6080,E,7.79,156.20,020916,,,A*67
$GPGGA,074936.800,5459.8330,N,08244.6083,E,1,10,0.8,107.1,M,-36.2,M,,0000*7D
$GPGSA,A,3,02,25,05,29,12,06,09,31,23,19,,,1.6,0.8,1.4*34
$GPRMC,074936.800,A,5459.8330,N,08244.6083,E,7.66,152.84,020916,,,A*6A
$GPGGA,074937.000,5459.8326,N,08244.6087,E,1,10,0.8,107.1,M,-36.2,M,,0000*77
$GPGSA,A,3,02,25,05,29,12,06,09,31,23,19,,,1.6,0.8,1.4*34
$GPRMC,074937.000,A,5459.8326,N,08244.6087,E,7.66,148.41,020916,,,A*62
$GPGGA,074937.200,5459.8323,N,08244.6092,E,1,10,0.8,107.1,M,-36.2,M,,0000*74
$GPGSA,A,3,02,25,05,29,12,06,09,31,23,19,,,1.6,0.8,1.4*34
$GPRMC,074937.200,A,5459.8323,N,08244.6092,E,7.62,145.31,020916,,,A*6F
$GPGGA,074937.400,5459.8320,N,08244.6096,E,1,10,0.8,107.1,M,-36.2,M,,0000*75
$GPGSA,A,3,02,25,05,29,12,06,09,31,23,19,,,1.6,0.8,1.4*34
$GPGSV,3,1,11,02,72,084,45,25,48,259,42,05,44,173,37,29,39,294,42*7E
$GPGSV,3,2,11,12,37,206,38,06,30,074,37,09,19,051,30,31,12,316,35*77
$GPGSV,3,3,11,23,10,024,33,19,07,119,36,20,02,206,34*4F
$GPRMC,074937.400,A,5459.8320,N,08244.6096,E,7.45,141.85,020916,,,A*60
$GPGGA,074937.600,5459.8317,N,08244.6101,E,1,10,0.8,107.1,M,-36.2,M,,0000*7C
$GPGSA,A,3,02,25,05,29,12,06,09,31,23,19,,,1.6,0.8,1.4*34
$GPRMC,074937.600,A,5459.8317,N,08244.6101,E,7.48,138.22,020916,,,A*67
$GPGGA,074937.800,5459.8314,N,08244.6106,E,1,10,0.8,107.1,M,-36.2,M,,0000*76
$GPGSA,A,3,02,25,05,29,12,06,09,31,23,19,,,1.6,0.8,1.4*34
$GPRMC,074937.800,A,5459.8314,N,08244.6106,E,7.43,134.19,020916,,,A*62
$GPGGA,074938.000,5459.8311,N,08244.6112,E,1,10,0.8,107.1,M,-36.2,M,,0000*71
$GPGSA,A,3,02,25,05,29,12,06,09,31,23,19,,,1.6,0.8,1.4*34
$GPRMC,074938.000,A,5459.8311,N,08244.6112,E,7.38,129.22,020916,,,A*6D
$GPGGA,074938.200,5459.8309,N,08244.6118,E,1,10,0.8,107.1,M,-36.2,M,,0000*70
$GPGSA,A,3,02,25,05,29,12,06,09,31,23,19,,,1.6,0.8,1.4*34
$GPRMC,074938.200,A,5459.8309,N,08244.6118,E,7.18,125.40,020916,,,A*66
$GPGGA,074938.400,5459.8307,N,08244.6124,E,1,10,0.8,107.1,M,-36.2,M,,0000*77
$GPGSA,A,3,02,25,05,29,12,06,09,31,23,19,,,1.6,0.8,1.4*34
$GPGSV,3,1,11,02,72,084,45,25,48,259,42,05,44,173,38,29,39,294,41*72
$GPGSV,3,2,11,12,37,206,38,06,30,074,36,09,19,051,34,31,12,316,31*76
$GPGSV,3,3,11,23,10,024,33,19,07,119,37,20,02,206,34*4E
$GPRMC,074938.400,A,5459.8307,N,08244.6124,E,7.39,122.31,020916,,,A*63
$GPGGA,074938.600,5459.8305,N,08244.6130,E,1,10,0.8,107.1,M,-36.2,M,,0000*72
$GPGSA,A,3,02,25,05,29,12,06,09,31,23,19,,,1.6,0.8,1.4*34
$GPRMC,074938.600,A,5459.8305,N,08244.6130,E,7.37,118.67,020916,,,A*62
$GPGGA,074938.800,5459.8303,N,08244.6136,E,1,10,0.8,107.0,M,-36.2,M,,0000*7D
$GPGSA,A,3,02,25,05,29,12,06,09,31,23,19,,,1.6,0.8,1.4*34
$GPRMC,074938.800,A,5459.8303,N,08244.6136,E,7.26,115.05,020916,,,A*65
$GPGGA,074939.000,5459.8302,N,08244.6143,E,1,10,0.8,107.0,M,-36.2,M,,0000*77
$GPGSA,A,3,02,25,05,29,12,06,09,31,23,19,,,1.6,0.8,1.4*34
$GPRMC,074939.000,A,5459.8302,N,08244.6143,E,7.13,111.72,020916,,,A*6D
$GPGGA,074939.200,5459.8301,N,08244.6149,E,1,10,0.8,107.0,M,-36.2,M,,0000*7C
$GPGSA,A,3,02,25,05,29,12,06,09,31,23,19,,,1.6,0.8,1.4*34
$GPRMC,074939.200,A,5459.8301,N,08244.6149,E,7.33,108.23,020916,,,A*68
$GPGGA,074939.400,5459.8300,N,08244.6156,E,1,10,0.8,107.0,M,-36.2,M,,0000*75
$GPGSA,A,3,02,25,05,29,12,06,09,31,23,19,,,1.6,0.8,1.4*34
$GPGSV,3,1,11,02,72,084,45,25,48,259,42,05,44,173,38,29,39,294,36*72
$GPGSV,3,2,11,12,37,206,38,06,30,074,36,09,19,051,34,31,12,316,32*75
$GPGSV,3,3,11,23,10,024,33,19,07,119,36,20,02,206,34*4F
$GPRMC,074939.400,A,5459.8300,N,08244.6156,E,7.27,105.66,020916,,,A*68
$GPGGA,074939.600,5459.8299,N,08244.6163,E,1,10,0.8,107.0,M,-36.2,M,,0000*70
$GPGSA,A,3,02,25,05,29,12,06,09,31,23,19,,,1.6,0.8,1.4*34
$GPRMC,074939.600,A,5459.8299,N,08244.6163,E,7.20,102.98,020916,,,A*6C
$GPGGA,074939.800,5459.8298,N,08244.6170,E,1,10,0.8,107.0,M,-36.2,M,,0000*7D
$GPGSA,A,3,02,25,05,29,12,06,09,31,23,19,,,1.6,0.8,1.4*34
$GPRMC,074939.800,A,5459.8298,N,08244.6170,E,7.52,101.85,020916,,,A*6B
$GPGGA,074940.000,5459.8297,N,08244.6177,E,1,10,0.8,107.0,M,-36.2,M,,0000*73
$GPGSA,A,3,02,25,05,29,12,06,09,31,23,19,,,1.6,0.8,1.4*34
$GPRMC,074940.000,A,5459.8297,N,08244.6177,E,7.54,100.34,020916,,,A*68
$GPGGA,074940.200,5459.8297,N,08244.6184,E,1,10,0.8,107.0,M,-36.2,M,,0000*7D
$GPGSA,A,3,02,25,05,29,12,06,09,31,23,19,,,1.6,0.8,1.4*34
$GPRMC,074940.200,A,5459.8297,N,08244.6184,E,7.41,98.56,020916,,,A*56
$GPGGA,074940.400,5459.8296,N,08244.6191,E,1,10,0.8,107.0,M,-36.2,M,,0000*7E
$GPGSA,A,3,02,25,05,29,12,06,09,31,23,19,,,1.6,0.8,1.4*34
$GPGSV,3,1,11,02,72,084,45,25,48,259,36,05,44,173,38,29,39,294,38*7F
$GPGSV,3,2,11,12,37,206,38,06,30,074,36,09,19,051,35,31,12,316,32*74
$GPGSV,3,3,11,23,10,024,33,19,07,119,36,20,02,206,33*48
$GPRMC,074940.400,A,5459.8296,N,08244.6191,E,7.76,95.09,020916,,,A*56
$GPGGA,074940.600,5459.8296,N,08244.6199,E,1,10,0.8,106.9,M,-36.2,M,,0000*7C
$GPGSA,A,3,02,25,05,29,12,06,09,31,23,19,,,1.6,0.8,1.4*34
$GPRMC,074940.600,A,5459.8296,N,08244.6199,E,7.75,92.97,020916,,,A*5F
$GPGGA,074940.800,5459.8296,N,08244.6206,E,1,10,0.8,106.9,M,-36.2,M,,0000*77
$GPGSA,A,3,02,25,05,29,12,06,09,31,23,19,,,1.6,0.8,1.4*34
$GPRMC,074940.800,A,5459.8296,N,08244.6206,E,7.66,91.30,020916,,,A*58
$GPGGA,074941.000,5459.8296,N,08244.6214,E,1,10,0.8,107.0,M,-36.2,M,,0000*75
$GPGSA,A,3,02,25,05,29,12,06,09,31,23,19,,,1.6,0.8,1.4*34
$GPRMC,074941.000,A,5459.8296,N,08244.6214,E,7.92,89.73,020916,,,A*57
$GPGGA,074941.200,5459.8296,N,08244.6221,E,1,10,0.8,106.9,M,-36.2,M,,0000*79
$GPGSA,A,3,02,25,05,29,12,06,09,31,23,19,,,1.6,0.8,1.4*34
$GPRMC,074941.200,A,5459.8296,N,08244.6221,E,7.80,88.29,020916,,,A*5E
$GPGGA,074941.400,5459.8297,N,08244.6229,E,1,10,0.8,106.9,M,-36.2,M,,0000*76
$GPGSA,A,3,02,25,05,29,12,06,09,31,23,19,,,1.6,0.8,1.4*34
$GPGSV,3,1,11,02,72,084,44,25,48,259,32,05,44,173,35,29,39,294,38*77
$GPGSV,3,2,11,12,37,206,38,06,30,074,32,09,19,051,35,31,12,316,33*71
$GPGSV,3,3,11,23,10,024,33,19,07,119,36,20,02,206,33*48
$GPRMC,074941.400,A,5459.8297,N,08244.6229,E,7.72,86.28,020916,,,A*53
$GPGGA,074941.600,5459.8297,N,08244.6236,E,1,10,0.8,106.9,M,-36.2,M,,0000*7A
$GPGSA,A,3,02,25,05,29,12,06,09,31,23,19,,,1.6,0.8,1.4*34
$GPRMC,074941.600,A,5459.8297,N,08244.6236,E,7.76,83.69,020916,,,A*5B
$GPGGA,074941.800,5459.8298,N,08244.6244,E,1,10,0.8,106.9,M,-36.2,M,,0000*7E
$GPGSA,A,3,02,25,05,29,12,06,09,31,23,19,,,1.6,0.8,1.4*34
$GPRMC,074941.800,A,5459.8298,N,08244.6244,E,7.71,82.41,020916,,,A*53
$GPGGA,074942.000,5459.8298,N,08244.6251,E,1,10,0.8,106.9,M,-36.2,M,,0000*71
$GPGSA,A,3,02,25,05,29,12,06,09,31,23,19,,,1.6,0.8,1.4*34
$GPRMC,074942.000,A,5459.8298,N,08244.6251,E,7.53,81.60,020916,,,A*5C
$GPGGA,074942.200,5459.8299,N,08244.6258,E,1,10,0.8,106.8,M,-36.2,M,,0000*7A
$GPGSA,A,3,02,25,05,29,12,06,09,31,23,19,,,1.6,0.8,1.4*34
$GPRMC,074942.200,A,5459.8299,N,08244.6258,E,7.61,79.81,020916,,,A*5F
$GPGGA,074942.400,5459.8300,N,08244.6265,E,1,10,0.8,106.8,M,-36.2,M,,0000*73
$GPGSA,A,3,02,25,05,29,12,06,09,31,23,19,,,1.6,0.8,1.4*34
$GPGSV,3,1,11,02,72,084,44,25,48,259,33,05,44,173,36,29,39,294,37*7A
$GPGSV,3,2,11,12,37,206,39,06,30,074,28,09,19,051,35,31,12,316,34*7C
$GPGSV,3,3,11,23,10,024,33,19,07,119,26,20,02,206,33*49
$GPRMC,074942.400,A,5459.8300,N,08244.6265,E,7.42,76.78,020916,,,A*5E
$GPGGA,074942.600,5459.8301,N,08244.6272,E,1,10,0.8,106.8,M,-36.2,M,,0000*76
$GPGSA,A,3,02,25,05,29,12,06,09,31,23,19,,,1.6,0.8,1.4*34
$GPRMC,074942.600,A,5459.8301,N,08244.6272,E,7.68,74.64,020916,,,A*5C
$GPGGA,074942.800,5459.8303,N,08244.6279,E,1,10,0.8,106.8,M,-36.2,M,,0000*71
$GPGSA,A,3,02,25,05,29,12,06,09,31,23,19,,,1.6,0.8,1.4*34
$GPRMC,074942.800,A,5459.8303,N,08244.6279,E,7.86,72.65,020916,,,A*5C
$GPGGA,074943.000,5459.8304,N,08244.6286,E,1,10,0.8,106.8,M,-36.2,M,,0000*7F
$GPGSA,A,3,02,25,05,29,12,06,09,31,23,19,,,1.6,0.8,1.4*34
$GPRMC,074943.000,A,5459.8304,N,08244.6286,E,7.45,70.07,020916,,,A*5B
$GPGGA,074943.200,5459.8306,N,08244.6292,E,1,10,0.8,106.8,M,-36.2,M,,0000*7A
$GPGSA,A,3,02,25,05,29,12,06,09,31,23,19,,,1.6,0.8,1.4*34
$GPRMC,074943.200,A,5459.8306,N,08244.6292,E,7.25,66.57,020916,,,A*5A
$GPGGA,074943.400,5459.8308,N,08244.6298,E,1,10,0.8,106.8,M,-36.2,M,,0000*78
$GPGSA,A,3,02,25,05,29,12,06,09,31,23,19,,,1.6,0.8,1.4*34
$GPGSV,3,1,11,02,72,084,44,25,48,259,35,05,44,173,39,29,39,294,30*74
$GPGSV,3,2,11,12,37,206,40,06,30,074,30,09,19,051,34,31,12,316,34*7A
$GPGSV,3,3,11,23,10,024,33,19,07,119,32,20,02,206,34*4B
$GPRMC,074943.400,A,5459.8308,N,08244.6298,E,7.12,61.55,020916,,,A*59
$GPGGA,074943.600,5459.8310,N,08244.6304,E,1,10,0.8,106.8,M,-36.2,M,,0000*77
$GPGSA,A,3,02,25,05,29,12,06,09,31,23,19,,,1.6,0.8,1.4*34
$GPRMC,074943.600,A,5459.8310,N,08244.6304,E,7.20,56.92,020916,,,A*58
$GPGGA,074943.800,5459.8313,N,08244.6309,E,1,10,0.8,106.8,M,-36.2,M,,0000*77
$GPGSA,A,3,02,25,05,29,12,06,09,31,23,19,,,1.6,0.8,1.4*34
$GPRMC,074943.800,A,5459.8313,N,08244.6309,E,7.10,51.47,020916,,,A*54
$GPGGA,074944.000,5459.8315,N,08244.6313,E,1,10,0.8,106.8,M,-36.2,M,,0000*75
